{
  "0": {
    "id": 10000,
    "name": "A. ö. Bezirkskrankenhaus Kufstein",
    "address": "",
    "city": "Kufstein",
    "state": "Tirol",
    "zip": 6330,
    "county": "",
    "phone": "",
    "type": "",
    "ownership": "",
    "emergency": "",
    "quality": "",
    "LAT": 47.5707931,
    "LON": 12.1519599
  },
  "1": {
    "id": 10001,
    "name": "A.ö. Tauernklinikum Mittersill",
    "address": "",
    "city": "Mittersill",
    "state": "Salzburg",
    "zip": 5730,
    "county": "",
    "phone": "",
    "type": "",
    "ownership": "",
    "emergency": "Yes",
    "quality": "",
    "LAT": 47.2807961,
    "LON": 12.4843668
  },
  "2": {
    "id": 10002,
    "name": "Allgemein öffentliches Krankenhaus Oberpullendorf",
    "address": "Spitalgasse 32",
    "city": "Oberpullendorf",
    "state": "Burgenland",
    "zip": 7350,
    "county": "",
    "phone": "",
    "type": "",
    "ownership": "",
    "emergency": "Yes",
    "quality": "",
    "LAT": 47.507545,
    "LON": 16.5099727
  },
  "3": {
    "id": 10003,
    "name": "Ambulatorium Kurhaus",
    "address": "",
    "city": "Bad Schallerbach",
    "state": "Oberösterreich",
    "zip": 4701,
    "county": "",
    "phone": "",
    "type": "",
    "ownership": "",
    "emergency": "",
    "quality": "",
    "LAT": 48.2317084,
    "LON": 13.9169533
  },
  "4": {
    "id": 10004,
    "name": "Ambulatorium Süd",
    "address": "Wienerbergstraße 13",
    "city": "Wien",
    "state": "Wien",
    "zip": 1100,
    "county": "",
    "phone": "",
    "type": "",
    "ownership": "",
    "emergency": "",
    "quality": "",
    "LAT": 48.1694662,
    "LON": 16.3451552
  },
  "5": {
    "id": 10005,
    "name": "Bau 0",
    "address": "",
    "city": "Wels",
    "state": "Oberösterreich",
    "zip": 4600,
    "county": "",
    "phone": "",
    "type": "",
    "ownership": "",
    "emergency": "",
    "quality": "",
    "LAT": 48.1741098,
    "LON": 14.0246502
  },
  "6": {
    "id": 10006,
    "name": "Bau 6 - Eltern-Kind-Zentrum",
    "address": "Eferdingerstraße nan",
    "city": "Wels",
    "state": "Oberösterreich",
    "zip": 4600,
    "county": "",
    "phone": "",
    "type": "",
    "ownership": "",
    "emergency": "",
    "quality": "",
    "LAT": 48.1731684,
    "LON": 14.025764
  },
  "7": {
    "id": 10007,
    "name": "Bezirkskrankenhaus Lienz",
    "address": "Emanuel von Hibler-Straße 5",
    "city": "Lienz",
    "state": "Tirol",
    "zip": 9900,
    "county": "",
    "phone": "",
    "type": "",
    "ownership": "",
    "emergency": "",
    "quality": "",
    "LAT": 46.835543,
    "LON": 12.7637099
  },
  "8": {
    "id": 10008,
    "name": "Bezirkskrankenhaus Reutte",
    "address": "",
    "city": "Ehenbichl",
    "state": "Tirol",
    "zip": 6600,
    "county": "",
    "phone": "",
    "type": "",
    "ownership": "",
    "emergency": "",
    "quality": "",
    "LAT": 47.4729688,
    "LON": 10.7142317
  },
  "9": {
    "id": 10009,
    "name": "Bezirkskrankenhaus Schwaz",
    "address": "Dr.-Körner-Straße 2",
    "city": "Schwaz",
    "state": "Tirol",
    "zip": 6130,
    "county": "",
    "phone": "",
    "type": "",
    "ownership": "",
    "emergency": "Yes",
    "quality": "",
    "LAT": 47.3440612,
    "LON": 11.7048539
  },
  "10": {
    "id": 10010,
    "name": "Bezirkskrankenhaus St. Johann in Tirol",
    "address": "Bahnhofstraße 14",
    "city": "Sankt Johann in Tirol",
    "state": "Tirol",
    "zip": 6380,
    "county": "",
    "phone": "+43 5352 606-0",
    "type": "",
    "ownership": "",
    "emergency": "",
    "quality": "",
    "LAT": 47.5213384,
    "LON": 12.429782
  },
  "11": {
    "id": 10011,
    "name": "Christian Doppler Klinik",
    "address": "Ignaz-Harrer-Straße 79",
    "city": "Salzburg",
    "state": "Salzburg",
    "zip": 5020,
    "county": "",
    "phone": "",
    "type": "",
    "ownership": "",
    "emergency": "",
    "quality": "",
    "LAT": 47.813022,
    "LON": 13.0212794
  },
  "12": {
    "id": 10012,
    "name": "Diakonissen-Krankenhaus",
    "address": "",
    "city": "Salzburg",
    "state": "Salzburg",
    "zip": 5026,
    "county": "",
    "phone": "",
    "type": "",
    "ownership": "",
    "emergency": "",
    "quality": "",
    "LAT": 47.7876671,
    "LON": 13.0761564
  },
  "13": {
    "id": 10013,
    "name": "Diakonissen-Krankenhaus Linz",
    "address": "",
    "city": "Linz",
    "state": "Oberösterreich",
    "zip": 4020,
    "county": "",
    "phone": "",
    "type": "",
    "ownership": "",
    "emergency": "No",
    "quality": "",
    "LAT": 48.3038063,
    "LON": 14.3011085
  },
  "14": {
    "id": 10014,
    "name": "Donauspital / SMZ-Ost",
    "address": "Langobardenstraße 122",
    "city": "Wien",
    "state": "Wien",
    "zip": 1220,
    "county": "",
    "phone": "",
    "type": "",
    "ownership": "",
    "emergency": "Yes",
    "quality": "",
    "LAT": 48.2195455,
    "LON": 16.4600433
  },
  "15": {
    "id": 10015,
    "name": "Dr. Martin Pasiut",
    "address": "Blumengasse 31",
    "city": "Grafenstein",
    "state": "Kärnten",
    "zip": 9131,
    "county": "",
    "phone": "",
    "type": "",
    "ownership": "",
    "emergency": "",
    "quality": "",
    "LAT": 46.6132386,
    "LON": 14.4659965
  },
  "16": {
    "id": 10016,
    "name": "Evangelisches Krankenhaus Wien",
    "address": "Hans-Sachs-Gasse 10-12",
    "city": "Wien",
    "state": "Wien",
    "zip": 1180,
    "county": "",
    "phone": "+43 1 40422 0",
    "type": "",
    "ownership": "",
    "emergency": "No",
    "quality": "",
    "LAT": 48.2242433,
    "LON": 16.3456746
  },
  "18": {
    "id": 10018,
    "name": "Gesundheitsresort Raxblick",
    "address": "Oberland 2-4",
    "city": "Reichenau an der Rax",
    "state": "Niederösterreich",
    "zip": 2651,
    "county": "",
    "phone": "",
    "type": "",
    "ownership": "",
    "emergency": "",
    "quality": "",
    "LAT": 47.6710148,
    "LON": 15.7861868
  },
  "19": {
    "id": 10019,
    "name": "Gesundheitszentrum Linzerheim",
    "address": "Grieskirchner Straße 6",
    "city": "Bad Schallerbach",
    "state": "Oberösterreich",
    "zip": 4701,
    "county": "",
    "phone": "",
    "type": "",
    "ownership": "",
    "emergency": "",
    "quality": "",
    "LAT": 48.2315094,
    "LON": 13.9180365
  },
  "20": {
    "id": 10020,
    "name": "Hanusch-Krankenhaus",
    "address": "Heinrich-Collin-Straße 30",
    "city": "Wien",
    "state": "Wien",
    "zip": 1140,
    "county": "",
    "phone": "",
    "type": "",
    "ownership": "",
    "emergency": "",
    "quality": "",
    "LAT": 48.1987788,
    "LON": 16.2902896
  },
  "21": {
    "id": 10021,
    "name": "Heeresspital",
    "address": "Brünner Straße 238",
    "city": "Wien",
    "state": "Wien",
    "zip": 1210,
    "county": "",
    "phone": "",
    "type": "",
    "ownership": "",
    "emergency": "Yes",
    "quality": "",
    "LAT": 48.2930133,
    "LON": 16.4188238
  },
  "22": {
    "id": 10022,
    "name": "HerzReha Bad Ischl",
    "address": "Gartenstraße 9",
    "city": "Bad Ischl",
    "state": "Oberösterreich",
    "zip": 4820,
    "county": "",
    "phone": "",
    "type": "",
    "ownership": "",
    "emergency": "",
    "quality": "",
    "LAT": 47.7097904,
    "LON": 13.6134532
  },
  "23": {
    "id": 10023,
    "name": "Kepler Universitätsklinikum - Med Campus III",
    "address": "",
    "city": "Linz",
    "state": "Oberösterreich",
    "zip": 4020,
    "county": "",
    "phone": "",
    "type": "",
    "ownership": "",
    "emergency": "",
    "quality": "",
    "LAT": 48.3021918,
    "LON": 14.3043075
  },
  "24": {
    "id": 10024,
    "name": "Kepler Universitätsklinikum - Med Campus IV",
    "address": "",
    "city": "Linz",
    "state": "Oberösterreich",
    "zip": 4020,
    "county": "",
    "phone": "",
    "type": "",
    "ownership": "",
    "emergency": "",
    "quality": "",
    "LAT": 48.3019513,
    "LON": 14.3071566
  },
  "25": {
    "id": 10025,
    "name": "Kepler Universitätsklinikum - Neuromed Campus",
    "address": "Wagner-Jauregg-Weg 15",
    "city": "Linz",
    "state": "Oberösterreich",
    "zip": 4020,
    "county": "",
    "phone": "",
    "type": "",
    "ownership": "",
    "emergency": "",
    "quality": "",
    "LAT": 48.2797019,
    "LON": 14.2956139
  },
  "26": {
    "id": 10026,
    "name": "Klinik Diakonissen Schladming",
    "address": "Salzburger Straße 777",
    "city": "Schladming",
    "state": "Steiermark",
    "zip": 8970,
    "county": "",
    "phone": "+43 3687 2020 0",
    "type": "",
    "ownership": "",
    "emergency": "Yes",
    "quality": "",
    "LAT": 47.3915863,
    "LON": 13.6775092
  },
  "27": {
    "id": 10027,
    "name": "Klinik Floridsdorf",
    "address": "Brünner Straße 68",
    "city": "Wien",
    "state": "Wien",
    "zip": 1210,
    "county": "",
    "phone": "+43 1 27700 - 0",
    "type": "",
    "ownership": "",
    "emergency": "Yes",
    "quality": "",
    "LAT": 48.2694155,
    "LON": 16.4048833
  },
  "28": {
    "id": 10028,
    "name": "Klinikum Grieskirchen",
    "address": "Georg-Wagenleithner-Straße 27",
    "city": "Grieskirchen",
    "state": "Oberösterreich",
    "zip": 4710,
    "county": "",
    "phone": -7806,
    "type": "",
    "ownership": "",
    "emergency": "",
    "quality": "",
    "LAT": 48.2388023,
    "LON": 13.8208565
  },
  "29": {
    "id": 10029,
    "name": "Klinikum Klagenfurt am Wörthersee",
    "address": "",
    "city": "Klagenfurt am Wörthersee",
    "state": "Kärnten",
    "zip": 9020,
    "county": "",
    "phone": "",
    "type": "",
    "ownership": "",
    "emergency": "",
    "quality": "",
    "LAT": 46.636715,
    "LON": 14.3004593
  },
  "30": {
    "id": 10030,
    "name": "Klinikum Wels",
    "address": "Grieskirchner Straße 42",
    "city": "Wels",
    "state": "Oberösterreich",
    "zip": 4600,
    "county": "",
    "phone": "+43 7242 415 0",
    "type": "",
    "ownership": "",
    "emergency": "",
    "quality": "",
    "LAT": 48.1743123,
    "LON": 14.0227935
  },
  "31": {
    "id": 10031,
    "name": "Krankenanstalt Rudolfstiftung",
    "address": "Juchgasse 25",
    "city": "Wien",
    "state": "Wien",
    "zip": 1030,
    "county": "",
    "phone": "+43 (1) 711 65-0",
    "type": "",
    "ownership": "",
    "emergency": "Yes",
    "quality": "",
    "LAT": 48.1950723,
    "LON": 16.3891181
  },
  "32": {
    "id": 10032,
    "name": "Krankenhaus Abtenau",
    "address": "Markt 25",
    "city": "Abtenau",
    "state": "Salzburg",
    "zip": 5441,
    "county": "",
    "phone": "",
    "type": "",
    "ownership": "",
    "emergency": "",
    "quality": "",
    "LAT": 47.565473,
    "LON": 13.3472536
  },
  "33": {
    "id": 10033,
    "name": "Krankenhaus Barmherzige Brüder Salzburg",
    "address": "",
    "city": "Salzburg",
    "state": "Salzburg",
    "zip": 5020,
    "county": "",
    "phone": "",
    "type": "",
    "ownership": "",
    "emergency": "",
    "quality": "",
    "LAT": 47.7976468,
    "LON": 13.0506956
  },
  "34": {
    "id": 10034,
    "name": "Krankenhaus Göttlicher Heiland",
    "address": "Dornbacher Straße 20-26",
    "city": "Wien",
    "state": "Wien",
    "zip": 1170,
    "county": "",
    "phone": "",
    "type": "",
    "ownership": "",
    "emergency": "",
    "quality": "",
    "LAT": 48.2284567,
    "LON": 16.3055002
  },
  "35": {
    "id": 10035,
    "name": "Krankenhaus Hallein",
    "address": "Bürgermeisterstraße 34",
    "city": "Hallein",
    "state": "Salzburg",
    "zip": 5400,
    "county": "",
    "phone": "+43 6245 7990",
    "type": "",
    "ownership": "",
    "emergency": "Yes",
    "quality": "",
    "LAT": 47.6855242,
    "LON": 13.1120345
  },
  "37": {
    "id": 10037,
    "name": "Krankenhaus Hietzing",
    "address": "",
    "city": "Wien",
    "state": "Wien",
    "zip": 1130,
    "county": "",
    "phone": "",
    "type": "",
    "ownership": "",
    "emergency": "",
    "quality": "",
    "LAT": 48.1682215,
    "LON": 16.2811033
  },
  "38": {
    "id": 10038,
    "name": "Krankenhaus Kittsee",
    "address": "Hauptplatz 3",
    "city": "Kittsee",
    "state": "Burgenland",
    "zip": 2421,
    "county": "",
    "phone": "",
    "type": "",
    "ownership": "",
    "emergency": "Yes",
    "quality": "",
    "LAT": 48.0930438,
    "LON": 17.0648818
  },
  "39": {
    "id": 10039,
    "name": "Krankenhaus Oberwart",
    "address": "Dornburggasse 80",
    "city": "Oberwart",
    "state": "Burgenland",
    "zip": 7400,
    "county": "",
    "phone": "",
    "type": "",
    "ownership": "",
    "emergency": "",
    "quality": "",
    "LAT": 47.2804757,
    "LON": 16.2025256
  },
  "40": {
    "id": 10040,
    "name": "Krankenhaus Sierning",
    "address": "Neustraße 14",
    "city": "Sierning",
    "state": "Oberösterreich",
    "zip": 4522,
    "county": "",
    "phone": "07259 / 2142 - 0",
    "type": "",
    "ownership": "",
    "emergency": "",
    "quality": "",
    "LAT": 48.0427692,
    "LON": 14.3069624
  },
  "41": {
    "id": 10041,
    "name": "Krankenhaus Spittal/Drau",
    "address": "",
    "city": "Spittal an der Drau",
    "state": "Kärnten",
    "zip": 9800,
    "county": "",
    "phone": "",
    "type": "",
    "ownership": "",
    "emergency": "",
    "quality": "",
    "LAT": 46.8021679,
    "LON": 13.4898409
  },
  "42": {
    "id": 10042,
    "name": "Krankenhaus St. Vinzenz Zams",
    "address": "Sanatoriumstraße 43",
    "city": "Zams",
    "state": "Tirol",
    "zip": 6511,
    "county": "",
    "phone": "",
    "type": "",
    "ownership": "",
    "emergency": "",
    "quality": "",
    "LAT": 47.1613611,
    "LON": 10.5937612
  },
  "43": {
    "id": 10043,
    "name": "Krankenhaus Theresienhof",
    "address": "nan 3-5",
    "city": "Frohnleiten",
    "state": "Steiermark",
    "zip": 8130,
    "county": "",
    "phone": 4331264700,
    "type": "",
    "ownership": "",
    "emergency": "No",
    "quality": "",
    "LAT": 47.2707562,
    "LON": 15.3238161
  },
  "44": {
    "id": 10044,
    "name": "Krankenhaus der Barmherzigen Brüder",
    "address": "",
    "city": "Wien",
    "state": "Wien",
    "zip": 1020,
    "county": "",
    "phone": "",
    "type": "",
    "ownership": "",
    "emergency": "Yes",
    "quality": "",
    "LAT": 48.2157345,
    "LON": 16.3811781
  },
  "46": {
    "id": 10046,
    "name": "Krankenhaus der Barmherzigen Brüder Graz",
    "address": "Marschallgasse 12",
    "city": "Graz",
    "state": "Steiermark",
    "zip": 8020,
    "county": "",
    "phone": "+43 316 7067 0",
    "type": "",
    "ownership": "",
    "emergency": "No",
    "quality": "",
    "LAT": 47.071973,
    "LON": 15.4312866
  },
  "47": {
    "id": 10047,
    "name": "Krankenhaus der Barmherzigen Brüder Graz-Eggenberg",
    "address": "Bergstraße 26+27",
    "city": "Graz",
    "state": "Steiermark",
    "zip": 8020,
    "county": "",
    "phone": "",
    "type": "",
    "ownership": "",
    "emergency": "No",
    "quality": "",
    "LAT": 47.0787135,
    "LON": 15.3919683
  },
  "48": {
    "id": 10048,
    "name": "Krankenhaus der Barmherzigen Schwestern Ried",
    "address": "Schloßberg 1",
    "city": "Ried im Innkreis",
    "state": "Oberösterreich",
    "zip": 4910,
    "county": "",
    "phone": "",
    "type": "",
    "ownership": "",
    "emergency": "Yes",
    "quality": "",
    "LAT": 48.2104406,
    "LON": 13.4932608
  },
  "49": {
    "id": 10049,
    "name": "Krankenhaus der Elisabethinen",
    "address": "Fadingerstraße 1",
    "city": "Linz",
    "state": "Oberösterreich",
    "zip": 4020,
    "county": "",
    "phone": "",
    "type": "",
    "ownership": "",
    "emergency": "",
    "quality": "",
    "LAT": 48.3039292,
    "LON": 14.2951269
  },
  "52": {
    "id": 10052,
    "name": "Krankenhaus der barmherzigen Schwestern",
    "address": "Seilerstätte 4",
    "city": "Linz",
    "state": "Oberösterreich",
    "zip": 4020,
    "county": "",
    "phone": "",
    "type": "",
    "ownership": "",
    "emergency": "",
    "quality": "",
    "LAT": 48.2996312,
    "LON": 14.28946
  },
  "53": {
    "id": 10053,
    "name": "Krankenhaus/Rehabilitationszentrum",
    "address": "Paracelsusstraße 37",
    "city": "Oberndorf bei Salzburg",
    "state": "Salzburg",
    "zip": 5110,
    "county": "",
    "phone": "",
    "type": "",
    "ownership": "",
    "emergency": "",
    "quality": "",
    "LAT": 47.9369641,
    "LON": 12.9471
  },
  "54": {
    "id": 10054,
    "name": "LKH Bad Ischl",
    "address": "Dr. Mayer Straße 8-10",
    "city": "Bad Ischl",
    "state": "Oberösterreich",
    "zip": 4820,
    "county": "",
    "phone": "",
    "type": "",
    "ownership": "",
    "emergency": "",
    "quality": "",
    "LAT": 47.7059692,
    "LON": 13.6240858
  },
  "55": {
    "id": 10055,
    "name": "LKH Hohenems",
    "address": "Bahnhofstraße 31",
    "city": "Hohenems",
    "state": "Vorarlberg",
    "zip": 6845,
    "county": "",
    "phone": "",
    "type": "",
    "ownership": "",
    "emergency": "",
    "quality": "",
    "LAT": 47.3628371,
    "LON": 9.6807817
  },
  "56": {
    "id": 10056,
    "name": "LKH Klagenfurt",
    "address": "",
    "city": "Klagenfurt am Wörthersee",
    "state": "Kärnten",
    "zip": 9020,
    "county": "",
    "phone": "",
    "type": "",
    "ownership": "",
    "emergency": "No",
    "quality": "",
    "LAT": 46.6323712,
    "LON": 14.3021858
  },
  "57": {
    "id": 10057,
    "name": "LKH Rottenmann",
    "address": "nan 2-4",
    "city": "Rottenmann",
    "state": "Steiermark",
    "zip": 8786,
    "county": "",
    "phone": "",
    "type": "",
    "ownership": "",
    "emergency": "Yes",
    "quality": "",
    "LAT": 47.5257619,
    "LON": 14.366312
  },
  "58": {
    "id": 10058,
    "name": "Landesklinik Tamsweg",
    "address": "Bahnhofstraße 7",
    "city": "Tamsweg",
    "state": "Salzburg",
    "zip": 5580,
    "county": "",
    "phone": "",
    "type": "",
    "ownership": "",
    "emergency": "Yes",
    "quality": "",
    "LAT": 47.1288853,
    "LON": 13.8089122
  },
  "59": {
    "id": 10059,
    "name": "Landesklinikum Baden",
    "address": "",
    "city": "Baden",
    "state": "Niederösterreich",
    "zip": 2500,
    "county": "",
    "phone": "",
    "type": "",
    "ownership": "",
    "emergency": "Yes",
    "quality": "",
    "LAT": 48.0000387,
    "LON": 16.253032
  },
  "60": {
    "id": 10060,
    "name": "Landesklinikum Gmünd",
    "address": "Conrathstraße 17",
    "city": "Gmünd",
    "state": "Niederösterreich",
    "zip": 3950,
    "county": "",
    "phone": "+43 2852 9004 0",
    "type": "",
    "ownership": "",
    "emergency": "Yes",
    "quality": "",
    "LAT": 48.760352,
    "LON": 14.9754542
  },
  "61": {
    "id": 10061,
    "name": "Landesklinikum Hollabrunn",
    "address": "",
    "city": "Hollabrunn",
    "state": "Niederösterreich",
    "zip": 2020,
    "county": "",
    "phone": "",
    "type": "",
    "ownership": "",
    "emergency": "Yes",
    "quality": "",
    "LAT": 48.5616934,
    "LON": 16.0909834
  },
  "62": {
    "id": 10062,
    "name": "Landesklinikum Horn",
    "address": "Spitalgasse 10",
    "city": "Horn",
    "state": "Niederösterreich",
    "zip": 3580,
    "county": "",
    "phone": "02982/2661-0",
    "type": "",
    "ownership": "",
    "emergency": "Yes",
    "quality": "",
    "LAT": 48.6697962,
    "LON": 15.6599476
  },
  "63": {
    "id": 10063,
    "name": "Landesklinikum Klosterneuburg",
    "address": "Kreutzergasse 12-14",
    "city": "Klosterneuburg",
    "state": "Niederösterreich",
    "zip": 3400,
    "county": "",
    "phone": "",
    "type": "",
    "ownership": "",
    "emergency": "",
    "quality": "",
    "LAT": 48.3076087,
    "LON": 16.3228541
  },
  "64": {
    "id": 10064,
    "name": "Landesklinikum Korneuburg",
    "address": "",
    "city": "Korneuburg",
    "state": "Niederösterreich",
    "zip": 2100,
    "county": "",
    "phone": "",
    "type": "",
    "ownership": "",
    "emergency": "",
    "quality": "",
    "LAT": 48.3438861,
    "LON": 16.3373865
  },
  "65": {
    "id": 10065,
    "name": "Landesklinikum Lilienfeld",
    "address": "Im Tal 2",
    "city": "Lilienfeld",
    "state": "Niederösterreich",
    "zip": 3180,
    "county": "",
    "phone": 43.30675255,
    "type": "",
    "ownership": "",
    "emergency": "",
    "quality": "",
    "LAT": 48.009781,
    "LON": 15.5801579
  },
  "66": {
    "id": 10066,
    "name": "Landesklinikum Mauer",
    "address": "Hausmeninger Straße 221",
    "city": "Amstetten",
    "state": "Niederösterreich",
    "zip": 3362,
    "county": "",
    "phone": "43 44/53",
    "type": "",
    "ownership": "",
    "emergency": "",
    "quality": "",
    "LAT": 48.0956324,
    "LON": 14.8099893
  },
  "67": {
    "id": 10067,
    "name": "Landesklinikum Melk",
    "address": "",
    "city": "Melk",
    "state": "Niederösterreich",
    "zip": 3390,
    "county": "",
    "phone": "",
    "type": "",
    "ownership": "",
    "emergency": "",
    "quality": "",
    "LAT": 48.2272155,
    "LON": 15.338344
  },
  "68": {
    "id": 10068,
    "name": "Landesklinikum Mistelbach-Gänserndorf",
    "address": "Liechtensteinstraße 67",
    "city": "Mistelbach",
    "state": "Niederösterreich",
    "zip": 2130,
    "county": "",
    "phone": "",
    "type": "",
    "ownership": "",
    "emergency": "",
    "quality": "",
    "LAT": 48.5676042,
    "LON": 16.5801756
  },
  "69": {
    "id": 10069,
    "name": "Landesklinikum Mödling",
    "address": "Schwester-Maria-Restituta-Gasse 12",
    "city": "Mödling",
    "state": "Niederösterreich",
    "zip": 2340,
    "county": "",
    "phone": "",
    "type": "",
    "ownership": "",
    "emergency": "Yes",
    "quality": "",
    "LAT": 48.0901654,
    "LON": 16.2957719
  },
  "70": {
    "id": 10070,
    "name": "Landesklinikum Stockerau",
    "address": "Landstraße 18",
    "city": "Stockerau",
    "state": "Niederösterreich",
    "zip": 2000,
    "county": "",
    "phone": "",
    "type": "",
    "ownership": "",
    "emergency": "Yes",
    "quality": "",
    "LAT": 48.386092,
    "LON": 16.2047124
  },
  "71": {
    "id": 10071,
    "name": "Landesklinikum Waidhofen/Thaya",
    "address": "Moriz-Schadek-Gasse 31",
    "city": "Waidhofen an der Thaya",
    "state": "Niederösterreich",
    "zip": 3830,
    "county": "",
    "phone": "",
    "type": "",
    "ownership": "",
    "emergency": "Yes",
    "quality": "",
    "LAT": 48.8131318,
    "LON": 15.2843194
  },
  "72": {
    "id": 10072,
    "name": "Landesklinikum Waidhofen/Ybbs",
    "address": "",
    "city": "Waidhofen an der Ybbs",
    "state": "Niederösterreich",
    "zip": 3340,
    "county": "",
    "phone": "",
    "type": "",
    "ownership": "",
    "emergency": "Yes",
    "quality": "",
    "LAT": 47.9525849,
    "LON": 14.7885095
  },
  "73": {
    "id": 10073,
    "name": "Landesklinikum Wiener Neustadt",
    "address": "Corvinusring 3-5",
    "city": "Wiener Neustadt",
    "state": "Niederösterreich",
    "zip": 2700,
    "county": "",
    "phone": "+43 2622 321-0",
    "type": "",
    "ownership": "",
    "emergency": "Yes",
    "quality": "",
    "LAT": 47.8167248,
    "LON": 16.2482145
  },
  "74": {
    "id": 10074,
    "name": "Landeskrankenhaus",
    "address": "",
    "city": "Villach",
    "state": "Kärnten",
    "zip": 9500,
    "county": "",
    "phone": "",
    "type": "",
    "ownership": "",
    "emergency": "Yes",
    "quality": "",
    "LAT": 46.6164966,
    "LON": 13.8569658
  },
  "75": {
    "id": 10075,
    "name": "Landeskrankenhaus Bad Aussee",
    "address": "Sommersbergseestraße 396",
    "city": "Bad Aussee",
    "state": "Steiermark",
    "zip": 8990,
    "county": "",
    "phone": "",
    "type": "",
    "ownership": "",
    "emergency": "Yes",
    "quality": "",
    "LAT": 47.6069202,
    "LON": 13.7739402
  },
  "76": {
    "id": 10076,
    "name": "Landeskrankenhaus Bad Radkersburg",
    "address": "Dr. Schwaiger-Straße 1",
    "city": "Bad Radkersburg",
    "state": "Steiermark",
    "zip": 8490,
    "county": "",
    "phone": "+43 3476 2401 0",
    "type": "",
    "ownership": "",
    "emergency": "Yes",
    "quality": "",
    "LAT": 46.6919561,
    "LON": 15.9933519
  },
  "77": {
    "id": 10077,
    "name": "Landeskrankenhaus Bludenz",
    "address": "Spitalgasse 13",
    "city": "Bludenz",
    "state": "Vorarlberg",
    "zip": 6700,
    "county": "",
    "phone": "",
    "type": "",
    "ownership": "",
    "emergency": "",
    "quality": "",
    "LAT": 47.1599039,
    "LON": 9.8200143
  },
  "78": {
    "id": 10078,
    "name": "Landeskrankenhaus Bruck an der Mur",
    "address": "Tragößer Straße 1",
    "city": "Bruck an der Mur",
    "state": "Steiermark",
    "zip": 8600,
    "county": "",
    "phone": "+43 3862 895 0",
    "type": "",
    "ownership": "",
    "emergency": "",
    "quality": "",
    "LAT": 47.4237265,
    "LON": 15.2653419
  },
  "79": {
    "id": 10079,
    "name": "Landeskrankenhaus Deutschlandsberg",
    "address": "Radlpaßstraße 29",
    "city": "Deutschlandsberg",
    "state": "Steiermark",
    "zip": 8530,
    "county": "",
    "phone": "+43 3462 4411 0",
    "type": "",
    "ownership": "",
    "emergency": "Yes",
    "quality": "",
    "LAT": 46.8115594,
    "LON": 15.2318154
  },
  "80": {
    "id": 10080,
    "name": "Landeskrankenhaus Enzenbach",
    "address": "Hörgas 30",
    "city": "Gratwein-Straßengel",
    "state": "Steiermark",
    "zip": 8111,
    "county": "",
    "phone": "",
    "type": "",
    "ownership": "",
    "emergency": "",
    "quality": "",
    "LAT": 47.1535096,
    "LON": 15.2943541
  },
  "81": {
    "id": 10081,
    "name": "Landeskrankenhaus Feldbach",
    "address": "Ottokar-Kernstock-Straße 18",
    "city": "Feldbach",
    "state": "Steiermark",
    "zip": 8330,
    "county": "",
    "phone": "+43 3152 899 0",
    "type": "",
    "ownership": "",
    "emergency": "Yes",
    "quality": "",
    "LAT": 46.9518041,
    "LON": 15.8816196
  },
  "82": {
    "id": 10082,
    "name": "Landeskrankenhaus Fürstenfeld",
    "address": "Krankenhausgasse 1",
    "city": "Fürstenfeld",
    "state": "Steiermark",
    "zip": 8280,
    "county": "",
    "phone": "+43 3382 506 0",
    "type": "",
    "ownership": "",
    "emergency": "Yes",
    "quality": "",
    "LAT": 47.0460342,
    "LON": 16.0848675
  },
  "83": {
    "id": 10083,
    "name": "Landeskrankenhaus Gmunden",
    "address": "Miller von Aichholzstraße 49",
    "city": "Gmunden",
    "state": "Oberösterreich",
    "zip": 4810,
    "county": "",
    "phone": "",
    "type": "",
    "ownership": "",
    "emergency": "",
    "quality": "",
    "LAT": 47.9162109,
    "LON": 13.7815234
  },
  "84": {
    "id": 10084,
    "name": "Landeskrankenhaus Graz Süd-West, Standort West",
    "address": "Göstinger Straße 22",
    "city": "Graz",
    "state": "Steiermark",
    "zip": 8020,
    "county": "",
    "phone": "+43 316 5466 0",
    "type": "",
    "ownership": "",
    "emergency": "Yes",
    "quality": "",
    "LAT": 47.0791218,
    "LON": 15.4000797
  },
  "85": {
    "id": 10085,
    "name": "Landeskrankenhaus Güssing",
    "address": "Bergstraße 4",
    "city": "Güssing",
    "state": "Burgenland",
    "zip": 7540,
    "county": "",
    "phone": "",
    "type": "",
    "ownership": "",
    "emergency": "",
    "quality": "",
    "LAT": 47.0506071,
    "LON": 16.3224589
  },
  "86": {
    "id": 10086,
    "name": "Landeskrankenhaus Hall",
    "address": "",
    "city": "Hall in Tirol",
    "state": "Tirol",
    "zip": 6060,
    "county": "",
    "phone": "",
    "type": "",
    "ownership": "",
    "emergency": "",
    "quality": "",
    "LAT": 47.283016,
    "LON": 11.51433
  },
  "87": {
    "id": 10087,
    "name": "Landeskrankenhaus Hartberg",
    "address": "",
    "city": "Hartberg",
    "state": "Steiermark",
    "zip": 8230,
    "county": "",
    "phone": "+43 3332 605 0",
    "type": "",
    "ownership": "",
    "emergency": "Yes",
    "quality": "",
    "LAT": 47.2729853,
    "LON": 15.9675269
  },
  "88": {
    "id": 10088,
    "name": "Landeskrankenhaus Hochsteiermark",
    "address": "Vordernberger Straße 42",
    "city": "Leoben",
    "state": "Steiermark",
    "zip": 8700,
    "county": "",
    "phone": "+43 3842 401 0",
    "type": "",
    "ownership": "",
    "emergency": "Yes",
    "quality": "",
    "LAT": 47.3789335,
    "LON": 15.0840504
  },
  "89": {
    "id": 10089,
    "name": "Landeskrankenhaus Hochzirl",
    "address": "",
    "city": "Zirl",
    "state": "Tirol",
    "zip": 6170,
    "county": "",
    "phone": "",
    "type": "",
    "ownership": "",
    "emergency": "",
    "quality": "",
    "LAT": 47.2841219,
    "LON": 11.2442436
  },
  "90": {
    "id": 10090,
    "name": "Landeskrankenhaus Hörgas",
    "address": "nan 68",
    "city": "Gratwein-Straßengel",
    "state": "Steiermark",
    "zip": 8111,
    "county": "",
    "phone": "",
    "type": "",
    "ownership": "",
    "emergency": "",
    "quality": "",
    "LAT": 47.1376766,
    "LON": 15.310464
  },
  "91": {
    "id": 10091,
    "name": "Landeskrankenhaus Judenburg",
    "address": "Oberweggasse 18",
    "city": "Judenburg",
    "state": "Steiermark",
    "zip": 8750,
    "county": "",
    "phone": "+43 3572 82560 0",
    "type": "",
    "ownership": "",
    "emergency": "Yes",
    "quality": "",
    "LAT": 47.1666638,
    "LON": 14.6546426
  },
  "92": {
    "id": 10092,
    "name": "Landeskrankenhaus Knittelfeld",
    "address": "Gaaler Straße 10",
    "city": "Knittelfeld",
    "state": "Steiermark",
    "zip": 8720,
    "county": "",
    "phone": "+43 3512 707 0",
    "type": "",
    "ownership": "",
    "emergency": "Yes",
    "quality": "",
    "LAT": 47.2145678,
    "LON": 14.8197252
  },
  "93": {
    "id": 10093,
    "name": "Landeskrankenhaus Mariazell",
    "address": "Spitalgasse 4-6",
    "city": "Mariazell",
    "state": "Steiermark",
    "zip": 8630,
    "county": "",
    "phone": "+43 3882 2222 2800",
    "type": "",
    "ownership": "",
    "emergency": "Yes",
    "quality": "",
    "LAT": 47.7894427,
    "LON": 15.304045
  },
  "94": {
    "id": 10094,
    "name": "Landeskrankenhaus Mürzzuschlag",
    "address": "Grazer Straße 63-65",
    "city": "Mürzzuschlag",
    "state": "Steiermark",
    "zip": 8680,
    "county": "",
    "phone": "+43 3852 2080 0",
    "type": "",
    "ownership": "",
    "emergency": "Yes",
    "quality": "",
    "LAT": 47.6013501,
    "LON": 15.6682839
  },
  "95": {
    "id": 10095,
    "name": "Landeskrankenhaus Natters",
    "address": "",
    "city": "Natters",
    "state": "Tirol",
    "zip": 6161,
    "county": "",
    "phone": "",
    "type": "",
    "ownership": "",
    "emergency": "",
    "quality": "",
    "LAT": 47.240459,
    "LON": 11.3653353
  },
  "96": {
    "id": 10096,
    "name": "Landeskrankenhaus Rankweil",
    "address": "Valdunastraße 16",
    "city": "Rankweil",
    "state": "Vorarlberg",
    "zip": 6830,
    "county": "",
    "phone": "",
    "type": "",
    "ownership": "",
    "emergency": "",
    "quality": "",
    "LAT": 47.2624375,
    "LON": 9.6482046
  },
  "97": {
    "id": 10097,
    "name": "Landeskrankenhaus Rottenmann",
    "address": "Sankt Georgen 2-4",
    "city": "Rottenmann",
    "state": "Steiermark",
    "zip": 8786,
    "county": "",
    "phone": "+43 3614 2431 0",
    "type": "",
    "ownership": "",
    "emergency": "Yes",
    "quality": "",
    "LAT": 47.5258637,
    "LON": 14.3661364
  },
  "98": {
    "id": 10098,
    "name": "Landeskrankenhaus Salzburg",
    "address": "Müllner Hauptstraße 48",
    "city": "Salzburg",
    "state": "Salzburg",
    "zip": 5020,
    "county": "",
    "phone": "",
    "type": "",
    "ownership": "",
    "emergency": "Yes",
    "quality": "",
    "LAT": 47.807731,
    "LON": 13.0270114
  },
  "99": {
    "id": 10099,
    "name": "Landeskrankenhaus Schärding",
    "address": "",
    "city": "Schärding",
    "state": "Oberösterreich",
    "zip": 4780,
    "county": "",
    "phone": "",
    "type": "",
    "ownership": "",
    "emergency": "",
    "quality": "",
    "LAT": 48.455432,
    "LON": 13.4360045
  },
  "100": {
    "id": 10100,
    "name": "Landeskrankenhaus Stolzalpe",
    "address": "Stolzalpe 38",
    "city": "Murau",
    "state": "Steiermark",
    "zip": 8852,
    "county": "",
    "phone": "+43 3532 2424 0",
    "type": "",
    "ownership": "",
    "emergency": "Yes",
    "quality": "",
    "LAT": 47.1187367,
    "LON": 14.1875092
  },
  "101": {
    "id": 10101,
    "name": "Landeskrankenhaus Stolzalpe Haus II",
    "address": "nan 38",
    "city": "Murau",
    "state": "Steiermark",
    "zip": 8850,
    "county": "",
    "phone": "",
    "type": "",
    "ownership": "",
    "emergency": "",
    "quality": "",
    "LAT": 47.1208784,
    "LON": 14.1928348
  },
  "102": {
    "id": 10102,
    "name": "Landeskrankenhaus Voitsberg",
    "address": "Conrad-von-Hötzendorf-Straße 31",
    "city": "Voitsberg",
    "state": "Steiermark",
    "zip": 8570,
    "county": "",
    "phone": "+43 3142 201 0",
    "type": "",
    "ownership": "",
    "emergency": "Yes",
    "quality": "",
    "LAT": 47.0523972,
    "LON": 15.1419169
  },
  "104": {
    "id": 10104,
    "name": "Landeskrankenhaus Vöcklabruck",
    "address": "Dr. Wilhelm Bock-Straße 1",
    "city": "Vöcklabruck",
    "state": "Oberösterreich",
    "zip": 4840,
    "county": "",
    "phone": "+43 5055471 0",
    "type": "",
    "ownership": "",
    "emergency": "",
    "quality": "",
    "LAT": 48.0025208,
    "LON": 13.6394796
  },
  "105": {
    "id": 10105,
    "name": "Landeskrankenhaus Wagna",
    "address": "Pelzmannstraße 18",
    "city": "Wagna",
    "state": "Steiermark",
    "zip": 8435,
    "county": "",
    "phone": "+43 3452 701 0",
    "type": "",
    "ownership": "",
    "emergency": "Yes",
    "quality": "",
    "LAT": 46.7692575,
    "LON": 15.5572139
  },
  "106": {
    "id": 10106,
    "name": "Landeskrankenhaus Weiz",
    "address": "Franz-Pichler-Straße 85",
    "city": "Weiz",
    "state": "Steiermark",
    "zip": 8160,
    "county": "",
    "phone": "+43 3172 2214 0",
    "type": "",
    "ownership": "",
    "emergency": "",
    "quality": "",
    "LAT": 47.2130059,
    "LON": 15.6358519
  },
  "107": {
    "id": 10107,
    "name": "Landeskrankenhaus Wolfsberg",
    "address": "Paul-Hackhofer-Straße 9",
    "city": "Wolfsberg",
    "state": "Kärnten",
    "zip": 9400,
    "county": "",
    "phone": "+43 4352 533 0",
    "type": "",
    "ownership": "",
    "emergency": "Yes",
    "quality": "",
    "LAT": 46.8345385,
    "LON": 14.8465399
  },
  "108": {
    "id": 10108,
    "name": "Landeskrankenhaus-Universitätsklinikum Graz",
    "address": "",
    "city": "Graz",
    "state": "Steiermark",
    "zip": 8010,
    "county": "",
    "phone": "",
    "type": "",
    "ownership": "",
    "emergency": "Yes",
    "quality": "",
    "LAT": 47.0892236,
    "LON": 15.4689492
  },
  "109": {
    "id": 10109,
    "name": "Landesnervenklinik Sigmund Freud",
    "address": "Wagner-Jauregg-Platz 1",
    "city": "Graz",
    "state": "Steiermark",
    "zip": 8010,
    "county": "",
    "phone": "",
    "type": "",
    "ownership": "",
    "emergency": "neurology;psychiatry",
    "quality": "",
    "LAT": 47.0355489,
    "LON": 15.4180201
  },
  "110": {
    "id": 10110,
    "name": "Marienkrankenhaus Vorau",
    "address": "",
    "city": "Vorau",
    "state": "Steiermark",
    "zip": 8250,
    "county": "",
    "phone": "+43 3337 2254 0",
    "type": "",
    "ownership": "",
    "emergency": "Yes",
    "quality": "",
    "LAT": 47.4063857,
    "LON": 15.8812822
  },
  "111": {
    "id": 10111,
    "name": "Orthopädisches Spital Speising",
    "address": "Speisinger Straße 109",
    "city": "Wien",
    "state": "Wien",
    "zip": 1130,
    "county": "",
    "phone": "",
    "type": "",
    "ownership": "",
    "emergency": "",
    "quality": "",
    "LAT": 48.1647932,
    "LON": 16.2811977
  },
  "112": {
    "id": 10112,
    "name": "Otto-Wagner-Spital",
    "address": "Baumgartner Höhe 1",
    "city": "Wien",
    "state": "Wien",
    "zip": 1140,
    "county": "",
    "phone": "",
    "type": "",
    "ownership": "",
    "emergency": "",
    "quality": "",
    "LAT": 48.2098321,
    "LON": 16.2855983
  },
  "113": {
    "id": 10113,
    "name": "Pavillion 5, 1. Medizinische Abteilung mit Gastroenterologie",
    "address": "",
    "city": "Wien",
    "state": "Wien",
    "zip": 1130,
    "county": "",
    "phone": "",
    "type": "",
    "ownership": "",
    "emergency": "",
    "quality": "",
    "LAT": 48.1691765,
    "LON": 16.2751114
  },
  "114": {
    "id": 10114,
    "name": "Privatklinik Maria Hilf",
    "address": "",
    "city": "Klagenfurt am Wörthersee",
    "state": "Kärnten",
    "zip": 9020,
    "county": "",
    "phone": "",
    "type": "",
    "ownership": "",
    "emergency": "No",
    "quality": "",
    "LAT": 46.627794,
    "LON": 14.2964364
  },
  "115": {
    "id": 10115,
    "name": "Pyhrn-Eisenwurzen Klinikum Kirchdorf",
    "address": "Hausmanningerstraße 8",
    "city": "Kirchdorf an der Krems",
    "state": "Oberösterreich",
    "zip": 4560,
    "county": "",
    "phone": "05 055467-0",
    "type": "",
    "ownership": "",
    "emergency": "Yes",
    "quality": "",
    "LAT": 47.9082252,
    "LON": 14.1239892
  },
  "116": {
    "id": 10116,
    "name": "Pyhrn-Eisenwurzen Klinikum Steyr",
    "address": "Sierninger Straße 170",
    "city": "Steyr",
    "state": "Oberösterreich",
    "zip": 4400,
    "county": "",
    "phone": 435055466,
    "type": "",
    "ownership": "",
    "emergency": "",
    "quality": "",
    "LAT": 48.0442739,
    "LON": 14.3908059
  },
  "117": {
    "id": 10117,
    "name": "Rotes Kreuz Kärnten Logistikzentrum, Leitstelle, Blutspendedienst",
    "address": "",
    "city": "Klagenfurt am Wörthersee",
    "state": "Kärnten",
    "zip": 9020,
    "county": "",
    "phone": "",
    "type": "",
    "ownership": "",
    "emergency": "",
    "quality": "",
    "LAT": 46.6242849,
    "LON": 14.344013
  },
  "118": {
    "id": 10118,
    "name": "Rudolfinerhaus",
    "address": "Billrothstraße 78",
    "city": "Wien",
    "state": "Wien",
    "zip": 1190,
    "county": "",
    "phone": "",
    "type": "",
    "ownership": "",
    "emergency": "",
    "quality": "",
    "LAT": 48.2441258,
    "LON": 16.346423
  },
  "119": {
    "id": 10119,
    "name": "Sonderkrankenanstalt Rehabilitationszentrum St. Radegund",
    "address": "Quellenstraße 1",
    "city": "Sankt Radegund bei Graz",
    "state": "Steiermark",
    "zip": 8061,
    "county": "",
    "phone": "",
    "type": "",
    "ownership": "",
    "emergency": "No",
    "quality": "",
    "LAT": 47.1819609,
    "LON": 15.4833128
  },
  "121": {
    "id": 10121,
    "name": "Sonderkrankenanstalt Rehabilitationszentrum Weyer",
    "address": "nan 2",
    "city": "Weyer",
    "state": "Oberösterreich",
    "zip": 3335,
    "county": "",
    "phone": "",
    "type": "",
    "ownership": "",
    "emergency": "",
    "quality": "",
    "LAT": 47.8570038,
    "LON": 14.6830743
  },
  "122": {
    "id": 10122,
    "name": "Sozialmedizinisches Zentrum Süd - Kaiser-Franz-Josef-Spital",
    "address": "Kundratstraße 3",
    "city": "Wien",
    "state": "Wien",
    "zip": 1100,
    "county": "",
    "phone": "+43 1 601910",
    "type": "",
    "ownership": "",
    "emergency": "No",
    "quality": "",
    "LAT": 48.1740906,
    "LON": 16.3479306
  },
  "123": {
    "id": 10123,
    "name": "St. Josef Krankenhaus",
    "address": "Auhofstraße 189",
    "city": "Wien",
    "state": "Wien",
    "zip": 1130,
    "county": "",
    "phone": "",
    "type": "",
    "ownership": "",
    "emergency": "No",
    "quality": "",
    "LAT": 48.1945326,
    "LON": 16.2622736
  },
  "124": {
    "id": 10124,
    "name": "Strahlenzentrum",
    "address": "Dr.-Wilhelm-Bock-Straße 1",
    "city": "Vöcklabruck",
    "state": "Oberösterreich",
    "zip": 4840,
    "county": "",
    "phone": "",
    "type": "",
    "ownership": "",
    "emergency": "",
    "quality": "",
    "LAT": 48.0033591,
    "LON": 13.6377833
  },
  "125": {
    "id": 10125,
    "name": "Tauernklinikum",
    "address": "Paracelsusstraße 8",
    "city": "Zell am See",
    "state": "Salzburg",
    "zip": 5700,
    "county": "",
    "phone": "",
    "type": "",
    "ownership": "",
    "emergency": "Yes",
    "quality": "",
    "LAT": 47.3386693,
    "LON": 12.8131917
  },
  "126": {
    "id": 10126,
    "name": "Unfallkrankenhaus",
    "address": "Waidmannsdorfer Straße 35",
    "city": "Klagenfurt am Wörthersee",
    "state": "Kärnten",
    "zip": 9020,
    "county": "",
    "phone": "",
    "type": "",
    "ownership": "",
    "emergency": "Yes",
    "quality": "",
    "LAT": 46.6185696,
    "LON": 14.295623
  },
  "127": {
    "id": 10127,
    "name": "Unfallkrankenhaus Graz",
    "address": "Göstinger Straße 24",
    "city": "Graz",
    "state": "Steiermark",
    "zip": 8020,
    "county": "",
    "phone": "",
    "type": "",
    "ownership": "",
    "emergency": "Yes",
    "quality": "",
    "LAT": 47.0791218,
    "LON": 15.4000797
  },
  "128": {
    "id": 10128,
    "name": "Unfallkrankenhaus Linz",
    "address": "",
    "city": "Linz",
    "state": "Oberösterreich",
    "zip": 4020,
    "county": "",
    "phone": "",
    "type": "",
    "ownership": "",
    "emergency": "Yes",
    "quality": "",
    "LAT": 48.3041603,
    "LON": 14.3109615
  },
  "129": {
    "id": 10129,
    "name": "Unfallkrankenhaus Meidling",
    "address": "Kundratstraße 37-39",
    "city": "Wien",
    "state": "Wien",
    "zip": 1120,
    "county": "",
    "phone": "",
    "type": "",
    "ownership": "",
    "emergency": "",
    "quality": "",
    "LAT": 48.1726189,
    "LON": 16.3430429
  },
  "130": {
    "id": 10130,
    "name": "Unfallkrankenhaus Salzburg",
    "address": "",
    "city": "Salzburg",
    "state": "Salzburg",
    "zip": 5020,
    "county": "",
    "phone": "",
    "type": "",
    "ownership": "",
    "emergency": "Yes",
    "quality": "",
    "LAT": 47.7992557,
    "LON": 13.0551639
  },
  "131": {
    "id": 10131,
    "name": "Universitätsklinik Innsbruck",
    "address": "",
    "city": "Innsbruck",
    "state": "Tirol",
    "zip": 6020,
    "county": "",
    "phone": "",
    "type": "",
    "ownership": "",
    "emergency": "Yes",
    "quality": "",
    "LAT": 47.2634384,
    "LON": 11.3870319
  },
  "132": {
    "id": 10132,
    "name": "Universitätsklinikum Krems",
    "address": "Mitterweg 10",
    "city": "Krems an der Donau",
    "state": "Niederösterreich",
    "zip": 3500,
    "county": "",
    "phone": "",
    "type": "",
    "ownership": "",
    "emergency": "Yes",
    "quality": "",
    "LAT": 48.4128122,
    "LON": 15.6146697
  },
  "133": {
    "id": 10133,
    "name": "Universitätsklinikum St. Pölten",
    "address": "Dunant-Platz 1",
    "city": "Sankt Pölten",
    "state": "Niederösterreich",
    "zip": 3100,
    "county": "",
    "phone": "+43 2742 9004",
    "type": "",
    "ownership": "",
    "emergency": "Yes",
    "quality": "",
    "LAT": 48.214799,
    "LON": 15.6301005
  },
  "134": {
    "id": 10134,
    "name": "Universitätsklinikum Tulln",
    "address": "Alter Ziegelweg 10",
    "city": "Tulln an der Donau",
    "state": "Niederösterreich",
    "zip": 3430,
    "county": "",
    "phone": 43.2523323,
    "type": "",
    "ownership": "",
    "emergency": "",
    "quality": "",
    "LAT": 48.320702,
    "LON": 16.0647103
  },
  "135": {
    "id": 10135,
    "name": "Wilhelminenspital",
    "address": "Montleartstraße 37",
    "city": "Wien",
    "state": "Wien",
    "zip": 1160,
    "county": "",
    "phone": "",
    "type": "",
    "ownership": "",
    "emergency": "Yes",
    "quality": "",
    "LAT": 48.2081646,
    "LON": 16.2981955
  },
  "136": {
    "id": 10136,
    "name": "Zeileis Gesundheitszentrum",
    "address": "Valentin Zeileis-Straße 33",
    "city": "Gallspach",
    "state": "Oberösterreich",
    "zip": 4713,
    "county": "",
    "phone": -69556,
    "type": "",
    "ownership": "",
    "emergency": "",
    "quality": "",
    "LAT": 48.2070012,
    "LON": 13.8101432
  },
  "137": {
    "id": 10137,
    "name": "Ärztezentrum",
    "address": "",
    "city": "Ebenthal in Kärnten",
    "state": "Kärnten",
    "zip": 9065,
    "county": "",
    "phone": "",
    "type": "",
    "ownership": "",
    "emergency": "",
    "quality": "",
    "LAT": 46.6116077,
    "LON": 14.3590662
  },
  "138": {
    "id": 10138,
    "name": "Öffentliches Krankenhaus WAIERN / Feldkirchen",
    "address": "",
    "city": "Feldkirchen in Kärnten",
    "state": "Kärnten",
    "zip": 9560,
    "county": "",
    "phone": "",
    "type": "",
    "ownership": "",
    "emergency": "",
    "quality": "",
    "LAT": 46.7338278,
    "LON": 14.0866195
  },
  "139": {
    "id": 10139,
    "name": "Allgemeiner Medizinischer Arzt Thomas Zorn",
    "address": "",
    "city": "Haus",
    "state": "Steiermark",
    "zip": 8967,
    "county": "",
    "phone": "",
    "type": "",
    "ownership": "",
    "emergency": "",
    "quality": "",
    "LAT": 47.4100425,
    "LON": 13.7689864
  },
  "140": {
    "id": 10140,
    "name": "Allgemeinmediziner Dr. Eder",
    "address": "Markt 50",
    "city": "Waldhausen im Strudengau",
    "state": "Oberösterreich",
    "zip": 4391,
    "county": "",
    "phone": "",
    "type": "",
    "ownership": "",
    "emergency": "",
    "quality": "",
    "LAT": 48.2724496,
    "LON": 14.9500038
  },
  "141": {
    "id": 10141,
    "name": "Allgemeinmediziner Dr. med. Martin Breinesberger",
    "address": "Schulstraße 11",
    "city": "Münzbach",
    "state": "Oberösterreich",
    "zip": 4323,
    "county": "",
    "phone": "",
    "type": "",
    "ownership": "",
    "emergency": "",
    "quality": "",
    "LAT": 48.2642233,
    "LON": 14.7113311
  },
  "142": {
    "id": 10142,
    "name": "Allgemeinmedizinische Arztpraxis",
    "address": "Am Herndlberg 30",
    "city": "Lohnsburg am Kobernaußerwald",
    "state": "Oberösterreich",
    "zip": 4923,
    "county": "",
    "phone": "+43 7754 2315",
    "type": "",
    "ownership": "",
    "emergency": "",
    "quality": "",
    "LAT": 48.1461253,
    "LON": 13.4010342
  },
  "143": {
    "id": 10143,
    "name": "Altes Doktorhaus",
    "address": "nan 49",
    "city": "Schottwien",
    "state": "Niederösterreich",
    "zip": 2641,
    "county": "",
    "phone": "",
    "type": "",
    "ownership": "",
    "emergency": "",
    "quality": "",
    "LAT": 47.6560182,
    "LON": 15.871877
  },
  "144": {
    "id": 10144,
    "name": "Altes Forsthaus",
    "address": "Chlumeckyplatz 58",
    "city": "Bad Aussee",
    "state": "Steiermark",
    "zip": 8990,
    "county": "",
    "phone": "",
    "type": "",
    "ownership": "",
    "emergency": "",
    "quality": "",
    "LAT": 47.6105776,
    "LON": 13.783103
  },
  "145": {
    "id": 10145,
    "name": "Ambulatorium Obergurgl",
    "address": "",
    "city": "Sölden",
    "state": "Tirol",
    "zip": 6456,
    "county": "",
    "phone": "",
    "type": "",
    "ownership": "",
    "emergency": "",
    "quality": "",
    "LAT": 46.8710183,
    "LON": 11.0274537
  },
  "146": {
    "id": 10146,
    "name": "Artz dr. Iris Steiner",
    "address": "Lussgasse 8",
    "city": "Lermoos",
    "state": "Tirol",
    "zip": 6631,
    "county": "",
    "phone": "",
    "type": "",
    "ownership": "",
    "emergency": "",
    "quality": "",
    "LAT": 47.4028498,
    "LON": 10.8824096
  },
  "147": {
    "id": 10147,
    "name": "Arzt",
    "address": "nan 40",
    "city": "Lambrechten",
    "state": "Oberösterreich",
    "zip": 4772,
    "county": "",
    "phone": "",
    "type": "",
    "ownership": "",
    "emergency": "",
    "quality": "",
    "LAT": 48.317432,
    "LON": 13.5118662
  },
  "152": {
    "id": 10152,
    "name": "Arzt - Alter Bahnhof",
    "address": "",
    "city": "Haringsee",
    "state": "Niederösterreich",
    "zip": 2286,
    "county": "",
    "phone": "",
    "type": "",
    "ownership": "",
    "emergency": "",
    "quality": "",
    "LAT": 48.1913387,
    "LON": 16.7818432
  },
  "153": {
    "id": 10153,
    "name": "Arzt Dr. Epp",
    "address": "Ludwig Brucknerstraße 7",
    "city": "Gedersdorf",
    "state": "Niederösterreich",
    "zip": 3494,
    "county": "",
    "phone": "",
    "type": "",
    "ownership": "",
    "emergency": "",
    "quality": "",
    "LAT": 48.3972939,
    "LON": 15.6967641
  },
  "154": {
    "id": 10154,
    "name": "Arzt für Allgemeinmedizin",
    "address": "Rieder Straße 255",
    "city": "Ottnang am Hausruck",
    "state": "Oberösterreich",
    "zip": 4901,
    "county": "",
    "phone": "",
    "type": "",
    "ownership": "",
    "emergency": "",
    "quality": "",
    "LAT": 48.1154073,
    "LON": 13.5992623
  },
  "155": {
    "id": 10155,
    "name": "Arzt für Allgemeinmedizin, Heilmassage",
    "address": "",
    "city": "Brückl",
    "state": "Kärnten",
    "zip": 9371,
    "county": "",
    "phone": "",
    "type": "",
    "ownership": "",
    "emergency": "",
    "quality": "",
    "LAT": 46.7488603,
    "LON": 14.5325357
  },
  "156": {
    "id": 10156,
    "name": "Arzt für Homöopathie Barbara Reuter",
    "address": "",
    "city": "Seekirchen am Wallersee",
    "state": "Salzburg",
    "zip": 5201,
    "county": "",
    "phone": "",
    "type": "",
    "ownership": "",
    "emergency": "",
    "quality": "",
    "LAT": 47.8975609,
    "LON": 13.1336851
  },
  "157": {
    "id": 10157,
    "name": "Arztpraxis",
    "address": "Hauptplatz 4",
    "city": "Spannberg",
    "state": "Niederösterreich",
    "zip": 2244,
    "county": "",
    "phone": "",
    "type": "",
    "ownership": "",
    "emergency": "",
    "quality": "",
    "LAT": 48.4645055,
    "LON": 16.7386765
  },
  "158": {
    "id": 10158,
    "name": "Arztpraxis Angerberg",
    "address": "Unholzen 140",
    "city": "Angerberg",
    "state": "Tirol",
    "zip": 6320,
    "county": "",
    "phone": "",
    "type": "",
    "ownership": "",
    "emergency": "",
    "quality": "",
    "LAT": 47.507954,
    "LON": 12.0560748
  },
  "159": {
    "id": 10159,
    "name": "Arztpraxis Dr. Hager",
    "address": "Pratsdorfstraße 25",
    "city": "Pettenbach",
    "state": "Oberösterreich",
    "zip": 4643,
    "county": "",
    "phone": "",
    "type": "",
    "ownership": "",
    "emergency": "",
    "quality": "",
    "LAT": 47.9604385,
    "LON": 14.0226027
  },
  "160": {
    "id": 10160,
    "name": "Arztpraxis Frauenarzt Dr. M. Spanring",
    "address": "Parkstraße 30",
    "city": "Kirchdorf an der Krems",
    "state": "Oberösterreich",
    "zip": 4560,
    "county": "",
    "phone": "",
    "type": "",
    "ownership": "",
    "emergency": "",
    "quality": "",
    "LAT": 47.902911,
    "LON": 14.1260769
  },
  "161": {
    "id": 10161,
    "name": "Augenarzt Dr. Gerlach",
    "address": "",
    "city": "Seekirchen am Wallersee",
    "state": "Salzburg",
    "zip": 5201,
    "county": "",
    "phone": "",
    "type": "",
    "ownership": "",
    "emergency": "",
    "quality": "",
    "LAT": 47.899246,
    "LON": 13.1337151
  },
  "162": {
    "id": 10162,
    "name": "Balga Philipp Dr med",
    "address": "Amundsenstraße 44",
    "city": "Strasshof an der Nordbahn",
    "state": "Niederösterreich",
    "zip": 2231,
    "county": "",
    "phone": "02287 3939",
    "type": "",
    "ownership": "",
    "emergency": "",
    "quality": "",
    "LAT": 48.3184561,
    "LON": 16.6442395
  },
  "163": {
    "id": 10163,
    "name": "Christina Keusch, Cranio Sacral Omnipath",
    "address": "Waidhofner Straße 10",
    "city": "Amstetten",
    "state": "Niederösterreich",
    "zip": 3300,
    "county": "",
    "phone": "",
    "type": "",
    "ownership": "",
    "emergency": "",
    "quality": "",
    "LAT": 48.1099126,
    "LON": 14.8441391
  },
  "164": {
    "id": 10164,
    "name": "DDr. Martin Haditsch",
    "address": "Hochstraße 6a",
    "city": "Leonding",
    "state": "Oberösterreich",
    "zip": 4060,
    "county": "",
    "phone": "",
    "type": "",
    "ownership": "",
    "emergency": "",
    "quality": "",
    "LAT": 48.2798025,
    "LON": 14.25232
  },
  "165": {
    "id": 10165,
    "name": "Diagnosepraxis",
    "address": "Leopold-Schäftner-Gasse 6",
    "city": "Perchtoldsdorf",
    "state": "Niederösterreich",
    "zip": 2380,
    "county": "",
    "phone": "+43 1 865 19 53",
    "type": "",
    "ownership": "",
    "emergency": "",
    "quality": "",
    "LAT": 48.1203468,
    "LON": 16.2558598
  },
  "166": {
    "id": 10166,
    "name": "Diagnosezentrum Donaustadt",
    "address": "Donaustadtstraße 1",
    "city": "Wien",
    "state": "Wien",
    "zip": 1220,
    "county": "",
    "phone": "",
    "type": "",
    "ownership": "",
    "emergency": "",
    "quality": "",
    "LAT": 48.2414923,
    "LON": 16.4358381
  },
  "167": {
    "id": 10167,
    "name": "Dialyseinstitut Dr. Gießauf",
    "address": "Elisabethstraße 54",
    "city": "Graz",
    "state": "Steiermark",
    "zip": 8010,
    "county": "",
    "phone": "",
    "type": "",
    "ownership": "",
    "emergency": "",
    "quality": "",
    "LAT": 47.0759918,
    "LON": 15.4566417
  },
  "168": {
    "id": 10168,
    "name": "Dialysezentrum Graz-West",
    "address": "Südbahnstraße 72",
    "city": "Graz",
    "state": "Steiermark",
    "zip": 8020,
    "county": "",
    "phone": "",
    "type": "",
    "ownership": "",
    "emergency": "No",
    "quality": "",
    "LAT": 47.060014,
    "LON": 15.4170505
  },
  "169": {
    "id": 10169,
    "name": "Dr Bammer",
    "address": "",
    "city": "Scharnstein",
    "state": "Oberösterreich",
    "zip": 4644,
    "county": "",
    "phone": "",
    "type": "",
    "ownership": "",
    "emergency": "",
    "quality": "",
    "LAT": 47.8990787,
    "LON": 13.9472382
  },
  "170": {
    "id": 10170,
    "name": "Dr Merz",
    "address": "Kurparkgasse 265",
    "city": "Wienerwald",
    "state": "Niederösterreich",
    "zip": 2392,
    "county": "",
    "phone": "",
    "type": "",
    "ownership": "",
    "emergency": "",
    "quality": "",
    "LAT": 48.0975756,
    "LON": 16.1347541
  },
  "171": {
    "id": 10171,
    "name": "Dr Topay",
    "address": "Hornweg 11",
    "city": "Kitzbühel",
    "state": "Tirol",
    "zip": 6370,
    "county": "",
    "phone": "",
    "type": "",
    "ownership": "",
    "emergency": "",
    "quality": "",
    "LAT": 47.4490892,
    "LON": 12.3920371
  },
  "172": {
    "id": 10172,
    "name": "Dr med Singer Markus",
    "address": "Hauptstraße 12",
    "city": "Zams",
    "state": "Tirol",
    "zip": 6511,
    "county": "",
    "phone": "",
    "type": "",
    "ownership": "",
    "emergency": "",
    "quality": "",
    "LAT": 47.1524307,
    "LON": 10.5832944
  },
  "173": {
    "id": 10173,
    "name": "Dr. Ainberger Christian",
    "address": "Dr.-Scheiberstraße 6a",
    "city": "Vöcklamarkt",
    "state": "Oberösterreich",
    "zip": 4870,
    "county": "",
    "phone": "+43 7682 6245-0",
    "type": "",
    "ownership": "",
    "emergency": "",
    "quality": "",
    "LAT": 48.0010378,
    "LON": 13.4873632
  },
  "174": {
    "id": 10174,
    "name": "Dr. Al-Sayegh",
    "address": "Dorfstraße 22",
    "city": "Hochwolkersdorf",
    "state": "Niederösterreich",
    "zip": 2802,
    "county": "",
    "phone": "",
    "type": "",
    "ownership": "",
    "emergency": "",
    "quality": "",
    "LAT": 47.6604264,
    "LON": 16.2815321
  },
  "175": {
    "id": 10175,
    "name": "Dr. Albert Sacherer",
    "address": "Wiener Straße 54",
    "city": "Kapfenberg",
    "state": "Steiermark",
    "zip": 8605,
    "county": "",
    "phone": "",
    "type": "",
    "ownership": "",
    "emergency": "",
    "quality": "",
    "LAT": 47.4441184,
    "LON": 15.292999
  },
  "176": {
    "id": 10176,
    "name": "Dr. Alireza Nouri",
    "address": "Hauptstraße 31/2",
    "city": "Wiener Neudorf",
    "state": "Niederösterreich",
    "zip": 2351,
    "county": "",
    "phone": "+43 2236 677776",
    "type": "",
    "ownership": "",
    "emergency": "",
    "quality": "",
    "LAT": 48.0863801,
    "LON": 16.3209763
  },
  "177": {
    "id": 10177,
    "name": "Dr. Alois Franz Waschnig",
    "address": "Schillerstraße 3",
    "city": "Leoben",
    "state": "Steiermark",
    "zip": 8700,
    "county": "",
    "phone": "",
    "type": "",
    "ownership": "",
    "emergency": "",
    "quality": "",
    "LAT": 47.3750286,
    "LON": 15.0963219
  },
  "178": {
    "id": 10178,
    "name": "Dr. Alois Klotz",
    "address": "Sonnfeld 4",
    "city": "Sankt Veit im Pongau",
    "state": "Salzburg",
    "zip": 5621,
    "county": "",
    "phone": "",
    "type": "",
    "ownership": "",
    "emergency": "",
    "quality": "",
    "LAT": 47.331412,
    "LON": 13.1529372
  },
  "179": {
    "id": 10179,
    "name": "Dr. Andrea Klinger - Praktischer Arzt",
    "address": "Grillparzerstraße 24",
    "city": "Dürnkrut",
    "state": "Niederösterreich",
    "zip": 2263,
    "county": "",
    "phone": "02538/80420",
    "type": "",
    "ownership": "",
    "emergency": "",
    "quality": "",
    "LAT": 48.4708286,
    "LON": 16.8456192
  },
  "180": {
    "id": 10180,
    "name": "Dr. Andrea Mittermayr",
    "address": "Am Schneiderbach 12",
    "city": "Gaaden",
    "state": "Niederösterreich",
    "zip": 2531,
    "county": "",
    "phone": "",
    "type": "",
    "ownership": "",
    "emergency": "",
    "quality": "",
    "LAT": 48.0534163,
    "LON": 16.2043131
  },
  "181": {
    "id": 10181,
    "name": "Dr. Andreas Matt",
    "address": "Römerstraße 72",
    "city": "Göfis",
    "state": "Vorarlberg",
    "zip": 6811,
    "county": "",
    "phone": "",
    "type": "",
    "ownership": "",
    "emergency": "",
    "quality": "",
    "LAT": 47.2391345,
    "LON": 9.6402542
  },
  "182": {
    "id": 10182,
    "name": "Dr. Andreas Perchinig",
    "address": "Peter-Melcher-Straße 13",
    "city": "Villach",
    "state": "Kärnten",
    "zip": 9524,
    "county": "",
    "phone": "",
    "type": "",
    "ownership": "",
    "emergency": "",
    "quality": "",
    "LAT": 46.6149926,
    "LON": 13.889109
  },
  "183": {
    "id": 10183,
    "name": "Dr. Andreas Weinberger",
    "address": "Traunseerstraße 9",
    "city": "Pinsdorf",
    "state": "Oberösterreich",
    "zip": 4812,
    "county": "",
    "phone": 43761267965,
    "type": "",
    "ownership": "",
    "emergency": "",
    "quality": "",
    "LAT": 47.9322863,
    "LON": 13.7689949
  },
  "184": {
    "id": 10184,
    "name": "Dr. Anna Schellnegger",
    "address": "Hauptplatz 8",
    "city": "Bärnbach",
    "state": "Steiermark",
    "zip": 8572,
    "county": "",
    "phone": "",
    "type": "",
    "ownership": "",
    "emergency": "",
    "quality": "",
    "LAT": 47.0701111,
    "LON": 15.1293262
  },
  "185": {
    "id": 10185,
    "name": "Dr. Anton Kammerer",
    "address": "Weitersfelden 36",
    "city": "Weitersfelden",
    "state": "Oberösterreich",
    "zip": 4272,
    "county": "",
    "phone": "",
    "type": "",
    "ownership": "",
    "emergency": "",
    "quality": "",
    "LAT": 48.478057,
    "LON": 14.7278381
  },
  "186": {
    "id": 10186,
    "name": "Dr. Anton Prietl",
    "address": "Goethestraße 35",
    "city": "Knittelfeld",
    "state": "Steiermark",
    "zip": 8720,
    "county": "",
    "phone": "+43 3512 85266",
    "type": "",
    "ownership": "",
    "emergency": "",
    "quality": "",
    "LAT": 47.2098696,
    "LON": 14.8229634
  },
  "187": {
    "id": 10187,
    "name": "Dr. Ardelt",
    "address": "Linzer Straße 66",
    "city": "Marchtrenk",
    "state": "Oberösterreich",
    "zip": 4614,
    "county": "",
    "phone": "",
    "type": "",
    "ownership": "",
    "emergency": "",
    "quality": "",
    "LAT": 48.1921867,
    "LON": 14.1220425
  },
  "188": {
    "id": 10188,
    "name": "Dr. Arminger OEG",
    "address": "Puchberger Straße 41",
    "city": "Wels",
    "state": "Oberösterreich",
    "zip": 4600,
    "county": "",
    "phone": "+43 7242 51192",
    "type": "",
    "ownership": "",
    "emergency": "",
    "quality": "",
    "LAT": 48.1800594,
    "LON": 14.0237481
  },
  "189": {
    "id": 10189,
    "name": "Dr. Arpad Pock",
    "address": "Bahnstraße 21",
    "city": "Kreuzstetten",
    "state": "Niederösterreich",
    "zip": 2124,
    "county": "",
    "phone": "",
    "type": "",
    "ownership": "",
    "emergency": "",
    "quality": "",
    "LAT": 48.4775525,
    "LON": 16.4804191
  },
  "190": {
    "id": 10190,
    "name": "Dr. Astrid Penz",
    "address": "Fuxmagengasse 14",
    "city": "Hall in Tirol",
    "state": "Tirol",
    "zip": 6060,
    "county": "",
    "phone": "",
    "type": "",
    "ownership": "",
    "emergency": "",
    "quality": "",
    "LAT": 47.2852657,
    "LON": 11.504614
  },
  "191": {
    "id": 10191,
    "name": "Dr. Astrid Schwarz",
    "address": "nan 64",
    "city": "Sankt Johann im Saggautal",
    "state": "Steiermark",
    "zip": 8453,
    "county": "",
    "phone": "",
    "type": "",
    "ownership": "",
    "emergency": "",
    "quality": "",
    "LAT": 46.7005733,
    "LON": 15.3999245
  },
  "192": {
    "id": 10192,
    "name": "Dr. Auer",
    "address": "Schulgasse 12",
    "city": "Purbach am Neusiedler See",
    "state": "Burgenland",
    "zip": 7083,
    "county": "",
    "phone": "",
    "type": "",
    "ownership": "",
    "emergency": "",
    "quality": "",
    "LAT": 47.914182,
    "LON": 16.6951985
  },
  "193": {
    "id": 10193,
    "name": "Dr. Auer Anneliese",
    "address": "Hans-von-der-Sann-Straße 36",
    "city": "Eisenerz",
    "state": "Steiermark",
    "zip": 8790,
    "county": "",
    "phone": "",
    "type": "",
    "ownership": "",
    "emergency": "",
    "quality": "",
    "LAT": 47.5425179,
    "LON": 14.8901965
  },
  "194": {
    "id": 10194,
    "name": "Dr. Aufmesser",
    "address": "Judenbühel 3",
    "city": "Radstadt",
    "state": "Salzburg",
    "zip": 5550,
    "county": "",
    "phone": "+43 6452 7501",
    "type": "",
    "ownership": "",
    "emergency": "",
    "quality": "",
    "LAT": 47.3854512,
    "LON": 13.4670206
  },
  "195": {
    "id": 10195,
    "name": "Dr. Augl",
    "address": "Breitenangerstraße 11",
    "city": "Grein",
    "state": "Oberösterreich",
    "zip": 4360,
    "county": "",
    "phone": "",
    "type": "",
    "ownership": "",
    "emergency": "",
    "quality": "",
    "LAT": 48.2279949,
    "LON": 14.8439245
  },
  "196": {
    "id": 10196,
    "name": "Dr. Axel Gmeiner",
    "address": "August Strindberg-Straße 2",
    "city": "Mondsee",
    "state": "Oberösterreich",
    "zip": 5310,
    "county": "",
    "phone": "+43 6232 2994",
    "type": "",
    "ownership": "",
    "emergency": "",
    "quality": "",
    "LAT": 47.8545217,
    "LON": 13.3522753
  },
  "197": {
    "id": 10197,
    "name": "Dr. Barbara Dalmatiner-Pausch",
    "address": "St.Martiner-Straße 38",
    "city": "Villach",
    "state": "Kärnten",
    "zip": 9500,
    "county": "",
    "phone": "",
    "type": "",
    "ownership": "",
    "emergency": "",
    "quality": "",
    "LAT": 46.6169349,
    "LON": 13.8317457
  },
  "198": {
    "id": 10198,
    "name": "Dr. Barbara Schwegel - Kinderarzt",
    "address": "Pomonaweg 18",
    "city": "Villach",
    "state": "Kärnten",
    "zip": 9523,
    "county": "",
    "phone": "",
    "type": "",
    "ownership": "",
    "emergency": "",
    "quality": "",
    "LAT": 46.643721,
    "LON": 13.8687458
  },
  "199": {
    "id": 10199,
    "name": "Dr. Barbara Seiger",
    "address": "Hauptstraße 108",
    "city": "Hinterbrühl",
    "state": "Niederösterreich",
    "zip": 2371,
    "county": "",
    "phone": "",
    "type": "",
    "ownership": "",
    "emergency": "",
    "quality": "",
    "LAT": 48.0858505,
    "LON": 16.2415331
  },
  "200": {
    "id": 10200,
    "name": "Dr. Bernd Heschl",
    "address": "Kärntner Straße 32",
    "city": "Knittelfeld",
    "state": "Steiermark",
    "zip": 8720,
    "county": "",
    "phone": "+43 3512 86697",
    "type": "",
    "ownership": "",
    "emergency": "",
    "quality": "",
    "LAT": 47.2117999,
    "LON": 14.8221148
  },
  "201": {
    "id": 10201,
    "name": "Dr. Bernhard Eissner",
    "address": "Hexenwaldweg 221",
    "city": "Arnfels",
    "state": "Steiermark",
    "zip": 8454,
    "county": "",
    "phone": "",
    "type": "",
    "ownership": "",
    "emergency": "",
    "quality": "",
    "LAT": 46.6761368,
    "LON": 15.394898
  },
  "202": {
    "id": 10202,
    "name": "Dr. Bernhard Kiesenhofer",
    "address": "Meisterstraße 11",
    "city": "Leonding",
    "state": "Oberösterreich",
    "zip": 4060,
    "county": "",
    "phone": "",
    "type": "",
    "ownership": "",
    "emergency": "",
    "quality": "",
    "LAT": 48.2470529,
    "LON": 14.2487936
  },
  "203": {
    "id": 10203,
    "name": "Dr. Bernhard Kriechbaumer",
    "address": "Larnhauserweg 2",
    "city": "Leonding",
    "state": "Oberösterreich",
    "zip": 4060,
    "county": "",
    "phone": "",
    "type": "",
    "ownership": "",
    "emergency": "",
    "quality": "",
    "LAT": 48.2738161,
    "LON": 14.2745382
  },
  "204": {
    "id": 10204,
    "name": "Dr. Bernhard Schlosser",
    "address": "Liebenau 128",
    "city": "Liebenau",
    "state": "Oberösterreich",
    "zip": 4252,
    "county": "",
    "phone": "",
    "type": "",
    "ownership": "",
    "emergency": "Yes",
    "quality": "",
    "LAT": 48.5315341,
    "LON": 14.8035462
  },
  "205": {
    "id": 10205,
    "name": "Dr. Biack",
    "address": "Schloßbergweg 3",
    "city": "Mattsee",
    "state": "Salzburg",
    "zip": 5163,
    "county": "",
    "phone": "",
    "type": "",
    "ownership": "",
    "emergency": "",
    "quality": "",
    "LAT": 47.9700615,
    "LON": 13.1054299
  },
  "206": {
    "id": 10206,
    "name": "Dr. Binder",
    "address": "nan 43",
    "city": "Sankt Pantaleon",
    "state": "Oberösterreich",
    "zip": 5120,
    "county": "",
    "phone": "",
    "type": "",
    "ownership": "",
    "emergency": "",
    "quality": "",
    "LAT": 48.0248208,
    "LON": 12.8483624
  },
  "208": {
    "id": 10208,
    "name": "Dr. Birgit Pechter",
    "address": "Hauptstraße 32",
    "city": "Münchendorf",
    "state": "Niederösterreich",
    "zip": 2482,
    "county": "",
    "phone": "+43 2259 2262",
    "type": "",
    "ownership": "",
    "emergency": "",
    "quality": "",
    "LAT": 48.0287281,
    "LON": 16.3797228
  },
  "209": {
    "id": 10209,
    "name": "Dr. Breban",
    "address": "Sonnenweg 10",
    "city": "Weng im Innkreis",
    "state": "Oberösterreich",
    "zip": 4952,
    "county": "",
    "phone": "",
    "type": "",
    "ownership": "",
    "emergency": "",
    "quality": "",
    "LAT": 48.2305359,
    "LON": 13.1738904
  },
  "210": {
    "id": 10210,
    "name": "Dr. Camilla Friedrich",
    "address": "Dr. Friedrichweg 2",
    "city": "Sankt Stefan ob Stainz",
    "state": "Steiermark",
    "zip": 8511,
    "county": "",
    "phone": "",
    "type": "",
    "ownership": "",
    "emergency": "",
    "quality": "",
    "LAT": 46.9287908,
    "LON": 15.251446
  },
  "211": {
    "id": 10211,
    "name": "Dr. Catharina Harasko - van der Meer",
    "address": "Obere Feldstraße 283",
    "city": "Pitten",
    "state": "Niederösterreich",
    "zip": 2823,
    "county": "",
    "phone": "+43 650 24 74 424",
    "type": "",
    "ownership": "",
    "emergency": "",
    "quality": "",
    "LAT": 47.7143294,
    "LON": 16.1786636
  },
  "212": {
    "id": 10212,
    "name": "Dr. Christa Laschober",
    "address": "Mitterweg 23",
    "city": "Traiskirchen",
    "state": "Niederösterreich",
    "zip": 2512,
    "county": "",
    "phone": "",
    "type": "",
    "ownership": "",
    "emergency": "",
    "quality": "",
    "LAT": 48.010327,
    "LON": 16.2735683
  },
  "213": {
    "id": 10213,
    "name": "Dr. Christian Euler",
    "address": "Turnerweg 8/1/5",
    "city": "Rust",
    "state": "Burgenland",
    "zip": 7071,
    "county": "",
    "phone": "",
    "type": "",
    "ownership": "",
    "emergency": "",
    "quality": "",
    "LAT": 47.798553,
    "LON": 16.6674678
  },
  "214": {
    "id": 10214,
    "name": "Dr. Christian Haunschmidt",
    "address": "Hauptstraße 22",
    "city": "Blindenmarkt",
    "state": "Niederösterreich",
    "zip": 3372,
    "county": "",
    "phone": "",
    "type": "",
    "ownership": "",
    "emergency": "",
    "quality": "",
    "LAT": 48.1287944,
    "LON": 14.9900374
  },
  "215": {
    "id": 10215,
    "name": "Dr. Christian Josef Nöbauer",
    "address": "Dorfstraße 8",
    "city": "Herzogsdorf",
    "state": "Oberösterreich",
    "zip": 4175,
    "county": "",
    "phone": "07231/2204",
    "type": "",
    "ownership": "",
    "emergency": "",
    "quality": "",
    "LAT": 48.4292006,
    "LON": 14.109437
  },
  "216": {
    "id": 10216,
    "name": "Dr. Christian Süß",
    "address": "Riegerting 9",
    "city": "Mehrnbach",
    "state": "Oberösterreich",
    "zip": 4941,
    "county": "",
    "phone": "+43 7752 82062",
    "type": "",
    "ownership": "",
    "emergency": "",
    "quality": "",
    "LAT": 48.1778055,
    "LON": 13.4033015
  },
  "217": {
    "id": 10217,
    "name": "Dr. Christian Winkler",
    "address": "Oberer Markt 5",
    "city": "Reichenthal",
    "state": "Oberösterreich",
    "zip": 4193,
    "county": "",
    "phone": "",
    "type": "",
    "ownership": "",
    "emergency": "",
    "quality": "",
    "LAT": 48.5424208,
    "LON": 14.3825462
  },
  "218": {
    "id": 10218,
    "name": "Dr. Christian Wolfgruber",
    "address": "Birkenweg 45",
    "city": "Hochburg-Ach",
    "state": "Oberösterreich",
    "zip": 5122,
    "county": "",
    "phone": "",
    "type": "",
    "ownership": "",
    "emergency": "",
    "quality": "",
    "LAT": 48.1616978,
    "LON": 12.8386326
  },
  "219": {
    "id": 10219,
    "name": "Dr. Christoph Hohn",
    "address": "Laudachweg 5",
    "city": "Vorchdorf",
    "state": "Oberösterreich",
    "zip": 4655,
    "county": "",
    "phone": "",
    "type": "",
    "ownership": "",
    "emergency": "",
    "quality": "",
    "LAT": 48.0000227,
    "LON": 13.9232296
  },
  "220": {
    "id": 10220,
    "name": "Dr. Claudia Wundsam",
    "address": "Birkenweg 14",
    "city": "Neustift im Mühlkreis",
    "state": "Oberösterreich",
    "zip": 4143,
    "county": "",
    "phone": "",
    "type": "",
    "ownership": "",
    "emergency": "",
    "quality": "",
    "LAT": 48.5304981,
    "LON": 13.7642194
  },
  "221": {
    "id": 10221,
    "name": "Dr. Claus Ulf Schlaffer",
    "address": "Rathausgasse 6",
    "city": "Neckenmarkt",
    "state": "Burgenland",
    "zip": 7311,
    "county": "",
    "phone": "",
    "type": "",
    "ownership": "",
    "emergency": "",
    "quality": "",
    "LAT": 47.5963533,
    "LON": 16.5502113
  },
  "222": {
    "id": 10222,
    "name": "Dr. Constanze Dennig-Staub",
    "address": "Andritzer Reichsstraße 163;161",
    "city": "Graz",
    "state": "Steiermark",
    "zip": 8046,
    "county": "",
    "phone": "",
    "type": "",
    "ownership": "",
    "emergency": "",
    "quality": "",
    "LAT": 47.1113392,
    "LON": 15.4038924
  },
  "223": {
    "id": 10223,
    "name": "Dr. Csillag",
    "address": "Westbahnstraße 34",
    "city": "Sankt Valentin",
    "state": "Niederösterreich",
    "zip": 4300,
    "county": "",
    "phone": "",
    "type": "",
    "ownership": "",
    "emergency": "",
    "quality": "",
    "LAT": 48.1788551,
    "LON": 14.5231001
  },
  "224": {
    "id": 10224,
    "name": "Dr. Dieter Nitsche",
    "address": "Buchbergstraße 7",
    "city": "Leonding",
    "state": "Oberösterreich",
    "zip": 4060,
    "county": "",
    "phone": "",
    "type": "",
    "ownership": "",
    "emergency": "",
    "quality": "",
    "LAT": 48.2839871,
    "LON": 14.258963
  },
  "225": {
    "id": 10225,
    "name": "Dr. Dock",
    "address": "Arztgasse nan",
    "city": "Lanzenkirchen",
    "state": "Niederösterreich",
    "zip": 2821,
    "county": "",
    "phone": "",
    "type": "",
    "ownership": "",
    "emergency": "",
    "quality": "",
    "LAT": 47.7463039,
    "LON": 16.2417192
  },
  "226": {
    "id": 10226,
    "name": "Dr. Dolecek",
    "address": "Schulstraße 22",
    "city": "Julbach",
    "state": "Oberösterreich",
    "zip": 4162,
    "county": "",
    "phone": "+43 7288 71055",
    "type": "",
    "ownership": "",
    "emergency": "",
    "quality": "",
    "LAT": 48.6585901,
    "LON": 13.8654274
  },
  "227": {
    "id": 10227,
    "name": "Dr. Dolensky",
    "address": "Wienerstraße 346",
    "city": "Gars am Kamp",
    "state": "Niederösterreich",
    "zip": 3571,
    "county": "",
    "phone": "",
    "type": "",
    "ownership": "",
    "emergency": "",
    "quality": "",
    "LAT": 48.5964676,
    "LON": 15.6678216
  },
  "228": {
    "id": 10228,
    "name": "Dr. Dominik Stadler",
    "address": "Schulstraße 8",
    "city": "Königswiesen",
    "state": "Oberösterreich",
    "zip": 4280,
    "county": "",
    "phone": "",
    "type": "",
    "ownership": "",
    "emergency": "",
    "quality": "",
    "LAT": 48.4082301,
    "LON": 14.8384663
  },
  "229": {
    "id": 10229,
    "name": "Dr. Drexler",
    "address": "",
    "city": "Mittersill",
    "state": "Salzburg",
    "zip": 5730,
    "county": "",
    "phone": "",
    "type": "",
    "ownership": "",
    "emergency": "",
    "quality": "",
    "LAT": 47.2795185,
    "LON": 12.479395
  },
  "230": {
    "id": 10230,
    "name": "Dr. Ebermann, Dr. Waditschatka",
    "address": "Roseggerstraße 56",
    "city": "Mistelbach",
    "state": "Niederösterreich",
    "zip": 2130,
    "county": "",
    "phone": "",
    "type": "",
    "ownership": "",
    "emergency": "",
    "quality": "",
    "LAT": 48.5664789,
    "LON": 16.5874808
  },
  "231": {
    "id": 10231,
    "name": "Dr. Eduard Lopatka",
    "address": "nan 105",
    "city": "Rohrbach an der Lafnitz",
    "state": "Steiermark",
    "zip": 8234,
    "county": "",
    "phone": "",
    "type": "",
    "ownership": "",
    "emergency": "",
    "quality": "",
    "LAT": 47.4014685,
    "LON": 16.0039499
  },
  "232": {
    "id": 10232,
    "name": "Dr. Eduard Schlömmer Arzt für Allgemeinmedizin",
    "address": "Römerstraße 5",
    "city": "Schwanenstadt",
    "state": "Oberösterreich",
    "zip": 4690,
    "county": "",
    "phone": "",
    "type": "",
    "ownership": "",
    "emergency": "",
    "quality": "",
    "LAT": 48.0498871,
    "LON": 13.7703013
  },
  "233": {
    "id": 10233,
    "name": "Dr. Eisele",
    "address": "Liechtensteinstraße 36",
    "city": "Mistelbach",
    "state": "Niederösterreich",
    "zip": 2130,
    "county": "",
    "phone": "+43 2572 2829",
    "type": "",
    "ownership": "",
    "emergency": "",
    "quality": "",
    "LAT": 48.5660198,
    "LON": 16.5810938
  },
  "234": {
    "id": 10234,
    "name": "Dr. Elisabeth Stadter-Halmer",
    "address": "Hauptstraße 43",
    "city": "Wiener Neudorf",
    "state": "Niederösterreich",
    "zip": 2351,
    "county": "",
    "phone": "+43 2236 61111",
    "type": "",
    "ownership": "",
    "emergency": "",
    "quality": "",
    "LAT": 48.0855419,
    "LON": 16.3226445
  },
  "235": {
    "id": 10235,
    "name": "Dr. Elmar Lingg",
    "address": "Bödmerstraße 7",
    "city": "Mittelberg",
    "state": "Vorarlberg",
    "zip": 6993,
    "county": "",
    "phone": "",
    "type": "",
    "ownership": "",
    "emergency": "",
    "quality": "",
    "LAT": 47.3245152,
    "LON": 10.1578659
  },
  "236": {
    "id": 10236,
    "name": "Dr. Erhart",
    "address": "",
    "city": "Bürmoos",
    "state": "Salzburg",
    "zip": 5111,
    "county": "",
    "phone": "",
    "type": "",
    "ownership": "",
    "emergency": "",
    "quality": "",
    "LAT": 47.9827041,
    "LON": 12.9215113
  },
  "237": {
    "id": 10237,
    "name": "Dr. Ernst & Dr. Marion Kröpl",
    "address": "Alexiusweg 14",
    "city": "Hellmonsödt",
    "state": "Oberösterreich",
    "zip": 4202,
    "county": "",
    "phone": "",
    "type": "",
    "ownership": "",
    "emergency": "",
    "quality": "",
    "LAT": 48.4326787,
    "LON": 14.300195
  },
  "238": {
    "id": 10238,
    "name": "Dr. Ernst Richter",
    "address": "Holzheimer Straße 104",
    "city": "Leonding",
    "state": "Oberösterreich",
    "zip": 4060,
    "county": "",
    "phone": "",
    "type": "",
    "ownership": "",
    "emergency": "",
    "quality": "",
    "LAT": 48.2884433,
    "LON": 14.2521241
  },
  "239": {
    "id": 10239,
    "name": "Dr. Etzler",
    "address": "Wiesnerstraße 7",
    "city": "Altheim",
    "state": "Oberösterreich",
    "zip": 4950,
    "county": "",
    "phone": "",
    "type": "",
    "ownership": "",
    "emergency": "",
    "quality": "",
    "LAT": 48.2492142,
    "LON": 13.2348744
  },
  "240": {
    "id": 10240,
    "name": "Dr. Eva Maria Stoxreiter",
    "address": "Mirnockstraße 111",
    "city": "Millstatt am See",
    "state": "Kärnten",
    "zip": 9872,
    "county": "",
    "phone": "+43 (0)4766 2027",
    "type": "",
    "ownership": "",
    "emergency": "",
    "quality": "",
    "LAT": 46.8037396,
    "LON": 13.5752777
  },
  "241": {
    "id": 10241,
    "name": "Dr. Fidel Elsensohn",
    "address": "Schlößlestraße 36",
    "city": "Röthis",
    "state": "Vorarlberg",
    "zip": 6832,
    "county": "",
    "phone": "",
    "type": "",
    "ownership": "",
    "emergency": "",
    "quality": "",
    "LAT": 47.2900322,
    "LON": 9.6601555
  },
  "242": {
    "id": 10242,
    "name": "Dr. Franz Daringer",
    "address": "Passionsweg 34",
    "city": "Mettmach",
    "state": "Oberösterreich",
    "zip": 4931,
    "county": "",
    "phone": "",
    "type": "",
    "ownership": "",
    "emergency": "",
    "quality": "",
    "LAT": 48.1741546,
    "LON": 13.3424617
  },
  "243": {
    "id": 10243,
    "name": "Dr. Franz Ploder",
    "address": "Stein an der Enns 185",
    "city": "Sölk",
    "state": "Steiermark",
    "zip": 8961,
    "county": "",
    "phone": "",
    "type": "",
    "ownership": "",
    "emergency": "",
    "quality": "",
    "LAT": 47.4343503,
    "LON": 13.9423952
  },
  "244": {
    "id": 10244,
    "name": "Dr. Franz Schwelle",
    "address": "Mitschastraße 11",
    "city": "Mistelbach",
    "state": "Niederösterreich",
    "zip": 2130,
    "county": "",
    "phone": "",
    "type": "",
    "ownership": "",
    "emergency": "",
    "quality": "",
    "LAT": 48.5658574,
    "LON": 16.5748746
  },
  "245": {
    "id": 10245,
    "name": "Dr. Freigassner Maria Martina",
    "address": "Statteggerstraße 165",
    "city": "Stattegg",
    "state": "Steiermark",
    "zip": 8046,
    "county": "",
    "phone": "+43 316 816681",
    "type": "",
    "ownership": "",
    "emergency": "",
    "quality": "",
    "LAT": 47.1307343,
    "LON": 15.4242322
  },
  "246": {
    "id": 10246,
    "name": "Dr. Friedl",
    "address": "Lusweg 1",
    "city": "Ulrichsberg",
    "state": "Oberösterreich",
    "zip": 4161,
    "county": "",
    "phone": "",
    "type": "",
    "ownership": "",
    "emergency": "",
    "quality": "",
    "LAT": 48.6725442,
    "LON": 13.9160834
  },
  "247": {
    "id": 10247,
    "name": "Dr. Friedrich Brandstetter",
    "address": "Spreitzergasse 1",
    "city": "Mistelbach",
    "state": "Niederösterreich",
    "zip": 2130,
    "county": "",
    "phone": "+43 2572 2164",
    "type": "",
    "ownership": "",
    "emergency": "",
    "quality": "",
    "LAT": 48.5709196,
    "LON": 16.5639385
  },
  "248": {
    "id": 10248,
    "name": "Dr. Friedrich Ritter",
    "address": "nan 38",
    "city": "Gasen",
    "state": "Steiermark",
    "zip": 8616,
    "county": "",
    "phone": "",
    "type": "",
    "ownership": "",
    "emergency": "",
    "quality": "",
    "LAT": 47.3841459,
    "LON": 15.5800139
  },
  "249": {
    "id": 10249,
    "name": "Dr. Fuchs",
    "address": "Ferdinandsplatz 3",
    "city": "Sieghartskirchen",
    "state": "Niederösterreich",
    "zip": 3443,
    "county": "",
    "phone": "",
    "type": "",
    "ownership": "",
    "emergency": "",
    "quality": "",
    "LAT": 48.2547355,
    "LON": 16.0144395
  },
  "250": {
    "id": 10250,
    "name": "Dr. Gabriel",
    "address": "Schindlweg 7",
    "city": "Ulrichsberg",
    "state": "Oberösterreich",
    "zip": 4161,
    "county": "",
    "phone": "",
    "type": "",
    "ownership": "",
    "emergency": "",
    "quality": "",
    "LAT": 48.675167,
    "LON": 13.9067507
  },
  "251": {
    "id": 10251,
    "name": "Dr. Gabriela Fidler-Straka",
    "address": "Wiener Straße 62",
    "city": "Spillern",
    "state": "Niederösterreich",
    "zip": 2104,
    "county": "",
    "phone": "",
    "type": "",
    "ownership": "",
    "emergency": "",
    "quality": "",
    "LAT": 48.3768925,
    "LON": 16.2643407
  },
  "252": {
    "id": 10252,
    "name": "Dr. Gabriele Rehfeld-Schwarzer",
    "address": "Hauptstraße 101",
    "city": "Eichgraben",
    "state": "Niederösterreich",
    "zip": 3032,
    "county": "",
    "phone": "",
    "type": "",
    "ownership": "",
    "emergency": "",
    "quality": "",
    "LAT": 48.1683064,
    "LON": 15.979903
  },
  "253": {
    "id": 10253,
    "name": "Dr. Galle",
    "address": "Wiener Straße 23",
    "city": "Großweikersdorf",
    "state": "Niederösterreich",
    "zip": 3701,
    "county": "",
    "phone": "",
    "type": "",
    "ownership": "",
    "emergency": "",
    "quality": "",
    "LAT": 48.4706064,
    "LON": 15.9843004
  },
  "254": {
    "id": 10254,
    "name": "Dr. Ganthaler",
    "address": "",
    "city": "Au",
    "state": "Vorarlberg",
    "zip": 6883,
    "county": "",
    "phone": "",
    "type": "",
    "ownership": "",
    "emergency": "",
    "quality": "",
    "LAT": 47.3286575,
    "LON": 9.9748022
  },
  "255": {
    "id": 10255,
    "name": "Dr. Gerald Mair",
    "address": "Karl-Mauracher-Weg 26",
    "city": "Fügen",
    "state": "Tirol",
    "zip": 6263,
    "county": "",
    "phone": "",
    "type": "",
    "ownership": "",
    "emergency": "",
    "quality": "",
    "LAT": 47.3422575,
    "LON": 11.8492546
  },
  "256": {
    "id": 10256,
    "name": "Dr. Gerald Moser",
    "address": "Markt 2",
    "city": "Sankt Georgen am Walde",
    "state": "Oberösterreich",
    "zip": 4372,
    "county": "",
    "phone": "",
    "type": "",
    "ownership": "",
    "emergency": "",
    "quality": "",
    "LAT": 48.3599959,
    "LON": 14.8955258
  },
  "257": {
    "id": 10257,
    "name": "Dr. Gerhard Gruber",
    "address": "Römerstraße 20",
    "city": "Vorchdorf",
    "state": "Oberösterreich",
    "zip": 4655,
    "county": "",
    "phone": "",
    "type": "",
    "ownership": "",
    "emergency": "",
    "quality": "",
    "LAT": 47.9977896,
    "LON": 13.9324241
  },
  "258": {
    "id": 10258,
    "name": "Dr. Gerhard Huber",
    "address": "Brunnengasse 6",
    "city": "Hof am Leithaberge",
    "state": "Niederösterreich",
    "zip": 2451,
    "county": "",
    "phone": "",
    "type": "",
    "ownership": "",
    "emergency": "No",
    "quality": "",
    "LAT": 47.9437564,
    "LON": 16.5806832
  },
  "259": {
    "id": 10259,
    "name": "Dr. Gerhard Walter",
    "address": "Franz-Pilz-Straße 5",
    "city": "Amstetten",
    "state": "Niederösterreich",
    "zip": 3300,
    "county": "",
    "phone": "",
    "type": "",
    "ownership": "",
    "emergency": "",
    "quality": "",
    "LAT": 48.1101787,
    "LON": 14.8736293
  },
  "260": {
    "id": 10260,
    "name": "Dr. Gerlinde Rodemund",
    "address": "Alpenblickstraße 38",
    "city": "Leonding",
    "state": "Oberösterreich",
    "zip": 4060,
    "county": "",
    "phone": "",
    "type": "",
    "ownership": "",
    "emergency": "",
    "quality": "",
    "LAT": 48.2816475,
    "LON": 14.2576927
  },
  "261": {
    "id": 10261,
    "name": "Dr. Gerlis Schlögl",
    "address": "Schubertstraße 1",
    "city": "Knittelfeld",
    "state": "Steiermark",
    "zip": 8720,
    "county": "",
    "phone": "",
    "type": "",
    "ownership": "",
    "emergency": "",
    "quality": "",
    "LAT": 47.2111497,
    "LON": 14.8260933
  },
  "262": {
    "id": 10262,
    "name": "Dr. Grabner",
    "address": "Grüner Weg 16",
    "city": "Sankt Georgen im Attergau",
    "state": "Oberösterreich",
    "zip": 4880,
    "county": "",
    "phone": "",
    "type": "",
    "ownership": "",
    "emergency": "",
    "quality": "",
    "LAT": 47.9337364,
    "LON": 13.4837815
  },
  "263": {
    "id": 10263,
    "name": "Dr. Gumpinger Hand, Allgemeinmedizin",
    "address": "",
    "city": "Ernstbrunn",
    "state": "Niederösterreich",
    "zip": 2115,
    "county": "",
    "phone": "",
    "type": "",
    "ownership": "",
    "emergency": "",
    "quality": "",
    "LAT": 48.5284281,
    "LON": 16.3672387
  },
  "264": {
    "id": 10264,
    "name": "Dr. Gärtner Martin",
    "address": "Schulstraße 1",
    "city": "Molln",
    "state": "Oberösterreich",
    "zip": 4591,
    "county": "",
    "phone": "",
    "type": "",
    "ownership": "",
    "emergency": "",
    "quality": "",
    "LAT": 47.8851091,
    "LON": 14.2569277
  },
  "265": {
    "id": 10265,
    "name": "Dr. Günter Steinhardt",
    "address": "Sartrestraße 11",
    "city": "Pucking",
    "state": "Oberösterreich",
    "zip": 4055,
    "county": "",
    "phone": "",
    "type": "",
    "ownership": "",
    "emergency": "",
    "quality": "",
    "LAT": 48.185349,
    "LON": 14.1793673
  },
  "266": {
    "id": 10266,
    "name": "Dr. H.C. Pichler-Gerges",
    "address": "Rettenbergstraße 12",
    "city": "Kolsass",
    "state": "Tirol",
    "zip": 6114,
    "county": "",
    "phone": "",
    "type": "",
    "ownership": "",
    "emergency": "",
    "quality": "",
    "LAT": 47.3003059,
    "LON": 11.6293252
  },
  "267": {
    "id": 10267,
    "name": "Dr. Handojo Soeparno",
    "address": "Unternalbstraße 239",
    "city": "Retz",
    "state": "Niederösterreich",
    "zip": 2070,
    "county": "",
    "phone": "",
    "type": "",
    "ownership": "",
    "emergency": "",
    "quality": "",
    "LAT": 48.7512285,
    "LON": 15.9523778
  },
  "268": {
    "id": 10268,
    "name": "Dr. Hans Christian Filz",
    "address": "Neugasse 22a",
    "city": "Deutschkreutz",
    "state": "Burgenland",
    "zip": 7301,
    "county": "",
    "phone": "+43 2613 80172",
    "type": "",
    "ownership": "",
    "emergency": "",
    "quality": "",
    "LAT": 47.6005305,
    "LON": 16.6296912
  },
  "269": {
    "id": 10269,
    "name": "Dr. Hans Trojer",
    "address": "nan 27",
    "city": "Prägraten am Großvenediger",
    "state": "Tirol",
    "zip": 9974,
    "county": "",
    "phone": "",
    "type": "",
    "ownership": "",
    "emergency": "",
    "quality": "",
    "LAT": 47.0172079,
    "LON": 12.3755384
  },
  "270": {
    "id": 10270,
    "name": "Dr. Haselbruner",
    "address": "Feld-Weg 22a",
    "city": "Frankenmarkt",
    "state": "Oberösterreich",
    "zip": 4890,
    "county": "",
    "phone": "",
    "type": "",
    "ownership": "",
    "emergency": "",
    "quality": "",
    "LAT": 47.9893152,
    "LON": 13.412772
  },
  "271": {
    "id": 10271,
    "name": "Dr. Heimo Korber",
    "address": "Hauptstraße 3",
    "city": "Sankt Margarethen bei Knittelfeld",
    "state": "Steiermark",
    "zip": 8720,
    "county": "",
    "phone": "+43 3512 44500",
    "type": "",
    "ownership": "",
    "emergency": "",
    "quality": "",
    "LAT": 47.2273159,
    "LON": 14.8595965
  },
  "272": {
    "id": 10272,
    "name": "Dr. Heinz Hammerschmidt",
    "address": "Herrengartenweg 13",
    "city": "Hard",
    "state": "Vorarlberg",
    "zip": 6971,
    "county": "",
    "phone": "",
    "type": "",
    "ownership": "",
    "emergency": "",
    "quality": "",
    "LAT": 47.4889955,
    "LON": 9.6960398
  },
  "273": {
    "id": 10273,
    "name": "Dr. Helga Richter",
    "address": "Grinzinger Allee 39",
    "city": "Wien",
    "state": "Wien",
    "zip": 1190,
    "county": "",
    "phone": "+43 1 320 14 46",
    "type": "",
    "ownership": "",
    "emergency": "",
    "quality": "",
    "LAT": 48.2537144,
    "LON": 16.3419103
  },
  "274": {
    "id": 10274,
    "name": "Dr. Helmut Köck",
    "address": "",
    "city": "Groß-Siegharts",
    "state": "Niederösterreich",
    "zip": 3812,
    "county": "",
    "phone": "",
    "type": "",
    "ownership": "",
    "emergency": "",
    "quality": "",
    "LAT": 48.7883241,
    "LON": 15.4018155
  },
  "275": {
    "id": 10275,
    "name": "Dr. Helmut Leidemann",
    "address": "nan 136",
    "city": "Hardegg",
    "state": "Niederösterreich",
    "zip": 2092,
    "county": "",
    "phone": "",
    "type": "",
    "ownership": "",
    "emergency": "",
    "quality": "",
    "LAT": 48.8545308,
    "LON": 15.7695223
  },
  "276": {
    "id": 10276,
    "name": "Dr. Helmut Nimmerfall",
    "address": "Albrechtstraße 24a",
    "city": "Wels",
    "state": "Oberösterreich",
    "zip": 4600,
    "county": "",
    "phone": "+43 7242 605600",
    "type": "",
    "ownership": "",
    "emergency": "",
    "quality": "",
    "LAT": 48.1573998,
    "LON": 13.9913254
  },
  "277": {
    "id": 10277,
    "name": "Dr. Herbert Petermichl",
    "address": "Obere Hauptstraße 41",
    "city": "Sankt Ruprecht an der Raab",
    "state": "Steiermark",
    "zip": 8181,
    "county": "",
    "phone": "",
    "type": "",
    "ownership": "",
    "emergency": "",
    "quality": "",
    "LAT": 47.1552231,
    "LON": 15.6619621
  },
  "278": {
    "id": 10278,
    "name": "Dr. Herbert Walzel",
    "address": "Kruppstraße 25",
    "city": "Berndorf",
    "state": "Niederösterreich",
    "zip": 2560,
    "county": "",
    "phone": "",
    "type": "",
    "ownership": "",
    "emergency": "",
    "quality": "",
    "LAT": 47.9424203,
    "LON": 16.1031843
  },
  "279": {
    "id": 10279,
    "name": "Dr. Herwig Rotter",
    "address": "Wieshöfstraße 14",
    "city": "Karlstetten",
    "state": "Niederösterreich",
    "zip": 3121,
    "county": "",
    "phone": "+43 2741 7300",
    "type": "",
    "ownership": "",
    "emergency": "",
    "quality": "",
    "LAT": 48.2562318,
    "LON": 15.5615009
  },
  "280": {
    "id": 10280,
    "name": "Dr. Hohl",
    "address": "Georgestraße 27",
    "city": "Langenstein",
    "state": "Oberösterreich",
    "zip": 4222,
    "county": "",
    "phone": "",
    "type": "",
    "ownership": "",
    "emergency": "",
    "quality": "",
    "LAT": 48.2529485,
    "LON": 14.4746007
  },
  "281": {
    "id": 10281,
    "name": "Dr. Holger August Grassner",
    "address": "Hinterstoder 73",
    "city": "Hinterstoder",
    "state": "Oberösterreich",
    "zip": 4573,
    "county": "",
    "phone": "+43 (7564) 55550",
    "type": "",
    "ownership": "",
    "emergency": "",
    "quality": "",
    "LAT": 47.6967517,
    "LON": 14.1473431
  },
  "282": {
    "id": 10282,
    "name": "Dr. Hosp",
    "address": "Unterkramsach 73",
    "city": "Kramsach",
    "state": "Tirol",
    "zip": 6233,
    "county": "",
    "phone": "",
    "type": "",
    "ownership": "",
    "emergency": "",
    "quality": "",
    "LAT": 47.4431774,
    "LON": 11.8875843
  },
  "283": {
    "id": 10283,
    "name": "Dr. Huber",
    "address": "Am Zeilberg 1",
    "city": "Wiesmath",
    "state": "Niederösterreich",
    "zip": 2811,
    "county": "",
    "phone": "",
    "type": "",
    "ownership": "",
    "emergency": "",
    "quality": "",
    "LAT": 47.6152964,
    "LON": 16.2837437
  },
  "284": {
    "id": 10284,
    "name": "Dr. Hubert Niedermayr",
    "address": "Weidenstraße 10",
    "city": "Gampern",
    "state": "Oberösterreich",
    "zip": 4851,
    "county": "",
    "phone": 4376828707,
    "type": "",
    "ownership": "",
    "emergency": "",
    "quality": "",
    "LAT": 47.986475,
    "LON": 13.5507827
  },
  "285": {
    "id": 10285,
    "name": "Dr. Hutgrabner Christoph",
    "address": "Stocket 8",
    "city": "Sankt Marienkirchen am Hausruck",
    "state": "Oberösterreich",
    "zip": 4926,
    "county": "",
    "phone": "",
    "type": "",
    "ownership": "",
    "emergency": "",
    "quality": "",
    "LAT": 48.1892426,
    "LON": 13.5681937
  },
  "286": {
    "id": 10286,
    "name": "Dr. Höftberger",
    "address": "Rainerweg 5",
    "city": "Frankenburg am Hausruck",
    "state": "Oberösterreich",
    "zip": 4873,
    "county": "",
    "phone": "",
    "type": "",
    "ownership": "",
    "emergency": "",
    "quality": "",
    "LAT": 48.0652714,
    "LON": 13.4866291
  },
  "287": {
    "id": 10287,
    "name": "Dr. Irene Mann",
    "address": "Kremser Straße 16a",
    "city": "Hausleiten",
    "state": "Niederösterreich",
    "zip": 3464,
    "county": "",
    "phone": "+43 2265 7356",
    "type": "",
    "ownership": "",
    "emergency": "",
    "quality": "",
    "LAT": 48.394344,
    "LON": 16.0986907
  },
  "288": {
    "id": 10288,
    "name": "Dr. Iris Jäger",
    "address": "Kreuzstraße 3a",
    "city": "Schlins",
    "state": "Vorarlberg",
    "zip": 6824,
    "county": "",
    "phone": "",
    "type": "",
    "ownership": "",
    "emergency": "",
    "quality": "",
    "LAT": 47.2061502,
    "LON": 9.6987923
  },
  "289": {
    "id": 10289,
    "name": "Dr. Irmagard Schwender",
    "address": "Altenmarkter Straße 49",
    "city": "Wies",
    "state": "Steiermark",
    "zip": 8551,
    "county": "",
    "phone": "",
    "type": "",
    "ownership": "",
    "emergency": "",
    "quality": "",
    "LAT": 46.7146579,
    "LON": 15.2623085
  },
  "290": {
    "id": 10290,
    "name": "Dr. Isabella Roth",
    "address": "Buchbergstraße 1",
    "city": "Leonding",
    "state": "Oberösterreich",
    "zip": 4060,
    "county": "",
    "phone": "",
    "type": "",
    "ownership": "",
    "emergency": "",
    "quality": "",
    "LAT": 48.2835006,
    "LON": 14.2582277
  },
  "291": {
    "id": 10291,
    "name": "Dr. Johann Cserko",
    "address": "Arbeiterheimstraße 3",
    "city": "Strasshof an der Nordbahn",
    "state": "Niederösterreich",
    "zip": 2231,
    "county": "",
    "phone": "+43 2287 4477",
    "type": "",
    "ownership": "",
    "emergency": "",
    "quality": "",
    "LAT": 48.3156854,
    "LON": 16.636656
  },
  "292": {
    "id": 10292,
    "name": "Dr. Johann Trippolt",
    "address": "Bahnhofstraße 12",
    "city": "Schruns",
    "state": "Vorarlberg",
    "zip": 6780,
    "county": "",
    "phone": "",
    "type": "",
    "ownership": "",
    "emergency": "",
    "quality": "",
    "LAT": 47.0793916,
    "LON": 9.9189218
  },
  "293": {
    "id": 10293,
    "name": "Dr. Johannes Füreder / Dr. Magdalena Liebhart",
    "address": "Harterfeldstraße 31",
    "city": "Leonding",
    "state": "Oberösterreich",
    "zip": 4060,
    "county": "",
    "phone": "",
    "type": "",
    "ownership": "",
    "emergency": "",
    "quality": "",
    "LAT": 48.2605902,
    "LON": 14.2540934
  },
  "294": {
    "id": 10294,
    "name": "Dr. Josef Schützenberger",
    "address": "Schulstraße 32",
    "city": "Königswiesen",
    "state": "Oberösterreich",
    "zip": 4280,
    "county": "",
    "phone": "",
    "type": "",
    "ownership": "",
    "emergency": "",
    "quality": "",
    "LAT": 48.4089506,
    "LON": 14.8358108
  },
  "295": {
    "id": 10295,
    "name": "Dr. Judith Meryem Müller",
    "address": "Sigmund-Freud-Straße 68",
    "city": "Bad Aussee",
    "state": "Steiermark",
    "zip": 8990,
    "county": "",
    "phone": "",
    "type": "",
    "ownership": "",
    "emergency": "",
    "quality": "",
    "LAT": 47.6162537,
    "LON": 13.7794182
  },
  "296": {
    "id": 10296,
    "name": "Dr. Jörg Schweiger",
    "address": "Dr-Josef-Genger-Platz 565",
    "city": "Admont",
    "state": "Steiermark",
    "zip": 8911,
    "county": "",
    "phone": "",
    "type": "",
    "ownership": "",
    "emergency": "",
    "quality": "",
    "LAT": 47.5786249,
    "LON": 14.4611312
  },
  "297": {
    "id": 10297,
    "name": "Dr. Jürgen Schneider",
    "address": "Flurstraße 28",
    "city": "Höchst",
    "state": "Vorarlberg",
    "zip": 6973,
    "county": "",
    "phone": "",
    "type": "",
    "ownership": "",
    "emergency": "",
    "quality": "",
    "LAT": 47.465536,
    "LON": 9.6450124
  },
  "298": {
    "id": 10298,
    "name": "Dr. Karin Limbeck",
    "address": "Hauptstraße 2",
    "city": "Wallern im Burgenland",
    "state": "Burgenland",
    "zip": 7151,
    "county": "",
    "phone": "+43 2174 26651",
    "type": "",
    "ownership": "",
    "emergency": "",
    "quality": "",
    "LAT": 47.7250394,
    "LON": 16.9366622
  },
  "299": {
    "id": 10299,
    "name": "Dr. Karin Mittendorfer",
    "address": "Markt 5",
    "city": "Unterweißenbach",
    "state": "Oberösterreich",
    "zip": 4273,
    "county": "",
    "phone": "",
    "type": "",
    "ownership": "",
    "emergency": "",
    "quality": "",
    "LAT": 48.4339208,
    "LON": 14.7824766
  },
  "300": {
    "id": 10300,
    "name": "Dr. Karin Pietsch",
    "address": "Neunkirchener Straße 55",
    "city": "Puchberg am Schneeberg",
    "state": "Niederösterreich",
    "zip": 2734,
    "county": "",
    "phone": "",
    "type": "",
    "ownership": "",
    "emergency": "",
    "quality": "",
    "LAT": 47.7810133,
    "LON": 15.91836
  },
  "301": {
    "id": 10301,
    "name": "Dr. Karl Schnell",
    "address": "",
    "city": "Saalbach-Hinterglemm",
    "state": "Salzburg",
    "zip": 5753,
    "county": "",
    "phone": "",
    "type": "",
    "ownership": "",
    "emergency": "",
    "quality": "",
    "LAT": 47.3883172,
    "LON": 12.6472271
  },
  "302": {
    "id": 10302,
    "name": "Dr. Karl-Heinz Grotti",
    "address": "Johann-Georg-Seyfried-Weg 1",
    "city": "Weiler",
    "state": "Vorarlberg",
    "zip": 6837,
    "county": "",
    "phone": "",
    "type": "",
    "ownership": "",
    "emergency": "",
    "quality": "",
    "LAT": 47.3028581,
    "LON": 9.6536121
  },
  "303": {
    "id": 10303,
    "name": "Dr. Kerbl-Hofinger",
    "address": "Untere Marktstraße 11a",
    "city": "Sieghartskirchen",
    "state": "Niederösterreich",
    "zip": 3443,
    "county": "",
    "phone": "",
    "type": "",
    "ownership": "",
    "emergency": "",
    "quality": "",
    "LAT": 48.258895,
    "LON": 16.0124652
  },
  "304": {
    "id": 10304,
    "name": "Dr. Kerstin Gasser-Puck",
    "address": "Pfarrfeld 5",
    "city": "Brixen im Thale",
    "state": "Tirol",
    "zip": 6364,
    "county": "",
    "phone": "05334/8181",
    "type": "",
    "ownership": "",
    "emergency": "",
    "quality": "",
    "LAT": 47.4512128,
    "LON": 12.2523342
  },
  "305": {
    "id": 10305,
    "name": "Dr. Kiraly",
    "address": "Baumgartenstraße 5",
    "city": "Markgrafneusiedl",
    "state": "Niederösterreich",
    "zip": 2282,
    "county": "",
    "phone": "",
    "type": "",
    "ownership": "",
    "emergency": "",
    "quality": "",
    "LAT": 48.267986,
    "LON": 16.6243645
  },
  "306": {
    "id": 10306,
    "name": "Dr. Klaudia Dobrounig",
    "address": "Hauptplatz 23",
    "city": "Griffen",
    "state": "Kärnten",
    "zip": 9112,
    "county": "",
    "phone": "",
    "type": "",
    "ownership": "",
    "emergency": "",
    "quality": "",
    "LAT": 46.7032064,
    "LON": 14.7299701
  },
  "307": {
    "id": 10307,
    "name": "Dr. Klaus Fürst",
    "address": "Lederergasse 12",
    "city": "Lembach im Mühlkreis",
    "state": "Oberösterreich",
    "zip": 4132,
    "county": "",
    "phone": "",
    "type": "",
    "ownership": "",
    "emergency": "",
    "quality": "",
    "LAT": 48.4968609,
    "LON": 13.8974376
  },
  "308": {
    "id": 10308,
    "name": "Dr. Klaus Gstirner",
    "address": "Körblergasse 10",
    "city": "Graz",
    "state": "Steiermark",
    "zip": 8010,
    "county": "",
    "phone": "",
    "type": "",
    "ownership": "",
    "emergency": "",
    "quality": "",
    "LAT": 47.079109,
    "LON": 15.4443574
  },
  "309": {
    "id": 10309,
    "name": "Dr. Klaus Rolli",
    "address": "Schulstraße 10",
    "city": "Leonding",
    "state": "Oberösterreich",
    "zip": 4060,
    "county": "",
    "phone": "",
    "type": "",
    "ownership": "",
    "emergency": "",
    "quality": "",
    "LAT": 48.2503636,
    "LON": 14.2571293
  },
  "310": {
    "id": 10310,
    "name": "Dr. Klaus Sabin",
    "address": "Karl Morre-Gasse 7",
    "city": "Leibnitz",
    "state": "Steiermark",
    "zip": 8430,
    "county": "",
    "phone": "",
    "type": "",
    "ownership": "",
    "emergency": "",
    "quality": "",
    "LAT": 46.7804491,
    "LON": 15.5422955
  },
  "311": {
    "id": 10311,
    "name": "Dr. Krump",
    "address": "Stiftsfeld 19",
    "city": "Fischlham",
    "state": "Oberösterreich",
    "zip": 4652,
    "county": "",
    "phone": "",
    "type": "",
    "ownership": "",
    "emergency": "",
    "quality": "",
    "LAT": 48.0850881,
    "LON": 13.9510225
  },
  "312": {
    "id": 10312,
    "name": "Dr. Krösslhuber",
    "address": "Bahnhofstraße 27",
    "city": "Altheim",
    "state": "Oberösterreich",
    "zip": 4950,
    "county": "",
    "phone": "+43 7723 42322",
    "type": "",
    "ownership": "",
    "emergency": "",
    "quality": "",
    "LAT": 48.2519458,
    "LON": 13.2343222
  },
  "313": {
    "id": 10313,
    "name": "Dr. Kugler",
    "address": "",
    "city": "Eisenstadt",
    "state": "Burgenland",
    "zip": 7000,
    "county": "",
    "phone": "",
    "type": "",
    "ownership": "",
    "emergency": "",
    "quality": "",
    "LAT": 47.8453594,
    "LON": 16.5186038
  },
  "314": {
    "id": 10314,
    "name": "Dr. Kurt Hlawacek",
    "address": "Bahnstraße 20",
    "city": "Bad Vöslau",
    "state": "Niederösterreich",
    "zip": 2540,
    "county": "",
    "phone": "",
    "type": "",
    "ownership": "",
    "emergency": "",
    "quality": "",
    "LAT": 47.9672699,
    "LON": 16.2181944
  },
  "315": {
    "id": 10315,
    "name": "Dr. Kurt Jenny",
    "address": "Arlbergstraße 94",
    "city": "Innerbraz",
    "state": "Vorarlberg",
    "zip": 6751,
    "county": "",
    "phone": "",
    "type": "",
    "ownership": "",
    "emergency": "",
    "quality": "",
    "LAT": 47.1444896,
    "LON": 9.9185557
  },
  "316": {
    "id": 10316,
    "name": "Dr. Leitner",
    "address": "Ameisbergweg 2",
    "city": "Kollerschlag",
    "state": "Oberösterreich",
    "zip": 4154,
    "county": "",
    "phone": "07287 83490",
    "type": "",
    "ownership": "",
    "emergency": "",
    "quality": "",
    "LAT": 48.6018854,
    "LON": 13.8420604
  },
  "317": {
    "id": 10317,
    "name": "Dr. Leopold Reichinger",
    "address": "Ringstraße 13",
    "city": "Sankt Leonhard bei Freistadt",
    "state": "Oberösterreich",
    "zip": 4294,
    "county": "",
    "phone": "",
    "type": "",
    "ownership": "",
    "emergency": "",
    "quality": "",
    "LAT": 48.441241,
    "LON": 14.6710895
  },
  "318": {
    "id": 10318,
    "name": "Dr. Linser, Allgemeinmedizin",
    "address": "Dr.Siegfried Gapp Weg 7",
    "city": "Mieming",
    "state": "Tirol",
    "zip": 6414,
    "county": "",
    "phone": "",
    "type": "",
    "ownership": "",
    "emergency": "",
    "quality": "",
    "LAT": 47.3062197,
    "LON": 10.9658121
  },
  "319": {
    "id": 10319,
    "name": "Dr. Manfred Ganneshofer",
    "address": "Hauptstraße 32",
    "city": "Zistersdorf",
    "state": "Niederösterreich",
    "zip": 2225,
    "county": "",
    "phone": "",
    "type": "",
    "ownership": "",
    "emergency": "",
    "quality": "",
    "LAT": 48.5451994,
    "LON": 16.7647826
  },
  "320": {
    "id": 10320,
    "name": "Dr. Manuel Langer",
    "address": "Marienplatz 2A",
    "city": "Perchtoldsdorf",
    "state": "Niederösterreich",
    "zip": 2380,
    "county": "",
    "phone": "+43 1 244 70 72",
    "type": "",
    "ownership": "",
    "emergency": "",
    "quality": "",
    "LAT": 48.1251889,
    "LON": 16.2804594
  },
  "321": {
    "id": 10321,
    "name": "Dr. Margareta Schmidt-Orban",
    "address": "Obere Hauptstraße 51",
    "city": "Nickelsdorf",
    "state": "Burgenland",
    "zip": 2425,
    "county": "",
    "phone": 4321462323,
    "type": "",
    "ownership": "",
    "emergency": "",
    "quality": "",
    "LAT": 47.9419064,
    "LON": 17.0633139
  },
  "322": {
    "id": 10322,
    "name": "Dr. Marianne Böckelberger",
    "address": "",
    "city": "Klagenfurt am Wörthersee",
    "state": "Kärnten",
    "zip": 9020,
    "county": "",
    "phone": "",
    "type": "",
    "ownership": "",
    "emergency": "",
    "quality": "",
    "LAT": 46.6498531,
    "LON": 14.2798312
  },
  "323": {
    "id": 10323,
    "name": "Dr. Marietta Pernsteiner",
    "address": "Dallingerstraße 13",
    "city": "Leonding",
    "state": "Oberösterreich",
    "zip": 4060,
    "county": "",
    "phone": "",
    "type": "",
    "ownership": "",
    "emergency": "",
    "quality": "",
    "LAT": 48.2761793,
    "LON": 14.2469449
  },
  "324": {
    "id": 10324,
    "name": "Dr. Markus Heiml",
    "address": "Industriegasse 4",
    "city": "Bruck an der Mur",
    "state": "Steiermark",
    "zip": 8600,
    "county": "",
    "phone": "",
    "type": "",
    "ownership": "",
    "emergency": "",
    "quality": "",
    "LAT": 47.4206264,
    "LON": 15.2746916
  },
  "325": {
    "id": 10325,
    "name": "Dr. Markus Huber Facharzt für Allgemeinmedizin",
    "address": "Osterndorfer Straße 7",
    "city": "Bad Häring",
    "state": "Tirol",
    "zip": 6323,
    "county": "",
    "phone": "",
    "type": "",
    "ownership": "",
    "emergency": "",
    "quality": "",
    "LAT": 47.5131664,
    "LON": 12.1205377
  },
  "326": {
    "id": 10326,
    "name": "Dr. Markus Sommer",
    "address": "Hirtenberger Straße 30",
    "city": "Berndorf",
    "state": "Niederösterreich",
    "zip": 2560,
    "county": "",
    "phone": "",
    "type": "",
    "ownership": "",
    "emergency": "",
    "quality": "",
    "LAT": 47.937147,
    "LON": 16.1597669
  },
  "327": {
    "id": 10327,
    "name": "Dr. Martin Handel",
    "address": "Parkstraße 12",
    "city": "Knittelfeld",
    "state": "Steiermark",
    "zip": 8720,
    "county": "",
    "phone": "+43 3512 853090",
    "type": "",
    "ownership": "",
    "emergency": "",
    "quality": "",
    "LAT": 47.2119605,
    "LON": 14.8269634
  },
  "328": {
    "id": 10328,
    "name": "Dr. Martin Jud",
    "address": "Straubstraße 1a",
    "city": "Hall in Tirol",
    "state": "Tirol",
    "zip": 6060,
    "county": "",
    "phone": "",
    "type": "",
    "ownership": "",
    "emergency": "",
    "quality": "",
    "LAT": 47.2839491,
    "LON": 11.5069833
  },
  "329": {
    "id": 10329,
    "name": "Dr. Martin Krüger",
    "address": "Mischlgutweg 1",
    "city": "Anif",
    "state": "Salzburg",
    "zip": 5081,
    "county": "",
    "phone": "06246/ 72 96 9",
    "type": "",
    "ownership": "",
    "emergency": "",
    "quality": "",
    "LAT": 47.7475632,
    "LON": 13.0649038
  },
  "330": {
    "id": 10330,
    "name": "Dr. Matthias Skopek",
    "address": "Rudolfstraße 11",
    "city": "Langenlois",
    "state": "Niederösterreich",
    "zip": 3550,
    "county": "",
    "phone": "",
    "type": "",
    "ownership": "",
    "emergency": "",
    "quality": "",
    "LAT": 48.4719354,
    "LON": 15.67502
  },
  "331": {
    "id": 10331,
    "name": "Dr. Merz",
    "address": "Schöffelstraße 214",
    "city": "Wienerwald",
    "state": "Niederösterreich",
    "zip": 2392,
    "county": "",
    "phone": "",
    "type": "",
    "ownership": "",
    "emergency": "",
    "quality": "",
    "LAT": 48.101257,
    "LON": 16.1379376
  },
  "332": {
    "id": 10332,
    "name": "Dr. Michael Ackerl",
    "address": "Hubertusgasse 10",
    "city": "Oberpullendorf",
    "state": "Burgenland",
    "zip": 7350,
    "county": "",
    "phone": "",
    "type": "",
    "ownership": "",
    "emergency": "",
    "quality": "",
    "LAT": 47.4965498,
    "LON": 16.5128455
  },
  "333": {
    "id": 10333,
    "name": "Dr. Michael Gasser",
    "address": "Völkendorfer Straße 25a",
    "city": "Villach",
    "state": "Kärnten",
    "zip": 9500,
    "county": "",
    "phone": "+43 4242 52838",
    "type": "",
    "ownership": "",
    "emergency": "",
    "quality": "",
    "LAT": 46.6099058,
    "LON": 13.8350081
  },
  "334": {
    "id": 10334,
    "name": "Dr. Michael Heinrich",
    "address": "Hauptstraße 76",
    "city": "Deutschkreutz",
    "state": "Burgenland",
    "zip": 7301,
    "county": "",
    "phone": "+43 2613 89260",
    "type": "",
    "ownership": "",
    "emergency": "",
    "quality": "",
    "LAT": 47.5978352,
    "LON": 16.6270956
  },
  "335": {
    "id": 10335,
    "name": "Dr. Michael Jahn",
    "address": "Langenharterstraße 78",
    "city": "Sankt Valentin",
    "state": "Niederösterreich",
    "zip": 4300,
    "county": "",
    "phone": "",
    "type": "",
    "ownership": "",
    "emergency": "",
    "quality": "",
    "LAT": 48.1727763,
    "LON": 14.5180745
  },
  "336": {
    "id": 10336,
    "name": "Dr. Michael Schriefl",
    "address": "Seestraße 11",
    "city": "Mörbisch am See",
    "state": "Burgenland",
    "zip": 7072,
    "county": "",
    "phone": "+43 2685 8240",
    "type": "",
    "ownership": "",
    "emergency": "",
    "quality": "",
    "LAT": 47.7551262,
    "LON": 16.6698672
  },
  "337": {
    "id": 10337,
    "name": "Dr. Michael Wanzenböck",
    "address": "Hauptstraße 82",
    "city": "Gutenstein",
    "state": "Niederösterreich",
    "zip": 2770,
    "county": "",
    "phone": "",
    "type": "",
    "ownership": "",
    "emergency": "",
    "quality": "",
    "LAT": 47.8765429,
    "LON": 15.8963739
  },
  "338": {
    "id": 10338,
    "name": "Dr. Monika Hinterberger",
    "address": "Pilotengasse 30",
    "city": "Wien",
    "state": "Wien",
    "zip": 1220,
    "county": "",
    "phone": "",
    "type": "",
    "ownership": "",
    "emergency": "",
    "quality": "",
    "LAT": 48.2214411,
    "LON": 16.4824408
  },
  "339": {
    "id": 10339,
    "name": "Dr. Monika Paireder",
    "address": "Hauptstraße 17",
    "city": "Schiedlberg",
    "state": "Oberösterreich",
    "zip": 4521,
    "county": "",
    "phone": "",
    "type": "",
    "ownership": "",
    "emergency": "",
    "quality": "",
    "LAT": 48.0917078,
    "LON": 14.2675957
  },
  "340": {
    "id": 10340,
    "name": "Dr. Moser",
    "address": "Angergasse 48",
    "city": "Deutsch Schützen-Eisenberg",
    "state": "Burgenland",
    "zip": 7474,
    "county": "",
    "phone": "+43 3365 220 20",
    "type": "",
    "ownership": "",
    "emergency": "",
    "quality": "",
    "LAT": 47.1605422,
    "LON": 16.4475077
  },
  "341": {
    "id": 10341,
    "name": "Dr. Neuner",
    "address": "Bahnhofstraße 38a",
    "city": "Völs",
    "state": "Tirol",
    "zip": 6176,
    "county": "",
    "phone": 43512302530,
    "type": "",
    "ownership": "",
    "emergency": "",
    "quality": "",
    "LAT": 47.2551718,
    "LON": 11.320335
  },
  "342": {
    "id": 10342,
    "name": "Dr. Nico Schoklitsch",
    "address": "",
    "city": "Mauterndorf",
    "state": "Salzburg",
    "zip": 5570,
    "county": "",
    "phone": "",
    "type": "",
    "ownership": "",
    "emergency": "",
    "quality": "",
    "LAT": 47.1321784,
    "LON": 13.6812415
  },
  "343": {
    "id": 10343,
    "name": "Dr. Niedermayer",
    "address": "Hagergasse 21",
    "city": "Deutsch-Wagram",
    "state": "Niederösterreich",
    "zip": 2232,
    "county": "",
    "phone": "",
    "type": "",
    "ownership": "",
    "emergency": "",
    "quality": "",
    "LAT": 48.3003137,
    "LON": 16.5595654
  },
  "344": {
    "id": 10344,
    "name": "Dr. Norbert Haberbusch",
    "address": "Bauordenstraße 23",
    "city": "Wels",
    "state": "Oberösterreich",
    "zip": 4600,
    "county": "",
    "phone": 9.699245785,
    "type": "",
    "ownership": "",
    "emergency": "",
    "quality": "",
    "LAT": 48.1493672,
    "LON": 14.0021514
  },
  "345": {
    "id": 10345,
    "name": "Dr. Nöbauer",
    "address": "Kobernaußerwaldstraße 22",
    "city": "Lengau",
    "state": "Oberösterreich",
    "zip": 5212,
    "county": "",
    "phone": "",
    "type": "",
    "ownership": "",
    "emergency": "Yes",
    "quality": "",
    "LAT": 48.0260222,
    "LON": 13.2928287
  },
  "346": {
    "id": 10346,
    "name": "Dr. Oberleit, Allgemeinmedizin",
    "address": "Barwies 271",
    "city": "Mieming",
    "state": "Tirol",
    "zip": 6414,
    "county": "",
    "phone": "",
    "type": "",
    "ownership": "",
    "emergency": "",
    "quality": "",
    "LAT": 47.3056772,
    "LON": 10.9651993
  },
  "347": {
    "id": 10347,
    "name": "Dr. Olaf Wonisch",
    "address": "Hauptstraße 262",
    "city": "Sankt Peter am Ottersbach",
    "state": "Steiermark",
    "zip": 8093,
    "county": "",
    "phone": "",
    "type": "",
    "ownership": "",
    "emergency": "",
    "quality": "",
    "LAT": 46.801199,
    "LON": 15.758538
  },
  "348": {
    "id": 10348,
    "name": "Dr. Oliver Lammel",
    "address": "nan 381",
    "city": "Ramsau am Dachstein",
    "state": "Steiermark",
    "zip": 8972,
    "county": "",
    "phone": "+43 3687 81081",
    "type": "",
    "ownership": "",
    "emergency": "",
    "quality": "",
    "LAT": 47.4199615,
    "LON": 13.658896
  },
  "349": {
    "id": 10349,
    "name": "Dr. Orges Fezga",
    "address": "Hauptstraße 1",
    "city": "Berndorf",
    "state": "Niederösterreich",
    "zip": 2560,
    "county": "",
    "phone": "",
    "type": "",
    "ownership": "",
    "emergency": "",
    "quality": "",
    "LAT": 47.9384958,
    "LON": 16.1554726
  },
  "350": {
    "id": 10350,
    "name": "Dr. Oswald Heis",
    "address": "Weidach 293a",
    "city": "Leutasch",
    "state": "Tirol",
    "zip": 6105,
    "county": "",
    "phone": "+43 5214 6910",
    "type": "",
    "ownership": "",
    "emergency": "",
    "quality": "",
    "LAT": 47.3696608,
    "LON": 11.1584103
  },
  "351": {
    "id": 10351,
    "name": "Dr. Otmar Eckhart",
    "address": "Leonsteinerstraße 41",
    "city": "Grünburg",
    "state": "Oberösterreich",
    "zip": 4592,
    "county": "",
    "phone": "",
    "type": "",
    "ownership": "",
    "emergency": "",
    "quality": "",
    "LAT": 47.9093956,
    "LON": 14.2355143
  },
  "352": {
    "id": 10352,
    "name": "Dr. Ottinger Franz",
    "address": "Brucknerweg 17",
    "city": "Frankenburg am Hausruck",
    "state": "Oberösterreich",
    "zip": 4873,
    "county": "",
    "phone": "",
    "type": "",
    "ownership": "",
    "emergency": "",
    "quality": "",
    "LAT": 48.0699164,
    "LON": 13.4876187
  },
  "353": {
    "id": 10353,
    "name": "Dr. Panhofer",
    "address": "",
    "city": "Ungenach",
    "state": "Oberösterreich",
    "zip": 4841,
    "county": "",
    "phone": "",
    "type": "",
    "ownership": "",
    "emergency": "No",
    "quality": "",
    "LAT": 48.0463675,
    "LON": 13.6133933
  },
  "354": {
    "id": 10354,
    "name": "Dr. Paula Schmied",
    "address": "Hauptstraße 6",
    "city": "Petronell-Carnuntum",
    "state": "Niederösterreich",
    "zip": 2404,
    "county": "",
    "phone": "",
    "type": "",
    "ownership": "",
    "emergency": "",
    "quality": "",
    "LAT": 48.1119126,
    "LON": 16.8609396
  },
  "355": {
    "id": 10355,
    "name": "Dr. Payrich - Prakt. Arzt",
    "address": "Neubaugasse 49",
    "city": "Sankt Andrä am Zicksee",
    "state": "Burgenland",
    "zip": 7161,
    "county": "",
    "phone": "",
    "type": "",
    "ownership": "",
    "emergency": "",
    "quality": "",
    "LAT": 47.7877348,
    "LON": 16.9466696
  },
  "356": {
    "id": 10356,
    "name": "Dr. Permanschlager",
    "address": "Pantaleoner Straße 2",
    "city": "Sankt Pantaleon",
    "state": "Oberösterreich",
    "zip": 5120,
    "county": "",
    "phone": "",
    "type": "",
    "ownership": "",
    "emergency": "",
    "quality": "",
    "LAT": 48.0110122,
    "LON": 12.8930402
  },
  "357": {
    "id": 10357,
    "name": "Dr. Peter Arends",
    "address": "Grazer Straße 25",
    "city": "Güssing",
    "state": "Burgenland",
    "zip": 7540,
    "county": "",
    "phone": "",
    "type": "",
    "ownership": "",
    "emergency": "",
    "quality": "",
    "LAT": 47.0475883,
    "LON": 16.3197061
  },
  "358": {
    "id": 10358,
    "name": "Dr. Peter Fuchs",
    "address": "nan 160",
    "city": "Ratten",
    "state": "Steiermark",
    "zip": 8673,
    "county": "",
    "phone": "",
    "type": "",
    "ownership": "",
    "emergency": "",
    "quality": "",
    "LAT": 47.485222,
    "LON": 15.7236422
  },
  "359": {
    "id": 10359,
    "name": "Dr. Peter Peer",
    "address": "Juns 592",
    "city": "Tux",
    "state": "Tirol",
    "zip": 6293,
    "county": "",
    "phone": "",
    "type": "",
    "ownership": "",
    "emergency": "",
    "quality": "",
    "LAT": 47.1406563,
    "LON": 11.715343
  },
  "360": {
    "id": 10360,
    "name": "Dr. Petra Steinhart",
    "address": "Ulmenweg 1",
    "city": "Ansfelden",
    "state": "Oberösterreich",
    "zip": 4052,
    "county": "",
    "phone": "",
    "type": "",
    "ownership": "",
    "emergency": "",
    "quality": "",
    "LAT": 48.2247482,
    "LON": 14.2936055
  },
  "361": {
    "id": 10361,
    "name": "Dr. Pfefferkorn",
    "address": "",
    "city": "Grän",
    "state": "Tirol",
    "zip": 6673,
    "county": "",
    "phone": "",
    "type": "",
    "ownership": "",
    "emergency": "",
    "quality": "",
    "LAT": 47.5031629,
    "LON": 10.5552431
  },
  "362": {
    "id": 10362,
    "name": "Dr. Pils",
    "address": "",
    "city": "Scharnstein",
    "state": "Oberösterreich",
    "zip": 4644,
    "county": "",
    "phone": "",
    "type": "",
    "ownership": "",
    "emergency": "",
    "quality": "",
    "LAT": 47.9027549,
    "LON": 13.9585674
  },
  "363": {
    "id": 10363,
    "name": "Dr. Reinhard Smutny",
    "address": "Karl-Schwed-Gasse 39",
    "city": "Wien",
    "state": "Wien",
    "zip": 1230,
    "county": "",
    "phone": "+43 1 887 36 53",
    "type": "",
    "ownership": "",
    "emergency": "",
    "quality": "",
    "LAT": 48.1580674,
    "LON": 16.28009
  },
  "364": {
    "id": 10364,
    "name": "Dr. Reinhold Fasching",
    "address": "Neustiftstraße 7",
    "city": "Frauenkirchen",
    "state": "Burgenland",
    "zip": 7132,
    "county": "",
    "phone": "0043 2172 289 70",
    "type": "",
    "ownership": "",
    "emergency": "",
    "quality": "",
    "LAT": 47.8374867,
    "LON": 16.9223415
  },
  "365": {
    "id": 10365,
    "name": "Dr. Reinhold Függer",
    "address": "Alhartinger Weg 18",
    "city": "Leonding",
    "state": "Oberösterreich",
    "zip": 4060,
    "county": "",
    "phone": "",
    "type": "",
    "ownership": "",
    "emergency": "",
    "quality": "",
    "LAT": 48.2818557,
    "LON": 14.2461157
  },
  "366": {
    "id": 10366,
    "name": "Dr. Renate Thiele",
    "address": "Herzogstraße 29",
    "city": "Leonding",
    "state": "Oberösterreich",
    "zip": 4060,
    "county": "",
    "phone": "",
    "type": "",
    "ownership": "",
    "emergency": "",
    "quality": "",
    "LAT": 48.2491673,
    "LON": 14.2544966
  },
  "367": {
    "id": 10367,
    "name": "Dr. Richard Winklehner",
    "address": "Steingarten 32",
    "city": "Schönau im Mühlkreis",
    "state": "Oberösterreich",
    "zip": 4274,
    "county": "",
    "phone": "",
    "type": "",
    "ownership": "",
    "emergency": "",
    "quality": "",
    "LAT": 48.400178,
    "LON": 14.7276171
  },
  "368": {
    "id": 10368,
    "name": "Dr. Roland Lanzersdorfer",
    "address": "Altbauerstraße 13",
    "city": "Ansfelden",
    "state": "Oberösterreich",
    "zip": 4052,
    "county": "",
    "phone": "",
    "type": "",
    "ownership": "",
    "emergency": "",
    "quality": "",
    "LAT": 48.2250672,
    "LON": 14.2923495
  },
  "369": {
    "id": 10369,
    "name": "Dr. Rudlof Bogad",
    "address": "Pürrergasse 4",
    "city": "Katzelsdorf",
    "state": "Niederösterreich",
    "zip": 2801,
    "county": "",
    "phone": "",
    "type": "",
    "ownership": "",
    "emergency": "",
    "quality": "",
    "LAT": 47.7812179,
    "LON": 16.2711044
  },
  "370": {
    "id": 10370,
    "name": "Dr. Rudolf Rüscher",
    "address": "nan 368",
    "city": "Andelsbuch",
    "state": "Vorarlberg",
    "zip": 6866,
    "county": "",
    "phone": "",
    "type": "",
    "ownership": "",
    "emergency": "",
    "quality": "",
    "LAT": 47.4112452,
    "LON": 9.8950106
  },
  "371": {
    "id": 10371,
    "name": "Dr. Rudolf Staudacher",
    "address": "Dietrichsteinerstraße 13",
    "city": "Finkenstein am Faaker See",
    "state": "Kärnten",
    "zip": 9583,
    "county": "",
    "phone": "",
    "type": "",
    "ownership": "",
    "emergency": "",
    "quality": "",
    "LAT": 46.5667843,
    "LON": 13.912129
  },
  "372": {
    "id": 10372,
    "name": "Dr. Salam Jabbour",
    "address": "Brucker Straße 24",
    "city": "Gratkorn",
    "state": "Steiermark",
    "zip": 8101,
    "county": "",
    "phone": "",
    "type": "",
    "ownership": "",
    "emergency": "",
    "quality": "",
    "LAT": 47.1354966,
    "LON": 15.3353093
  },
  "373": {
    "id": 10373,
    "name": "Dr. Sandra Michaela Brunner",
    "address": "Hartbergerstraße 1",
    "city": "Buchkirchen",
    "state": "Oberösterreich",
    "zip": 4611,
    "county": "",
    "phone": "",
    "type": "",
    "ownership": "",
    "emergency": "",
    "quality": "",
    "LAT": 48.2237144,
    "LON": 14.0191563
  },
  "374": {
    "id": 10374,
    "name": "Dr. Schmid Bernhard, prakt. Arzt",
    "address": "nan 123",
    "city": "Zwettl-Niederösterreich",
    "state": "Niederösterreich",
    "zip": 3910,
    "county": "",
    "phone": "",
    "type": "",
    "ownership": "",
    "emergency": "",
    "quality": "",
    "LAT": 48.672083,
    "LON": 15.1625611
  },
  "375": {
    "id": 10375,
    "name": "Dr. Schnopfhagen-Matura",
    "address": "Schubertviertel 33",
    "city": "Sankt Valentin",
    "state": "Niederösterreich",
    "zip": 4300,
    "county": "",
    "phone": "",
    "type": "",
    "ownership": "",
    "emergency": "",
    "quality": "",
    "LAT": 48.1729118,
    "LON": 14.5286975
  },
  "376": {
    "id": 10376,
    "name": "Dr. Schultes",
    "address": "",
    "city": "Neidling",
    "state": "Niederösterreich",
    "zip": 3110,
    "county": "",
    "phone": "",
    "type": "",
    "ownership": "",
    "emergency": "",
    "quality": "",
    "LAT": 48.2369942,
    "LON": 15.556366
  },
  "377": {
    "id": 10377,
    "name": "Dr. Schuster",
    "address": "Kreuzfeld 14",
    "city": "Engerwitzdorf",
    "state": "Oberösterreich",
    "zip": 4209,
    "county": "",
    "phone": "",
    "type": "",
    "ownership": "",
    "emergency": "",
    "quality": "",
    "LAT": 48.3412943,
    "LON": 14.4175507
  },
  "378": {
    "id": 10378,
    "name": "Dr. Schwaiger",
    "address": "Richtstraße 35",
    "city": "Villach",
    "state": "Kärnten",
    "zip": 9500,
    "county": "",
    "phone": "",
    "type": "",
    "ownership": "",
    "emergency": "",
    "quality": "",
    "LAT": 46.5964335,
    "LON": 13.8441234
  },
  "379": {
    "id": 10379,
    "name": "Dr. Schwarzmann",
    "address": "",
    "city": "Bezau",
    "state": "Vorarlberg",
    "zip": 6870,
    "county": "",
    "phone": "",
    "type": "",
    "ownership": "",
    "emergency": "",
    "quality": "",
    "LAT": 47.3790507,
    "LON": 9.8940563
  },
  "380": {
    "id": 10380,
    "name": "Dr. Schöninger",
    "address": "nan 43",
    "city": "Enns",
    "state": "Oberösterreich",
    "zip": 4470,
    "county": "",
    "phone": "",
    "type": "",
    "ownership": "",
    "emergency": "",
    "quality": "",
    "LAT": 48.2159664,
    "LON": 14.446801
  },
  "381": {
    "id": 10381,
    "name": "Dr. Sereinigg",
    "address": "Josef-Marx-Gasse 2",
    "city": "Ferlach",
    "state": "Kärnten",
    "zip": 9170,
    "county": "",
    "phone": "",
    "type": "",
    "ownership": "",
    "emergency": "",
    "quality": "",
    "LAT": 46.524318,
    "LON": 14.3015219
  },
  "382": {
    "id": 10382,
    "name": "Dr. Siegfried Wess",
    "address": "nan 144",
    "city": "Sankt Georgen ob Judenburg",
    "state": "Steiermark",
    "zip": 8756,
    "county": "",
    "phone": "+43 35 83 - 22 49",
    "type": "",
    "ownership": "",
    "emergency": "",
    "quality": "",
    "LAT": 47.2087954,
    "LON": 14.4980691
  },
  "383": {
    "id": 10383,
    "name": "Dr. Smoliner",
    "address": "Adalbert Stifter-Gasse 11",
    "city": "Deutsch-Wagram",
    "state": "Niederösterreich",
    "zip": 2232,
    "county": "",
    "phone": "",
    "type": "",
    "ownership": "",
    "emergency": "",
    "quality": "",
    "LAT": 48.314825,
    "LON": 16.5956035
  },
  "384": {
    "id": 10384,
    "name": "Dr. Sonja Gapp",
    "address": "Baderplatz 108",
    "city": "Hallstatt",
    "state": "Oberösterreich",
    "zip": 4830,
    "county": "",
    "phone": "",
    "type": "",
    "ownership": "",
    "emergency": "",
    "quality": "",
    "LAT": 47.5619081,
    "LON": 13.6496391
  },
  "385": {
    "id": 10385,
    "name": "Dr. Spießberger Johannes",
    "address": "Johann-Strauß-Straße 1",
    "city": "Vöcklamarkt",
    "state": "Oberösterreich",
    "zip": 4870,
    "county": "",
    "phone": "+43 7682 2322",
    "type": "",
    "ownership": "",
    "emergency": "",
    "quality": "",
    "LAT": 47.9985266,
    "LON": 13.486988
  },
  "386": {
    "id": 10386,
    "name": "Dr. Stadlmayr",
    "address": "Bachweg 11",
    "city": "Frankenburg am Hausruck",
    "state": "Oberösterreich",
    "zip": 4873,
    "county": "",
    "phone": "",
    "type": "",
    "ownership": "",
    "emergency": "",
    "quality": "",
    "LAT": 48.0662439,
    "LON": 13.4933962
  },
  "387": {
    "id": 10387,
    "name": "Dr. Stefan Walser",
    "address": "Sulzhofen 14",
    "city": "Sulz",
    "state": "Vorarlberg",
    "zip": 6832,
    "county": "",
    "phone": "",
    "type": "",
    "ownership": "",
    "emergency": "",
    "quality": "",
    "LAT": 47.2901036,
    "LON": 9.6531241
  },
  "388": {
    "id": 10388,
    "name": "Dr. Steinhauser",
    "address": "Bifangstraße 31a",
    "city": "Feldkirch",
    "state": "Vorarlberg",
    "zip": 6800,
    "county": "",
    "phone": "",
    "type": "",
    "ownership": "",
    "emergency": "",
    "quality": "",
    "LAT": 47.2547291,
    "LON": 9.5895536
  },
  "389": {
    "id": 10389,
    "name": "Dr. Susanne Natiesta",
    "address": "Rudolf-Waisenhorn-Gasse 63",
    "city": "Wien",
    "state": "Wien",
    "zip": 1230,
    "county": "",
    "phone": "+43 699 10089876",
    "type": "",
    "ownership": "",
    "emergency": "",
    "quality": "",
    "LAT": 48.14094,
    "LON": 16.27008
  },
  "390": {
    "id": 10390,
    "name": "Dr. Susanne Scholtes- Domian",
    "address": "Traidersbergstraße 17",
    "city": "Sankt Peter-Freienstein",
    "state": "Steiermark",
    "zip": 8792,
    "county": "",
    "phone": "+43 3842 25 3 90",
    "type": "",
    "ownership": "",
    "emergency": "",
    "quality": "",
    "LAT": 47.3961791,
    "LON": 15.0297903
  },
  "391": {
    "id": 10391,
    "name": "Dr. Thomas Fitz",
    "address": "Hauptstraße 145",
    "city": "Bad Aussee",
    "state": "Steiermark",
    "zip": 8990,
    "county": "",
    "phone": "",
    "type": "",
    "ownership": "",
    "emergency": "",
    "quality": "",
    "LAT": 47.6100203,
    "LON": 13.7838405
  },
  "392": {
    "id": 10392,
    "name": "Dr. Thomas Hollenstein",
    "address": "nan 836",
    "city": "Schwarzenberg",
    "state": "Vorarlberg",
    "zip": 6867,
    "county": "",
    "phone": "",
    "type": "",
    "ownership": "",
    "emergency": "",
    "quality": "",
    "LAT": 47.4129022,
    "LON": 9.8595348
  },
  "393": {
    "id": 10393,
    "name": "Dr. Thomas Horvath",
    "address": "Reutelestraße 31",
    "city": "Hard",
    "state": "Vorarlberg",
    "zip": 6971,
    "county": "",
    "phone": "",
    "type": "",
    "ownership": "",
    "emergency": "",
    "quality": "",
    "LAT": 47.4834183,
    "LON": 9.6826288
  },
  "394": {
    "id": 10394,
    "name": "Dr. Thomas Mosing",
    "address": "Fabrikstraße 10",
    "city": "Niklasdorf",
    "state": "Steiermark",
    "zip": 8712,
    "county": "",
    "phone": "",
    "type": "",
    "ownership": "",
    "emergency": "",
    "quality": "",
    "LAT": 47.3975638,
    "LON": 15.1556451
  },
  "395": {
    "id": 10395,
    "name": "Dr. Thomas Preimesberger",
    "address": "",
    "city": "Bad Aussee",
    "state": "Steiermark",
    "zip": 8990,
    "county": "",
    "phone": "",
    "type": "",
    "ownership": "",
    "emergency": "",
    "quality": "",
    "LAT": 47.6083809,
    "LON": 13.7839871
  },
  "396": {
    "id": 10396,
    "name": "Dr. Tockner",
    "address": "nan 17",
    "city": "Arnfels",
    "state": "Steiermark",
    "zip": 8454,
    "county": "",
    "phone": "+43 3455 6464",
    "type": "",
    "ownership": "",
    "emergency": "",
    "quality": "",
    "LAT": 46.6776551,
    "LON": 15.4020231
  },
  "397": {
    "id": 10397,
    "name": "Dr. Tragatschnig",
    "address": "Sportplatzstraße 306",
    "city": "Paternion",
    "state": "Kärnten",
    "zip": 9710,
    "county": "",
    "phone": "",
    "type": "",
    "ownership": "",
    "emergency": "",
    "quality": "",
    "LAT": 46.7021931,
    "LON": 13.6651395
  },
  "398": {
    "id": 10398,
    "name": "Dr. Ursula Huber",
    "address": "Parkstraße 2b",
    "city": "Hinterbrühl",
    "state": "Niederösterreich",
    "zip": 2371,
    "county": "",
    "phone": "",
    "type": "",
    "ownership": "",
    "emergency": "",
    "quality": "",
    "LAT": 48.0865429,
    "LON": 16.2507461
  },
  "399": {
    "id": 10399,
    "name": "Dr. Veonika König",
    "address": "Moriz-Schadek-Gasse 28",
    "city": "Waidhofen an der Thaya",
    "state": "Niederösterreich",
    "zip": 3830,
    "county": "",
    "phone": "",
    "type": "",
    "ownership": "",
    "emergency": "",
    "quality": "",
    "LAT": 48.8127765,
    "LON": 15.2841393
  },
  "400": {
    "id": 10400,
    "name": "Dr. Weber",
    "address": "Neubaustraße 8",
    "city": "Grünbach am Schneeberg",
    "state": "Niederösterreich",
    "zip": 2733,
    "county": "",
    "phone": "",
    "type": "",
    "ownership": "",
    "emergency": "",
    "quality": "",
    "LAT": 47.7990861,
    "LON": 15.9844273
  },
  "401": {
    "id": 10401,
    "name": "Dr. Weinlich",
    "address": "nan 169",
    "city": "Weitersfeld",
    "state": "Niederösterreich",
    "zip": 2084,
    "county": "",
    "phone": "",
    "type": "",
    "ownership": "",
    "emergency": "",
    "quality": "",
    "LAT": 48.7825626,
    "LON": 15.8133024
  },
  "402": {
    "id": 10402,
    "name": "Dr. Weitersberger",
    "address": "Dorfstraße 19",
    "city": "Pierbach",
    "state": "Oberösterreich",
    "zip": 4282,
    "county": "",
    "phone": "",
    "type": "",
    "ownership": "",
    "emergency": "",
    "quality": "",
    "LAT": 48.3479617,
    "LON": 14.7571624
  },
  "403": {
    "id": 10403,
    "name": "Dr. Werner Hladik",
    "address": "",
    "city": "Hollabrunn",
    "state": "Niederösterreich",
    "zip": 2020,
    "county": "",
    "phone": "",
    "type": "",
    "ownership": "",
    "emergency": "",
    "quality": "",
    "LAT": 48.5629612,
    "LON": 16.0798123
  },
  "404": {
    "id": 10404,
    "name": "Dr. Wildner Michael",
    "address": "Johann-Paul-Gruber-Weg 6",
    "city": "Zirl",
    "state": "Tirol",
    "zip": 6170,
    "county": "",
    "phone": "",
    "type": "",
    "ownership": "",
    "emergency": "",
    "quality": "",
    "LAT": 47.2708805,
    "LON": 11.2456565
  },
  "405": {
    "id": 10405,
    "name": "Dr. Wilhelm Jordan",
    "address": "Salzleckerstraße 12",
    "city": "Schwarzach im Pongau",
    "state": "Salzburg",
    "zip": 5620,
    "county": "",
    "phone": "",
    "type": "",
    "ownership": "",
    "emergency": "",
    "quality": "",
    "LAT": 47.3208604,
    "LON": 13.1520049
  },
  "406": {
    "id": 10406,
    "name": "Dr. Willibald Stulnig",
    "address": "Lindenweg 3",
    "city": "Wundschuh",
    "state": "Steiermark",
    "zip": 8142,
    "county": "",
    "phone": "",
    "type": "",
    "ownership": "",
    "emergency": "",
    "quality": "",
    "LAT": 46.9278399,
    "LON": 15.4521205
  },
  "407": {
    "id": 10407,
    "name": "Dr. Wolfgang Aschauer;FA für Frauenheilkunde und Gynäkologie;Wahlarzt",
    "address": "Schulstraße 6",
    "city": "Kremsmünster",
    "state": "Oberösterreich",
    "zip": 4550,
    "county": "",
    "phone": -15960,
    "type": "",
    "ownership": "",
    "emergency": "",
    "quality": "",
    "LAT": 48.0513355,
    "LON": 14.1271573
  },
  "408": {
    "id": 10408,
    "name": "Dr. Wolfgang Hehenwarter",
    "address": "Kariglstraße 1/2",
    "city": "Leonding",
    "state": "Oberösterreich",
    "zip": 4060,
    "county": "",
    "phone": "",
    "type": "",
    "ownership": "",
    "emergency": "",
    "quality": "",
    "LAT": 48.2766423,
    "LON": 14.2556938
  },
  "409": {
    "id": 10409,
    "name": "Dr. Wolfgang Niedermair",
    "address": "Grieskirchner Straße 7",
    "city": "Wels",
    "state": "Oberösterreich",
    "zip": 4600,
    "county": "",
    "phone": "",
    "type": "",
    "ownership": "",
    "emergency": "",
    "quality": "",
    "LAT": 48.169066,
    "LON": 14.0245991
  },
  "410": {
    "id": 10410,
    "name": "Dr. Wolfgang Schuller",
    "address": "Bahngasse 25",
    "city": "Oberpullendorf",
    "state": "Burgenland",
    "zip": 7350,
    "county": "",
    "phone": "",
    "type": "",
    "ownership": "",
    "emergency": "",
    "quality": "",
    "LAT": 47.4945905,
    "LON": 16.505773
  },
  "411": {
    "id": 10411,
    "name": "Dr. Wolfgang Wurdinger",
    "address": "Winkelstraße 6",
    "city": "Leonding",
    "state": "Oberösterreich",
    "zip": 4060,
    "county": "",
    "phone": "",
    "type": "",
    "ownership": "",
    "emergency": "",
    "quality": "",
    "LAT": 48.2699851,
    "LON": 14.2429764
  },
  "412": {
    "id": 10412,
    "name": "Dr. Wutti",
    "address": "Dollichgasse 5",
    "city": "Ferlach",
    "state": "Kärnten",
    "zip": 9170,
    "county": "",
    "phone": "",
    "type": "",
    "ownership": "",
    "emergency": "",
    "quality": "",
    "LAT": 46.5276177,
    "LON": 14.3041897
  },
  "413": {
    "id": 10413,
    "name": "Dr. Zanier Peter",
    "address": "",
    "city": "Lienz",
    "state": "Tirol",
    "zip": 9900,
    "county": "",
    "phone": "",
    "type": "",
    "ownership": "",
    "emergency": "",
    "quality": "",
    "LAT": 46.8315302,
    "LON": 12.7731707
  },
  "414": {
    "id": 10414,
    "name": "Dr. med. Christian Schroth",
    "address": "nan 22",
    "city": "Mallnitz",
    "state": "Kärnten",
    "zip": 9822,
    "county": "",
    "phone": "",
    "type": "",
    "ownership": "",
    "emergency": "",
    "quality": "",
    "LAT": 46.9887247,
    "LON": 13.1700906
  },
  "415": {
    "id": 10415,
    "name": "Dr. med. Peter Laszloffy",
    "address": "Zellerstraße 27",
    "city": "Bruck an der Großglocknerstraße",
    "state": "Salzburg",
    "zip": 5671,
    "county": "",
    "phone": "",
    "type": "",
    "ownership": "",
    "emergency": "",
    "quality": "",
    "LAT": 47.2885057,
    "LON": 12.8215245
  },
  "416": {
    "id": 10416,
    "name": "Dr. med. Stefan Rebhandl",
    "address": "Dorfplatz 2",
    "city": "Klaffer am Hochficht",
    "state": "Oberösterreich",
    "zip": 4163,
    "county": "",
    "phone": "07288/6504",
    "type": "",
    "ownership": "",
    "emergency": "",
    "quality": "",
    "LAT": 48.6955141,
    "LON": 13.8802353
  },
  "417": {
    "id": 10417,
    "name": "Dr. med. Thomas Wolf",
    "address": "Sporerweg 307",
    "city": "Millstatt am See",
    "state": "Kärnten",
    "zip": 9872,
    "county": "",
    "phone": "",
    "type": "",
    "ownership": "",
    "emergency": "",
    "quality": "",
    "LAT": 46.8123757,
    "LON": 13.5586344
  },
  "418": {
    "id": 10418,
    "name": "Dr. med. Winfried Burtscher",
    "address": "Königsboden 145",
    "city": "Dalaas",
    "state": "Vorarlberg",
    "zip": 6752,
    "county": "",
    "phone": "",
    "type": "",
    "ownership": "",
    "emergency": "No",
    "quality": "",
    "LAT": 47.1239115,
    "LON": 10.0017894
  },
  "419": {
    "id": 10419,
    "name": "Dr. med. univ Renate Wurm",
    "address": "Marktplatz 12",
    "city": "Amstetten",
    "state": "Niederösterreich",
    "zip": 3363,
    "county": "",
    "phone": "",
    "type": "",
    "ownership": "",
    "emergency": "",
    "quality": "",
    "LAT": 48.0781111,
    "LON": 14.8254494
  },
  "420": {
    "id": 10420,
    "name": "Dr. med. univ. Josef Weinhart",
    "address": "Schloßstraße 4",
    "city": "Amstetten",
    "state": "Niederösterreich",
    "zip": 3363,
    "county": "",
    "phone": "",
    "type": "",
    "ownership": "",
    "emergency": "",
    "quality": "",
    "LAT": 48.0760928,
    "LON": 14.8190072
  },
  "421": {
    "id": 10421,
    "name": "Dr. med. univ. Werenfrid Heger",
    "address": "Wilhelm-Vogl-Straße 48",
    "city": "Amstetten",
    "state": "Niederösterreich",
    "zip": 3363,
    "county": "",
    "phone": "",
    "type": "",
    "ownership": "",
    "emergency": "",
    "quality": "",
    "LAT": 48.0818714,
    "LON": 14.8118647
  },
  "422": {
    "id": 10422,
    "name": "Dr. Übeleis",
    "address": "Kranholzstraße 3",
    "city": "Kirchberg-Thening",
    "state": "Oberösterreich",
    "zip": 4062,
    "county": "",
    "phone": "",
    "type": "",
    "ownership": "",
    "emergency": "",
    "quality": "",
    "LAT": 48.2567226,
    "LON": 14.1571035
  },
  "423": {
    "id": 10423,
    "name": "Dr.Buchegger",
    "address": "Raiffeisenplatz 3",
    "city": "Pöggstall",
    "state": "Niederösterreich",
    "zip": 3650,
    "county": "",
    "phone": "",
    "type": "",
    "ownership": "",
    "emergency": "",
    "quality": "",
    "LAT": 48.31796,
    "LON": 15.2017394
  },
  "424": {
    "id": 10424,
    "name": "Dr.Grünberger",
    "address": "Im Himmelreich 3",
    "city": "Münzkirchen",
    "state": "Oberösterreich",
    "zip": 4792,
    "county": "",
    "phone": "",
    "type": "",
    "ownership": "",
    "emergency": "",
    "quality": "",
    "LAT": 48.48496,
    "LON": 13.5692971
  },
  "425": {
    "id": 10425,
    "name": "Dr.Tenora",
    "address": "Hauptstraße 192",
    "city": "Maria-Anzbach",
    "state": "Niederösterreich",
    "zip": 3034,
    "county": "",
    "phone": "",
    "type": "",
    "ownership": "",
    "emergency": "",
    "quality": "",
    "LAT": 48.1905455,
    "LON": 15.9288326
  },
  "426": {
    "id": 10426,
    "name": "Dr.Wüstner",
    "address": "Warth 67",
    "city": "Warth",
    "state": "Vorarlberg",
    "zip": 6767,
    "county": "",
    "phone": "",
    "type": "",
    "ownership": "",
    "emergency": "",
    "quality": "",
    "LAT": 47.2590659,
    "LON": 10.179469
  },
  "427": {
    "id": 10427,
    "name": "Dr.med Christoph Dachs & Dr.med Doris Diess",
    "address": "Rifer Hauptstraße 34",
    "city": "Hallein",
    "state": "Salzburg",
    "zip": 5400,
    "county": "",
    "phone": "+43 6245 76220",
    "type": "",
    "ownership": "",
    "emergency": "",
    "quality": "",
    "LAT": 47.7241315,
    "LON": 13.0647807
  },
  "428": {
    "id": 10428,
    "name": "Dr.med. Roland Fuschelberger",
    "address": "Dorf 2",
    "city": "Aldrans",
    "state": "Tirol",
    "zip": 6071,
    "county": "",
    "phone": "+43 512 394042",
    "type": "",
    "ownership": "",
    "emergency": "",
    "quality": "",
    "LAT": 47.2521713,
    "LON": 11.4462629
  },
  "429": {
    "id": 10429,
    "name": "Eduard Auff",
    "address": "An den langen Lüssen 4",
    "city": "Wien",
    "state": "Wien",
    "zip": 1190,
    "county": "",
    "phone": "",
    "type": "",
    "ownership": "",
    "emergency": "",
    "quality": "",
    "LAT": 48.2530095,
    "LON": 16.3414286
  },
  "430": {
    "id": 10430,
    "name": "Etzelsdorfer Roland",
    "address": "Birkenfeld 4",
    "city": "Sankt Oswald bei Freistadt",
    "state": "Oberösterreich",
    "zip": 4271,
    "county": "",
    "phone": "",
    "type": "",
    "ownership": "",
    "emergency": "",
    "quality": "",
    "LAT": 48.5023018,
    "LON": 14.5790117
  },
  "431": {
    "id": 10431,
    "name": "Facharzt Ordination Physikalische Medizin u. allg. Rehab",
    "address": "Quadenstraße 41",
    "city": "Wien",
    "state": "Wien",
    "zip": 1220,
    "county": "",
    "phone": "",
    "type": "",
    "ownership": "",
    "emergency": "",
    "quality": "",
    "LAT": 48.2378611,
    "LON": 16.4790657
  },
  "432": {
    "id": 10432,
    "name": "Frauenarzt Stefanovic",
    "address": "Wagramer Straße 173",
    "city": "Wien",
    "state": "Wien",
    "zip": 1220,
    "county": "",
    "phone": "",
    "type": "",
    "ownership": "",
    "emergency": "",
    "quality": "",
    "LAT": 48.25767,
    "LON": 16.4486226
  },
  "433": {
    "id": 10433,
    "name": "Frauengesundheitszentrum Wels",
    "address": "Kaiser-Josef-Platz 52",
    "city": "Wels",
    "state": "Oberösterreich",
    "zip": 4600,
    "county": "",
    "phone": "",
    "type": "",
    "ownership": "",
    "emergency": "",
    "quality": "",
    "LAT": 48.160699,
    "LON": 14.0241133
  },
  "434": {
    "id": 10434,
    "name": "Geiss",
    "address": "Gaadner Straße 2a",
    "city": "Hinterbrühl",
    "state": "Niederösterreich",
    "zip": 2371,
    "county": "",
    "phone": "",
    "type": "",
    "ownership": "",
    "emergency": "",
    "quality": "",
    "LAT": 48.0847717,
    "LON": 16.2566992
  },
  "435": {
    "id": 10435,
    "name": "Gemeindearzt Dr. Gabler",
    "address": "Gafringstraße 5",
    "city": "Euratsfeld",
    "state": "Niederösterreich",
    "zip": 3324,
    "county": "",
    "phone": "+43 7474 280",
    "type": "",
    "ownership": "",
    "emergency": "",
    "quality": "",
    "LAT": 48.0816663,
    "LON": 14.9334551
  },
  "436": {
    "id": 10436,
    "name": "Gemeindeärztin",
    "address": "Wolfsbrunn 5",
    "city": "Sommerein",
    "state": "Niederösterreich",
    "zip": 2453,
    "county": "",
    "phone": "",
    "type": "",
    "ownership": "",
    "emergency": "",
    "quality": "",
    "LAT": 47.9951331,
    "LON": 16.6660265
  },
  "437": {
    "id": 10437,
    "name": "Gertraud Unterholzer",
    "address": "Semmelweisstraße 1",
    "city": "Pucking",
    "state": "Oberösterreich",
    "zip": 4055,
    "county": "",
    "phone": "",
    "type": "",
    "ownership": "",
    "emergency": "",
    "quality": "",
    "LAT": 48.1872767,
    "LON": 14.182428
  },
  "438": {
    "id": 10438,
    "name": "Gesundheitshaus Dr. Christoph Jecel",
    "address": "Untere Hauptstraße 24",
    "city": "Böheimkirchen",
    "state": "Niederösterreich",
    "zip": 3071,
    "county": "",
    "phone": "02743/2400",
    "type": "",
    "ownership": "",
    "emergency": "",
    "quality": "",
    "LAT": 48.1975407,
    "LON": 15.7668522
  },
  "439": {
    "id": 10439,
    "name": "Gesundheitsschmiede Dr. Stephan Weber",
    "address": "Jägerweg 3b",
    "city": "Villach",
    "state": "Kärnten",
    "zip": 9500,
    "county": "",
    "phone": "+43 4242 28548",
    "type": "",
    "ownership": "",
    "emergency": "",
    "quality": "",
    "LAT": 46.6235979,
    "LON": 13.8601553
  },
  "440": {
    "id": 10440,
    "name": "Gesundheitszentrum",
    "address": "Hauptstraße 31",
    "city": "Bisamberg",
    "state": "Niederösterreich",
    "zip": 2102,
    "county": "",
    "phone": "",
    "type": "",
    "ownership": "",
    "emergency": "",
    "quality": "",
    "LAT": 48.3297112,
    "LON": 16.3595244
  },
  "443": {
    "id": 10443,
    "name": "Gesundheitszentrum Herrenstraße",
    "address": "Herrenstraße 54",
    "city": "Linz",
    "state": "Oberösterreich",
    "zip": 4020,
    "county": "",
    "phone": "",
    "type": "",
    "ownership": "",
    "emergency": "",
    "quality": "",
    "LAT": 48.2986106,
    "LON": 14.2874934
  },
  "444": {
    "id": 10444,
    "name": "Gesundheitszentrum Joglland",
    "address": "nan 200",
    "city": "Vorau",
    "state": "Steiermark",
    "zip": 8250,
    "county": "",
    "phone": "",
    "type": "",
    "ownership": "",
    "emergency": "",
    "quality": "",
    "LAT": 47.4112472,
    "LON": 15.892809
  },
  "445": {
    "id": 10445,
    "name": "Gruppenpraxis Dr. Arthur Penn und Dr. Christoph Aumayr",
    "address": "Penngasse 5",
    "city": "Reichenau im Mühlkreis",
    "state": "Oberösterreich",
    "zip": 4204,
    "county": "",
    "phone": "",
    "type": "",
    "ownership": "",
    "emergency": "",
    "quality": "",
    "LAT": 48.4554409,
    "LON": 14.3521003
  },
  "446": {
    "id": 10446,
    "name": "Gruppenpraxis Strasshof",
    "address": "Hauptstraße 292/1",
    "city": "Strasshof an der Nordbahn",
    "state": "Niederösterreich",
    "zip": 2231,
    "county": "",
    "phone": "+43 2287 4444",
    "type": "",
    "ownership": "",
    "emergency": "",
    "quality": "",
    "LAT": 48.3171196,
    "LON": 16.6404556
  },
  "447": {
    "id": 10447,
    "name": "Hausapotheke Dr Ulrich Busch",
    "address": "Poybachsiedlung 1",
    "city": "Großkrut",
    "state": "Niederösterreich",
    "zip": 2143,
    "county": "",
    "phone": "",
    "type": "",
    "ownership": "",
    "emergency": "",
    "quality": "",
    "LAT": 48.6451576,
    "LON": 16.7153524
  },
  "448": {
    "id": 10448,
    "name": "Herzpraxis Wolber",
    "address": "St.-Ulrich-Straße 40",
    "city": "Götzis",
    "state": "Vorarlberg",
    "zip": 6840,
    "county": "",
    "phone": "+43 5523 51183",
    "type": "",
    "ownership": "",
    "emergency": "",
    "quality": "",
    "LAT": 47.3362346,
    "LON": 9.6390441
  },
  "449": {
    "id": 10449,
    "name": "Heschl - Landarztteam f. Allgemeinmedizin",
    "address": "Stadlweg 1",
    "city": "Oed-Oehling",
    "state": "Niederösterreich",
    "zip": 3312,
    "county": "",
    "phone": "",
    "type": "",
    "ownership": "",
    "emergency": "",
    "quality": "",
    "LAT": 48.1226741,
    "LON": 14.7415419
  },
  "450": {
    "id": 10450,
    "name": "Kerschbaumer",
    "address": "Pichler Straße 1",
    "city": "Gunskirchen",
    "state": "Oberösterreich",
    "zip": 4623,
    "county": "",
    "phone": "",
    "type": "",
    "ownership": "",
    "emergency": "",
    "quality": "",
    "LAT": 48.1333652,
    "LON": 13.9404953
  },
  "451": {
    "id": 10451,
    "name": "Kovacic",
    "address": "Matzingthalstraße 15",
    "city": "Laakirchen",
    "state": "Oberösterreich",
    "zip": 4663,
    "county": "",
    "phone": "",
    "type": "",
    "ownership": "",
    "emergency": "",
    "quality": "",
    "LAT": 47.9849921,
    "LON": 13.8246722
  },
  "452": {
    "id": 10452,
    "name": "Labor Dr. Leisch",
    "address": "Waltherstraße 5",
    "city": "Linz",
    "state": "Oberösterreich",
    "zip": 4020,
    "county": "",
    "phone": "",
    "type": "",
    "ownership": "",
    "emergency": "",
    "quality": "",
    "LAT": 48.302354,
    "LON": 14.2843503
  },
  "453": {
    "id": 10453,
    "name": "Labor Dr. Philadelphy",
    "address": "Völser Straße 14",
    "city": "Innsbruck",
    "state": "Tirol",
    "zip": 6020,
    "county": "",
    "phone": "",
    "type": "",
    "ownership": "",
    "emergency": "",
    "quality": "",
    "LAT": 47.2502221,
    "LON": 11.3628426
  },
  "454": {
    "id": 10454,
    "name": "Labor Dr. Theurl",
    "address": "Franz-Fischer-Straße 7b",
    "city": "Innsbruck",
    "state": "Tirol",
    "zip": 6020,
    "county": "",
    "phone": "",
    "type": "",
    "ownership": "",
    "emergency": "",
    "quality": "",
    "LAT": 47.2580673,
    "LON": 11.3950091
  },
  "455": {
    "id": 10455,
    "name": "Lungenfacharzt Dr. Hofinger",
    "address": "Flecknertorgasse 7",
    "city": "Scheibbs",
    "state": "Niederösterreich",
    "zip": 3270,
    "county": "",
    "phone": "",
    "type": "",
    "ownership": "",
    "emergency": "",
    "quality": "",
    "LAT": 48.0067837,
    "LON": 15.1679064
  },
  "456": {
    "id": 10456,
    "name": "MED22 Gesundheitszentrum",
    "address": "Stadlauer Straße 62",
    "city": "Wien",
    "state": "Wien",
    "zip": 1220,
    "county": "",
    "phone": "",
    "type": "",
    "ownership": "",
    "emergency": "",
    "quality": "",
    "LAT": 48.2311746,
    "LON": 16.4579284
  },
  "457": {
    "id": 10457,
    "name": "MR Dr. Helmut Niederecker",
    "address": "Ingenieur-Eugen-Essenther-Straße 16",
    "city": "Berndorf",
    "state": "Niederösterreich",
    "zip": 2560,
    "county": "",
    "phone": "",
    "type": "",
    "ownership": "",
    "emergency": "",
    "quality": "",
    "LAT": 47.9418781,
    "LON": 16.1081635
  },
  "458": {
    "id": 10458,
    "name": "MR Dr. Horst Geigl, MSc",
    "address": "Sonnenweg 1",
    "city": "Teufenbach-Katsch",
    "state": "Steiermark",
    "zip": 8842,
    "county": "",
    "phone": "",
    "type": "",
    "ownership": "",
    "emergency": "",
    "quality": "",
    "LAT": 47.1269668,
    "LON": 14.3580664
  },
  "459": {
    "id": 10459,
    "name": "Mag.(Fh) Mag. Kathrin Walch",
    "address": "Hernsteiner Straße 30",
    "city": "Berndorf",
    "state": "Niederösterreich",
    "zip": 2560,
    "county": "",
    "phone": "",
    "type": "",
    "ownership": "",
    "emergency": "",
    "quality": "",
    "LAT": 47.9399014,
    "LON": 16.1045421
  },
  "460": {
    "id": 10460,
    "name": "Medcenter Nord",
    "address": "Fischeraustraße 13",
    "city": "Graz",
    "state": "Steiermark",
    "zip": 8051,
    "county": "",
    "phone": "",
    "type": "",
    "ownership": "",
    "emergency": "",
    "quality": "",
    "LAT": 47.0946603,
    "LON": 15.4093944
  },
  "461": {
    "id": 10461,
    "name": "Medicent",
    "address": "Innrain 143",
    "city": "Innsbruck",
    "state": "Tirol",
    "zip": 6020,
    "county": "",
    "phone": "",
    "type": "",
    "ownership": "",
    "emergency": "",
    "quality": "",
    "LAT": 47.2559912,
    "LON": 11.3771995
  },
  "462": {
    "id": 10462,
    "name": "Medicent Baden",
    "address": "Grundauerweg 15",
    "city": "Baden",
    "state": "Niederösterreich",
    "zip": 2500,
    "county": "",
    "phone": "",
    "type": "",
    "ownership": "",
    "emergency": "",
    "quality": "",
    "LAT": 47.9973832,
    "LON": 16.2560719
  },
  "463": {
    "id": 10463,
    "name": "Mr. Dr. Walter Lux - Praktischer Arzt",
    "address": "Hauptstraße 79a",
    "city": "Dürnkrut",
    "state": "Niederösterreich",
    "zip": 2263,
    "county": "",
    "phone": "02538 80290",
    "type": "",
    "ownership": "",
    "emergency": "",
    "quality": "",
    "LAT": 48.4700145,
    "LON": 16.8565967
  },
  "464": {
    "id": 10464,
    "name": "Notarztdienst Linz-Land",
    "address": "Traunuferstraße 9a",
    "city": "Ansfelden",
    "state": "Oberösterreich",
    "zip": 4052,
    "county": "",
    "phone": "",
    "type": "",
    "ownership": "",
    "emergency": "Yes",
    "quality": "",
    "LAT": 48.2287797,
    "LON": 14.3053796
  },
  "465": {
    "id": 10465,
    "name": "OMR Dr. Heinz Philipp",
    "address": "Escherstraße 12",
    "city": "Berndorf",
    "state": "Niederösterreich",
    "zip": 2560,
    "county": "",
    "phone": "",
    "type": "",
    "ownership": "",
    "emergency": "",
    "quality": "",
    "LAT": 47.9433604,
    "LON": 16.0990365
  },
  "466": {
    "id": 10466,
    "name": "OMed.R. Dr. Baschar Abou-Harb",
    "address": "Hauptstraße nan",
    "city": "Leopoldsdorf",
    "state": "Niederösterreich",
    "zip": 2333,
    "county": "",
    "phone": "",
    "type": "",
    "ownership": "",
    "emergency": "",
    "quality": "",
    "LAT": 48.1079263,
    "LON": 16.3981953
  },
  "467": {
    "id": 10467,
    "name": "Ord. Dr. Georg Prantl",
    "address": "Hauptstraße 5",
    "city": "Ehrwald",
    "state": "Tirol",
    "zip": 6632,
    "county": "",
    "phone": "",
    "type": "",
    "ownership": "",
    "emergency": "",
    "quality": "",
    "LAT": 47.4000951,
    "LON": 10.9180291
  },
  "468": {
    "id": 10468,
    "name": "Ord. Dr. Thomas Fluckinger",
    "address": "Bahnhofstraße 2",
    "city": "Wattens",
    "state": "Tirol",
    "zip": 6112,
    "county": "",
    "phone": "",
    "type": "",
    "ownership": "",
    "emergency": "",
    "quality": "",
    "LAT": 47.2919256,
    "LON": 11.5907702
  },
  "469": {
    "id": 10469,
    "name": "Ordination Dr. Fazelnia",
    "address": "Prof.-August-Schreilechner-Weg 20",
    "city": "Mariapfarr",
    "state": "Salzburg",
    "zip": 5571,
    "county": "",
    "phone": "",
    "type": "",
    "ownership": "",
    "emergency": "",
    "quality": "",
    "LAT": 47.1498238,
    "LON": 13.7423649
  },
  "470": {
    "id": 10470,
    "name": "Ordination Dr. Fischbacher",
    "address": "Kirchenfeld 43",
    "city": "Kefermarkt",
    "state": "Oberösterreich",
    "zip": 4292,
    "county": "",
    "phone": "",
    "type": "",
    "ownership": "",
    "emergency": "",
    "quality": "",
    "LAT": 48.4436183,
    "LON": 14.539975
  },
  "471": {
    "id": 10471,
    "name": "Ordination Dr. Klimmer Christian",
    "address": "Pettneu am Arlberg 58a",
    "city": "Pettneu am Arlberg",
    "state": "Tirol",
    "zip": 6574,
    "county": "",
    "phone": "",
    "type": "",
    "ownership": "",
    "emergency": "",
    "quality": "",
    "LAT": 47.1487462,
    "LON": 10.3454432
  },
  "472": {
    "id": 10472,
    "name": "Ordination Dr. Reisinger",
    "address": "Pfarrgasse 33",
    "city": "Imst",
    "state": "Tirol",
    "zip": 6460,
    "county": "",
    "phone": "",
    "type": "",
    "ownership": "",
    "emergency": "",
    "quality": "",
    "LAT": 47.2451537,
    "LON": 10.7402631
  },
  "473": {
    "id": 10473,
    "name": "Ordination Dr. Sax",
    "address": "Pfarrstraße 400",
    "city": "Mariapfarr",
    "state": "Salzburg",
    "zip": 5571,
    "county": "",
    "phone": "",
    "type": "",
    "ownership": "",
    "emergency": "",
    "quality": "",
    "LAT": 47.1499844,
    "LON": 13.7477912
  },
  "474": {
    "id": 10474,
    "name": "Ordination Dr. Schatzberger",
    "address": "Taxlbergstraße 1",
    "city": "Steinhaus",
    "state": "Oberösterreich",
    "zip": 4641,
    "county": "",
    "phone": "",
    "type": "",
    "ownership": "",
    "emergency": "",
    "quality": "",
    "LAT": 48.1061644,
    "LON": 14.0268354
  },
  "475": {
    "id": 10475,
    "name": "Ordination Dr. Wolfgang Bachlechner",
    "address": "nan 8",
    "city": "Assling",
    "state": "Tirol",
    "zip": 9911,
    "county": "",
    "phone": "+434855 8181 / +43664 4361365",
    "type": "",
    "ownership": "",
    "emergency": "",
    "quality": "",
    "LAT": 46.7834124,
    "LON": 12.6610893
  },
  "476": {
    "id": 10476,
    "name": "Ordination Prof. Dr. Rudolf Pointner",
    "address": "Stefan-Zweig-Straße 2",
    "city": "Zell am See",
    "state": "Salzburg",
    "zip": 5700,
    "county": "",
    "phone": "",
    "type": "",
    "ownership": "",
    "emergency": "",
    "quality": "",
    "LAT": 47.2999343,
    "LON": 12.7978213
  },
  "477": {
    "id": 10477,
    "name": "Orthopädie Gruppenpraxis OG",
    "address": "Hardlgasse nan",
    "city": "Wiener Neustadt",
    "state": "Niederösterreich",
    "zip": 2700,
    "county": "",
    "phone": "",
    "type": "",
    "ownership": "",
    "emergency": "",
    "quality": "",
    "LAT": 47.7996284,
    "LON": 16.2344666
  },
  "478": {
    "id": 10478,
    "name": "OÖ Gebietskrankenkasse Wels",
    "address": "Hans-Sachs-Straße 4",
    "city": "Wels",
    "state": "Oberösterreich",
    "zip": 4600,
    "county": "",
    "phone": "",
    "type": "",
    "ownership": "",
    "emergency": "",
    "quality": "",
    "LAT": 48.1619266,
    "LON": 14.0310365
  },
  "479": {
    "id": 10479,
    "name": "Pabinger Michaela",
    "address": "Höglwörthweg 10B",
    "city": "Salzburg",
    "state": "Salzburg",
    "zip": 5020,
    "county": "",
    "phone": "0664 1141889",
    "type": "",
    "ownership": "",
    "emergency": "",
    "quality": "",
    "LAT": 47.7747349,
    "LON": 13.040205
  },
  "480": {
    "id": 10480,
    "name": "Physio Gaissau",
    "address": "Hauptstraße 58a",
    "city": "Gaißau",
    "state": "Vorarlberg",
    "zip": 6974,
    "county": "",
    "phone": "",
    "type": "",
    "ownership": "",
    "emergency": "",
    "quality": "",
    "LAT": 47.4666031,
    "LON": 9.601922
  },
  "481": {
    "id": 10481,
    "name": "Pistenambulanz",
    "address": "",
    "city": "Arriach",
    "state": "Kärnten",
    "zip": 9543,
    "county": "",
    "phone": "",
    "type": "",
    "ownership": "",
    "emergency": "",
    "quality": "",
    "LAT": 46.6958355,
    "LON": 13.913583
  },
  "482": {
    "id": 10482,
    "name": "Prakt. Arzt Dr. Prammer",
    "address": "Hagerstraße 14",
    "city": "Sankt Veit im Mühlkreis",
    "state": "Oberösterreich",
    "zip": 4173,
    "county": "",
    "phone": "",
    "type": "",
    "ownership": "",
    "emergency": "",
    "quality": "",
    "LAT": 48.4699435,
    "LON": 14.1619841
  },
  "483": {
    "id": 10483,
    "name": "Prakt. Arzt, Stadtarzt",
    "address": "Kirchengasse 2",
    "city": "Allentsteig",
    "state": "Niederösterreich",
    "zip": 3804,
    "county": "",
    "phone": "",
    "type": "",
    "ownership": "",
    "emergency": "",
    "quality": "",
    "LAT": 48.6964577,
    "LON": 15.3275912
  },
  "484": {
    "id": 10484,
    "name": "Praktischer Arzt / Dr. Hans Schimbach",
    "address": "Josef Ferschner-Straße 38",
    "city": "Traiskirchen",
    "state": "Niederösterreich",
    "zip": 2514,
    "county": "",
    "phone": "",
    "type": "",
    "ownership": "",
    "emergency": "",
    "quality": "",
    "LAT": 48.016842,
    "LON": 16.2924632
  },
  "485": {
    "id": 10485,
    "name": "Praktischer Arzt Dr. Franz Holzhauser",
    "address": "Bahnhofstraße 22",
    "city": "Wilhelmsburg",
    "state": "Niederösterreich",
    "zip": 3150,
    "county": "",
    "phone": "",
    "type": "",
    "ownership": "",
    "emergency": "",
    "quality": "",
    "LAT": 48.1099702,
    "LON": 15.6072149
  },
  "486": {
    "id": 10486,
    "name": "Praxis Dr. Stadler",
    "address": "Landstraße 11",
    "city": "Eugendorf",
    "state": "Salzburg",
    "zip": 5301,
    "county": "",
    "phone": "",
    "type": "",
    "ownership": "",
    "emergency": "",
    "quality": "",
    "LAT": 47.8711802,
    "LON": 13.1196341
  },
  "487": {
    "id": 10487,
    "name": "Praxis Dreibholz",
    "address": "Höchster Straße 27",
    "city": "Dornbirn",
    "state": "Vorarlberg",
    "zip": 6850,
    "county": "",
    "phone": "+43 (0)5572 / 20 50 70",
    "type": "",
    "ownership": "",
    "emergency": "",
    "quality": "",
    "LAT": 47.4106068,
    "LON": 9.7287688
  },
  "488": {
    "id": 10488,
    "name": "Praxis für Allgemeinmedizin Dr.Connert",
    "address": "Hochwiesenstraße 13",
    "city": "Köstendorf",
    "state": "Salzburg",
    "zip": 5203,
    "county": "",
    "phone": "",
    "type": "",
    "ownership": "",
    "emergency": "",
    "quality": "",
    "LAT": 47.9610712,
    "LON": 13.2013213
  },
  "489": {
    "id": 10489,
    "name": "Praxis für Ganzheitsmedizin",
    "address": "Hauptstraße 22",
    "city": "Markt Sankt Martin",
    "state": "Burgenland",
    "zip": 7341,
    "county": "",
    "phone": "",
    "type": "",
    "ownership": "",
    "emergency": "",
    "quality": "",
    "LAT": 47.5626589,
    "LON": 16.4291344
  },
  "490": {
    "id": 10490,
    "name": "Praxisgemeinschaft Dr. Ernst & Dr. Lahnsteiner - Ärzte für Allgemeinmedizin",
    "address": "Rosenegg 48a",
    "city": "Fieberbrunn",
    "state": "Tirol",
    "zip": 6391,
    "county": "",
    "phone": "",
    "type": "",
    "ownership": "",
    "emergency": "",
    "quality": "",
    "LAT": 47.4874803,
    "LON": 12.528936
  },
  "491": {
    "id": 10491,
    "name": "Praxisgemeinschaft dynamis",
    "address": "Eggmoarweg 965",
    "city": "Gröbming",
    "state": "Steiermark",
    "zip": 8962,
    "county": "",
    "phone": "",
    "type": "",
    "ownership": "",
    "emergency": "",
    "quality": "",
    "LAT": 47.4514627,
    "LON": 13.9036869
  },
  "492": {
    "id": 10492,
    "name": "Prim. Dr. Holzmann Karl",
    "address": "Schlossstraße 12",
    "city": "Reichenthal",
    "state": "Oberösterreich",
    "zip": 4193,
    "county": "",
    "phone": "",
    "type": "",
    "ownership": "",
    "emergency": "",
    "quality": "",
    "LAT": 48.5412817,
    "LON": 14.3854799
  },
  "493": {
    "id": 10493,
    "name": "Privatarzt Dr. Gosch",
    "address": "Goritschacher Straße 68",
    "city": "Wernberg",
    "state": "Kärnten",
    "zip": 9241,
    "county": "",
    "phone": "",
    "type": "",
    "ownership": "",
    "emergency": "",
    "quality": "",
    "LAT": 46.6050533,
    "LON": 13.9552893
  },
  "494": {
    "id": 10494,
    "name": "Prof. Matthäus Grasl",
    "address": "",
    "city": "Wien",
    "state": "Wien",
    "zip": 1130,
    "county": "",
    "phone": "",
    "type": "",
    "ownership": "",
    "emergency": "",
    "quality": "",
    "LAT": 48.1649739,
    "LON": 16.2828511
  },
  "495": {
    "id": 10495,
    "name": "Radiologie Roedler",
    "address": "Friedrich Schillerstraße 69",
    "city": "Mödling",
    "state": "Niederösterreich",
    "zip": 2340,
    "county": "",
    "phone": "+43 2236 48390",
    "type": "",
    "ownership": "",
    "emergency": "",
    "quality": "",
    "LAT": 48.0828066,
    "LON": 16.2963962
  },
  "496": {
    "id": 10496,
    "name": "Radiologiepraxis Dr. Schamp-Hertling",
    "address": "Augartengasse 14",
    "city": "Oberpullendorf",
    "state": "Burgenland",
    "zip": 7350,
    "county": "",
    "phone": "",
    "type": "",
    "ownership": "",
    "emergency": "",
    "quality": "",
    "LAT": 47.5025524,
    "LON": 16.5082741
  },
  "497": {
    "id": 10497,
    "name": "Refugium",
    "address": "Hauptplatz 10",
    "city": "Stadtschlaining",
    "state": "Burgenland",
    "zip": 7461,
    "county": "",
    "phone": "",
    "type": "",
    "ownership": "",
    "emergency": "",
    "quality": "",
    "LAT": 47.3236749,
    "LON": 16.2794679
  },
  "498": {
    "id": 10498,
    "name": "Rehabilitationsanstalt",
    "address": "Köflacher Gasse 5",
    "city": "Graz",
    "state": "Steiermark",
    "zip": 8020,
    "county": "",
    "phone": "",
    "type": "",
    "ownership": "",
    "emergency": "",
    "quality": "",
    "LAT": 47.0702748,
    "LON": 15.41596
  },
  "499": {
    "id": 10499,
    "name": "Reifeltshammer",
    "address": "",
    "city": "Taiskirchen im Innkreis",
    "state": "Oberösterreich",
    "zip": 4753,
    "county": "",
    "phone": "",
    "type": "",
    "ownership": "",
    "emergency": "",
    "quality": "",
    "LAT": 48.2660115,
    "LON": 13.5788904
  },
  "500": {
    "id": 10500,
    "name": "Rotes Kreuz",
    "address": "Hauptstraße 46",
    "city": "Kleinzell",
    "state": "Niederösterreich",
    "zip": 3171,
    "county": "",
    "phone": "",
    "type": "",
    "ownership": "",
    "emergency": "",
    "quality": "",
    "LAT": 47.9816743,
    "LON": 15.738645
  },
  "501": {
    "id": 10501,
    "name": "Rotes Kreuz Bezirksstelle Lungau",
    "address": "Josef-Ehrenreich-Straße 1",
    "city": "Tamsweg",
    "state": "Salzburg",
    "zip": 5580,
    "county": "",
    "phone": "",
    "type": "",
    "ownership": "",
    "emergency": "",
    "quality": "",
    "LAT": 47.1309087,
    "LON": 13.8104647
  },
  "502": {
    "id": 10502,
    "name": "Rotes Kreuz Dienstelle Böheimkirchen",
    "address": "Obere Hauptstraße 21",
    "city": "Böheimkirchen",
    "state": "Niederösterreich",
    "zip": 3071,
    "county": "",
    "phone": "",
    "type": "",
    "ownership": "",
    "emergency": "",
    "quality": "",
    "LAT": 48.1984496,
    "LON": 15.7585322
  },
  "503": {
    "id": 10503,
    "name": "Rotes Kreuz St. Michael",
    "address": "Rot-Kreuz-Gasse 392",
    "city": "Sankt Michael im Lungau",
    "state": "Salzburg",
    "zip": 5582,
    "county": "",
    "phone": "",
    "type": "",
    "ownership": "",
    "emergency": "",
    "quality": "",
    "LAT": 47.0995869,
    "LON": 13.6372438
  },
  "504": {
    "id": 10504,
    "name": "Röntgenordination Gänserndorf",
    "address": "Scheunengasse 34",
    "city": "Gänserndorf",
    "state": "Niederösterreich",
    "zip": 2230,
    "county": "",
    "phone": "",
    "type": "",
    "ownership": "",
    "emergency": "",
    "quality": "",
    "LAT": 48.3404962,
    "LON": 16.7151836
  },
  "505": {
    "id": 10505,
    "name": "Therapiezentrum für Ganzheitsmedizin",
    "address": "Kalksburg-Kirchenplatz 3",
    "city": "Wien",
    "state": "Wien",
    "zip": 1230,
    "county": "",
    "phone": "",
    "type": "",
    "ownership": "",
    "emergency": "",
    "quality": "",
    "LAT": 48.1382263,
    "LON": 16.2443948
  },
  "506": {
    "id": 10506,
    "name": "Udo Zifko",
    "address": "nan 52",
    "city": "Reichenau an der Rax",
    "state": "Niederösterreich",
    "zip": 2651,
    "county": "",
    "phone": "",
    "type": "",
    "ownership": "",
    "emergency": "",
    "quality": "",
    "LAT": 47.6758072,
    "LON": 15.7271017
  },
  "507": {
    "id": 10507,
    "name": "Univ. Doz. Dr. Alexander Kober",
    "address": "Markt 35",
    "city": "Sankt Aegyd am Neuwalde",
    "state": "Niederösterreich",
    "zip": 3193,
    "county": "",
    "phone": "",
    "type": "",
    "ownership": "",
    "emergency": "",
    "quality": "",
    "LAT": 47.8513281,
    "LON": 15.5604574
  },
  "508": {
    "id": 10508,
    "name": "Urologe Dr. Szlauer",
    "address": "Bahnhofstraße 12",
    "city": "Neumarkt am Wallersee",
    "state": "Salzburg",
    "zip": 5202,
    "county": "",
    "phone": "",
    "type": "",
    "ownership": "",
    "emergency": "",
    "quality": "",
    "LAT": 47.9493322,
    "LON": 13.2233932
  },
  "509": {
    "id": 10509,
    "name": "Vitalogikum",
    "address": "Saaßstraße 66",
    "city": "Aschach an der Steyr",
    "state": "Oberösterreich",
    "zip": 4421,
    "county": "",
    "phone": "",
    "type": "",
    "ownership": "",
    "emergency": "",
    "quality": "",
    "LAT": 48.022846,
    "LON": 14.363739
  },
  "510": {
    "id": 10510,
    "name": "privat MRT Neusiedl/See",
    "address": "Teichgasse 1b",
    "city": "Neusiedl am See",
    "state": "Burgenland",
    "zip": 7100,
    "county": "",
    "phone": "+43 2167 / 2609",
    "type": "",
    "ownership": "",
    "emergency": "",
    "quality": "",
    "LAT": 47.9512026,
    "LON": 16.8362548
  },
  "511": {
    "id": 10511,
    "name": "Ärzteforum Hallein",
    "address": "",
    "city": "Hallein",
    "state": "Salzburg",
    "zip": 5400,
    "county": "",
    "phone": "",
    "type": "",
    "ownership": "",
    "emergency": "",
    "quality": "",
    "LAT": 47.6826864,
    "LON": 13.1003241
  },
  "512": {
    "id": 10512,
    "name": "Ärztegemeinschaft Jochum - Bereuter (Kinderärzte)",
    "address": "Walserweg 12",
    "city": "Bludenz",
    "state": "Vorarlberg",
    "zip": 6700,
    "county": "",
    "phone": "",
    "type": "",
    "ownership": "",
    "emergency": "",
    "quality": "",
    "LAT": 47.159419,
    "LON": 9.819935
  },
  "513": {
    "id": 10513,
    "name": "Ärztehaus",
    "address": "",
    "city": "Schärding",
    "state": "Oberösterreich",
    "zip": 4780,
    "county": "",
    "phone": "",
    "type": "",
    "ownership": "",
    "emergency": "",
    "quality": "",
    "LAT": 48.4550962,
    "LON": 13.4311922
  },
  "515": {
    "id": 10515,
    "name": "Ärztehaus - Zahnarzt Dr. Tuli - Prakt. Arzt Dr. Bellinghausen - Orthopäde Dr. Fink",
    "address": "",
    "city": "Ostermiething",
    "state": "Oberösterreich",
    "zip": 5121,
    "county": "",
    "phone": "",
    "type": "",
    "ownership": "",
    "emergency": "",
    "quality": "",
    "LAT": 48.0421884,
    "LON": 12.8375543
  },
  "516": {
    "id": 10516,
    "name": "Ärztehaus Lech",
    "address": "",
    "city": "Lech",
    "state": "Vorarlberg",
    "zip": 6764,
    "county": "",
    "phone": "",
    "type": "",
    "ownership": "",
    "emergency": "",
    "quality": "",
    "LAT": 47.2107497,
    "LON": 10.1446139
  },
  "517": {
    "id": 10517,
    "name": "Ärztehaus Leithastraße",
    "address": "",
    "city": "Wien",
    "state": "Wien",
    "zip": 1200,
    "county": "",
    "phone": "",
    "type": "",
    "ownership": "",
    "emergency": "",
    "quality": "",
    "LAT": 48.237936,
    "LON": 16.3776351
  },
  "518": {
    "id": 10518,
    "name": "Ärztehaus Oberndorf",
    "address": "Salzburger Strasse 79",
    "city": "Oberndorf bei Salzburg",
    "state": "Salzburg",
    "zip": 5110,
    "county": "",
    "phone": "",
    "type": "",
    "ownership": "",
    "emergency": "",
    "quality": "",
    "LAT": 47.9445634,
    "LON": 12.9402129
  },
  "522": {
    "id": 10522,
    "name": "Ärztezentrum Bruckneudorf",
    "address": "Josef Schöberlgasse 1a",
    "city": "Bruckneudorf",
    "state": "Burgenland",
    "zip": 2460,
    "county": "",
    "phone": "",
    "type": "",
    "ownership": "",
    "emergency": "",
    "quality": "",
    "LAT": 48.0208139,
    "LON": 16.7814264
  },
  "523": {
    "id": 10523,
    "name": "Ärztezentrum Gloggnitz",
    "address": "Wiener Straße 5",
    "city": "Gloggnitz",
    "state": "Niederösterreich",
    "zip": 2640,
    "county": "",
    "phone": "",
    "type": "",
    "ownership": "",
    "emergency": "",
    "quality": "",
    "LAT": 47.6750214,
    "LON": 15.9409721
  },
  "524": {
    "id": 10524,
    "name": "Ärztezentrum Gumpoldskirchen",
    "address": "Novomaticstraße 14",
    "city": "Gumpoldskirchen",
    "state": "Niederösterreich",
    "zip": 2352,
    "county": "",
    "phone": "",
    "type": "",
    "ownership": "",
    "emergency": "",
    "quality": "",
    "LAT": 48.0354881,
    "LON": 16.2877273
  },
  "525": {
    "id": 10525,
    "name": "Ärztezentrum Ost",
    "address": "Anton-Baumgartner-Straße 44",
    "city": "Wien",
    "state": "Wien",
    "zip": 1230,
    "county": "",
    "phone": "",
    "type": "",
    "ownership": "",
    "emergency": "",
    "quality": "",
    "LAT": 48.15274,
    "LON": 16.3160668
  },
  "526": {
    "id": 10526,
    "name": "ÖGK Gesundheitszentrum",
    "address": "Klara-Pölt-Weg 8",
    "city": "Innsbruck",
    "state": "Tirol",
    "zip": 6020,
    "county": "",
    "phone": "+43 50766 182003;+43 50766 182200",
    "type": "",
    "ownership": "",
    "emergency": "",
    "quality": "",
    "LAT": 47.2686458,
    "LON": 11.401492
  }
}