{
  "0": {
    "id": 10000,
    "name": "Aalborg Universitetshospital",
    "address": "",
    "city": "Aalborg",
    "state": "",
    "zip": 9000,
    "county": "",
    "phone": "",
    "type": "",
    "ownership": "",
    "emergency": "Yes",
    "quality": "",
    "LAT": 57.0360687,
    "LON": 9.9091295
  },
  "1": {
    "id": 10001,
    "name": "Aalborg Universitetshospital Nord",
    "address": "",
    "city": "Aalborg",
    "state": "",
    "zip": 9000,
    "county": "",
    "phone": "",
    "type": "",
    "ownership": "",
    "emergency": "",
    "quality": "",
    "LAT": 57.0490521,
    "LON": 9.9146357
  },
  "2": {
    "id": 10002,
    "name": "Aalborg Universitetshospital Thisted",
    "address": "",
    "city": "Thisted",
    "state": "",
    "zip": 7700,
    "county": "",
    "phone": "",
    "type": "",
    "ownership": "",
    "emergency": "",
    "quality": "",
    "LAT": 56.9566536,
    "LON": 8.6952335
  },
  "3": {
    "id": 10003,
    "name": "Aalborg Universitetshospital, Farsø",
    "address": "",
    "city": "Farsø",
    "state": "",
    "zip": 9640,
    "county": "",
    "phone": "",
    "type": "",
    "ownership": "",
    "emergency": "Yes",
    "quality": "",
    "LAT": 56.7772698,
    "LON": 9.3350686
  },
  "4": {
    "id": 10004,
    "name": "Aalborg Universitetshospital, Hobro",
    "address": "",
    "city": "Hobro",
    "state": "",
    "zip": 9500,
    "county": "",
    "phone": 4597652000,
    "type": "",
    "ownership": "",
    "emergency": "Yes",
    "quality": "",
    "LAT": 56.633789,
    "LON": 9.7963359
  },
  "5": {
    "id": 10005,
    "name": "Aalborg Universitetshospital, Psykiatrien",
    "address": "",
    "city": "Aalborg",
    "state": "",
    "zip": 9000,
    "county": "",
    "phone": "",
    "type": "",
    "ownership": "",
    "emergency": "No",
    "quality": "",
    "LAT": 57.0255492,
    "LON": 9.9775413
  },
  "6": {
    "id": 10006,
    "name": "Aarhus Universitetshospital",
    "address": "",
    "city": "Aarhus",
    "state": "",
    "zip": 8000,
    "county": "",
    "phone": "",
    "type": "",
    "ownership": "",
    "emergency": "Yes",
    "quality": "",
    "LAT": 56.1859328,
    "LON": 10.1703464
  },
  "7": {
    "id": 10007,
    "name": "Amager Hospital - Hans Bogbinders Allé",
    "address": "",
    "city": "",
    "state": "",
    "zip": "",
    "county": "",
    "phone": "",
    "type": "",
    "ownership": "",
    "emergency": "",
    "quality": "",
    "LAT": 55.6541722,
    "LON": 12.6071067
  },
  "8": {
    "id": 10008,
    "name": "Amager Hospital - Italiensvej",
    "address": "",
    "city": "",
    "state": "",
    "zip": "",
    "county": "",
    "phone": "",
    "type": "",
    "ownership": "",
    "emergency": "No",
    "quality": "",
    "LAT": 55.6542578,
    "LON": 12.6189881
  },
  "9": {
    "id": 10009,
    "name": "Amtssygehuset Fjorden",
    "address": "",
    "city": "",
    "state": "",
    "zip": "",
    "county": "",
    "phone": "",
    "type": "",
    "ownership": "",
    "emergency": "",
    "quality": "",
    "LAT": 55.6513281,
    "LON": 12.069753
  },
  "10": {
    "id": 10010,
    "name": "Arresødal Hospice",
    "address": "",
    "city": "",
    "state": "",
    "zip": "",
    "county": "",
    "phone": "",
    "type": "",
    "ownership": "",
    "emergency": "",
    "quality": "",
    "LAT": 55.9768259,
    "LON": 12.0311619
  },
  "11": {
    "id": 10011,
    "name": "Bispebjerg Hospital",
    "address": "",
    "city": "",
    "state": "",
    "zip": "",
    "county": "",
    "phone": "",
    "type": "",
    "ownership": "",
    "emergency": "Yes",
    "quality": "",
    "LAT": 55.7153074,
    "LON": 12.5369548
  },
  "12": {
    "id": 10012,
    "name": "Bornholms Hospital",
    "address": "",
    "city": "",
    "state": "",
    "zip": 3700,
    "county": "",
    "phone": "",
    "type": "",
    "ownership": "",
    "emergency": "Yes",
    "quality": "",
    "LAT": 55.0896987,
    "LON": 14.7077031
  },
  "13": {
    "id": 10013,
    "name": "Diakonisse-stiftelsen",
    "address": "",
    "city": "",
    "state": "",
    "zip": "",
    "county": "",
    "phone": "",
    "type": "",
    "ownership": "",
    "emergency": "",
    "quality": "",
    "LAT": 55.6792541,
    "LON": 12.5211849
  },
  "14": {
    "id": 10014,
    "name": "Frederiksberg Hospital",
    "address": "",
    "city": "",
    "state": "",
    "zip": "",
    "county": "",
    "phone": "",
    "type": "",
    "ownership": "",
    "emergency": "Yes",
    "quality": "",
    "LAT": 55.6884734,
    "LON": 12.5243674
  },
  "15": {
    "id": 10015,
    "name": "Gentofte Hospital",
    "address": "",
    "city": "",
    "state": "",
    "zip": "",
    "county": "",
    "phone": "",
    "type": "",
    "ownership": "",
    "emergency": "Yes",
    "quality": "",
    "LAT": 55.7379509,
    "LON": 12.5444273
  },
  "16": {
    "id": 10016,
    "name": "Grenaa Sundhedshus",
    "address": "",
    "city": "Grenaa",
    "state": "",
    "zip": 8500,
    "county": "",
    "phone": "",
    "type": "",
    "ownership": "",
    "emergency": "",
    "quality": "",
    "LAT": 56.4175999,
    "LON": 10.8652361
  },
  "17": {
    "id": 10017,
    "name": "Herlev Hospital",
    "address": "",
    "city": "",
    "state": "",
    "zip": "",
    "county": "",
    "phone": "",
    "type": "",
    "ownership": "",
    "emergency": "Yes",
    "quality": "",
    "LAT": 55.7339037,
    "LON": 12.4396485
  },
  "18": {
    "id": 10018,
    "name": "Herning Centralsygehus",
    "address": "",
    "city": "Herning",
    "state": "",
    "zip": 7400,
    "county": "",
    "phone": "",
    "type": "",
    "ownership": "",
    "emergency": "Yes",
    "quality": "",
    "LAT": 56.1412346,
    "LON": 8.9723046
  },
  "19": {
    "id": 10019,
    "name": "Hospice Limfjord",
    "address": "",
    "city": "Skive",
    "state": "",
    "zip": 7800,
    "county": "",
    "phone": "+45 96148700",
    "type": "",
    "ownership": "",
    "emergency": "",
    "quality": "",
    "LAT": 56.5731485,
    "LON": 9.0279286
  },
  "20": {
    "id": 10020,
    "name": "Hospice Sjælland",
    "address": "",
    "city": "",
    "state": "",
    "zip": "",
    "county": "",
    "phone": "",
    "type": "",
    "ownership": "",
    "emergency": "",
    "quality": "",
    "LAT": 55.6608189,
    "LON": 12.1314631
  },
  "21": {
    "id": 10021,
    "name": "Hospice Søndergård",
    "address": "",
    "city": "",
    "state": "",
    "zip": "",
    "county": "",
    "phone": "",
    "type": "",
    "ownership": "",
    "emergency": "No",
    "quality": "",
    "LAT": 55.7438115,
    "LON": 12.3223073
  },
  "22": {
    "id": 10022,
    "name": "Hospice Sønderjylland",
    "address": "",
    "city": "Haderslev",
    "state": "",
    "zip": 6100,
    "county": "",
    "phone": "",
    "type": "",
    "ownership": "",
    "emergency": "",
    "quality": "",
    "LAT": 55.2460761,
    "LON": 9.4450703
  },
  "23": {
    "id": 10023,
    "name": "Hvidovre Hospital",
    "address": "",
    "city": "",
    "state": "",
    "zip": "",
    "county": "",
    "phone": "",
    "type": "",
    "ownership": "",
    "emergency": "",
    "quality": "",
    "LAT": 55.6467807,
    "LON": 12.4625794
  },
  "24": {
    "id": 10024,
    "name": "Mølholm",
    "address": "",
    "city": "Aarhus",
    "state": "",
    "zip": 8270,
    "county": "",
    "phone": "",
    "type": "",
    "ownership": "",
    "emergency": "",
    "quality": "",
    "LAT": 56.118012,
    "LON": 10.1906436
  },
  "25": {
    "id": 10025,
    "name": "Nordsjællands Hospital – Frederikssund",
    "address": "",
    "city": "",
    "state": "",
    "zip": "",
    "county": "",
    "phone": "",
    "type": "",
    "ownership": "",
    "emergency": "Yes",
    "quality": "",
    "LAT": 55.8469813,
    "LON": 12.0827222
  },
  "26": {
    "id": 10026,
    "name": "Nordsjællands Hospital – Hillerød",
    "address": "",
    "city": "",
    "state": "",
    "zip": "",
    "county": "",
    "phone": "",
    "type": "",
    "ownership": "",
    "emergency": "Yes",
    "quality": "",
    "LAT": 55.9311993,
    "LON": 12.3230106
  },
  "27": {
    "id": 10027,
    "name": "Næstved Sygehus",
    "address": "",
    "city": "",
    "state": "",
    "zip": "",
    "county": "",
    "phone": "",
    "type": "",
    "ownership": "",
    "emergency": "",
    "quality": "",
    "LAT": 55.2398539,
    "LON": 11.7602795
  },
  "28": {
    "id": 10028,
    "name": "OUH Svendborg Sygehus",
    "address": "",
    "city": "",
    "state": "",
    "zip": "",
    "county": "",
    "phone": "",
    "type": "",
    "ownership": "",
    "emergency": "",
    "quality": "",
    "LAT": 55.0562255,
    "LON": 10.6085358
  },
  "29": {
    "id": 10029,
    "name": "Odense Universitetshospital",
    "address": "",
    "city": "",
    "state": "",
    "zip": "",
    "county": "",
    "phone": "",
    "type": "",
    "ownership": "",
    "emergency": "Yes",
    "quality": "",
    "LAT": 55.3891189,
    "LON": 10.3622345
  },
  "30": {
    "id": 10030,
    "name": "Patienthotellet",
    "address": "",
    "city": "Viborg",
    "state": "",
    "zip": 8800,
    "county": "",
    "phone": "",
    "type": "",
    "ownership": "",
    "emergency": "",
    "quality": "",
    "LAT": 56.4448854,
    "LON": 9.4058323
  },
  "31": {
    "id": 10031,
    "name": "Privathospitalet Mølholm",
    "address": "",
    "city": "Vejle",
    "state": "",
    "zip": 7100,
    "county": "",
    "phone": "",
    "type": "",
    "ownership": "",
    "emergency": "",
    "quality": "",
    "LAT": 55.6988877,
    "LON": 9.5370458
  },
  "32": {
    "id": 10032,
    "name": "Psykiatri Hospitalet Nykøbing Sjælland",
    "address": "",
    "city": "",
    "state": "",
    "zip": "",
    "county": "",
    "phone": "",
    "type": "",
    "ownership": "",
    "emergency": "",
    "quality": "",
    "LAT": 55.9087252,
    "LON": 11.6592871
  },
  "33": {
    "id": 10033,
    "name": "Psykiatricenter Vest, Esbjerg",
    "address": "",
    "city": "Gjesing",
    "state": "",
    "zip": 6715,
    "county": "",
    "phone": "",
    "type": "",
    "ownership": "",
    "emergency": "",
    "quality": "",
    "LAT": 55.4941919,
    "LON": 8.4406232
  },
  "34": {
    "id": 10034,
    "name": "Psykiatrisk Center Ballerup",
    "address": "",
    "city": "",
    "state": "",
    "zip": "",
    "county": "",
    "phone": "",
    "type": "",
    "ownership": "",
    "emergency": "",
    "quality": "",
    "LAT": 55.7234806,
    "LON": 12.3564078
  },
  "35": {
    "id": 10035,
    "name": "Psykiatrisk Center Glostrup (afdeling Hvidovre)",
    "address": "",
    "city": "",
    "state": "",
    "zip": "",
    "county": "",
    "phone": "",
    "type": "",
    "ownership": "",
    "emergency": "Yes",
    "quality": "",
    "LAT": 55.6504542,
    "LON": 12.4441544
  },
  "36": {
    "id": 10036,
    "name": "Psykiatrisk Center Nordsjælland - Afdeling Hillerød",
    "address": "",
    "city": "",
    "state": "",
    "zip": "",
    "county": "",
    "phone": "",
    "type": "",
    "ownership": "",
    "emergency": "",
    "quality": "",
    "LAT": 55.9310123,
    "LON": 12.3243049
  },
  "37": {
    "id": 10037,
    "name": "Psykiatrisk Center Sct. Hans",
    "address": "",
    "city": "",
    "state": "",
    "zip": "",
    "county": "",
    "phone": "",
    "type": "",
    "ownership": "",
    "emergency": "",
    "quality": "",
    "LAT": 55.6523149,
    "LON": 12.0660418
  },
  "38": {
    "id": 10038,
    "name": "Regionshospital Nordjylland",
    "address": "",
    "city": "Hjørring",
    "state": "",
    "zip": 9800,
    "county": "",
    "phone": "",
    "type": "",
    "ownership": "",
    "emergency": "",
    "quality": "",
    "LAT": 57.4530766,
    "LON": 9.9958883
  },
  "39": {
    "id": 10039,
    "name": "Regionshospitalet Holstebro",
    "address": "",
    "city": "Holstebro",
    "state": "",
    "zip": 7500,
    "county": "",
    "phone": "",
    "type": "",
    "ownership": "",
    "emergency": "Yes",
    "quality": "",
    "LAT": 56.3625856,
    "LON": 8.6284558
  },
  "40": {
    "id": 10040,
    "name": "Regionshospitalet Horsens",
    "address": "",
    "city": "Horsens",
    "state": "",
    "zip": 8700,
    "county": "",
    "phone": "",
    "type": "",
    "ownership": "",
    "emergency": "Yes",
    "quality": "",
    "LAT": 55.864291,
    "LON": 9.8713133
  },
  "41": {
    "id": 10041,
    "name": "Regionshospitalet Randers",
    "address": "",
    "city": "Randers NØ",
    "state": "",
    "zip": 8930,
    "county": "",
    "phone": "",
    "type": "",
    "ownership": "",
    "emergency": "Yes",
    "quality": "",
    "LAT": 56.4694205,
    "LON": 10.0462763
  },
  "42": {
    "id": 10042,
    "name": "Regionshospitalet Silkeborg",
    "address": "",
    "city": "Silkeborg",
    "state": "",
    "zip": 8600,
    "county": "",
    "phone": "",
    "type": "",
    "ownership": "",
    "emergency": "Yes",
    "quality": "",
    "LAT": 56.1710665,
    "LON": 9.5580562
  },
  "43": {
    "id": 10043,
    "name": "Rehabiliteringscentret Hedebo",
    "address": "",
    "city": "",
    "state": "",
    "zip": "",
    "county": "",
    "phone": "",
    "type": "",
    "ownership": "",
    "emergency": "",
    "quality": "",
    "LAT": 55.5938427,
    "LON": 12.2485936
  },
  "44": {
    "id": 10044,
    "name": "Rigshospitalet",
    "address": "",
    "city": "",
    "state": "",
    "zip": "",
    "county": "",
    "phone": "",
    "type": "",
    "ownership": "",
    "emergency": "Yes",
    "quality": "",
    "LAT": 55.6995964,
    "LON": 12.5646201
  },
  "45": {
    "id": 10045,
    "name": "Ringsted Sygehus",
    "address": "",
    "city": "",
    "state": "",
    "zip": "",
    "county": "",
    "phone": "",
    "type": "",
    "ownership": "",
    "emergency": "",
    "quality": "",
    "LAT": 55.4504763,
    "LON": 11.789647
  },
  "46": {
    "id": 10046,
    "name": "Roskilde Sygehus",
    "address": "",
    "city": "",
    "state": "",
    "zip": "",
    "county": "",
    "phone": "",
    "type": "",
    "ownership": "",
    "emergency": "Yes",
    "quality": "",
    "LAT": 55.6358365,
    "LON": 12.09477
  },
  "47": {
    "id": 10047,
    "name": "Samsø Sundheds- og Akuthus",
    "address": "",
    "city": "",
    "state": "",
    "zip": 8305,
    "county": "",
    "phone": "",
    "type": "",
    "ownership": "",
    "emergency": "Yes",
    "quality": "",
    "LAT": 55.8307263,
    "LON": 10.5903912
  },
  "48": {
    "id": 10048,
    "name": "Sclerosehospitalet Haslev",
    "address": "",
    "city": "",
    "state": "",
    "zip": "",
    "county": "",
    "phone": "",
    "type": "",
    "ownership": "",
    "emergency": "",
    "quality": "",
    "LAT": 55.3372384,
    "LON": 11.9448063
  },
  "49": {
    "id": 10049,
    "name": "Sct. Maria Hospice Center",
    "address": "",
    "city": "Bredballe",
    "state": "",
    "zip": 7120,
    "county": "",
    "phone": "",
    "type": "",
    "ownership": "",
    "emergency": "",
    "quality": "",
    "LAT": 55.7257344,
    "LON": 9.595887
  },
  "50": {
    "id": 10050,
    "name": "Sengeafsnit N7, Frederikshavn",
    "address": "",
    "city": "Frederikshavn",
    "state": "",
    "zip": 9900,
    "county": "",
    "phone": "",
    "type": "",
    "ownership": "",
    "emergency": "",
    "quality": "",
    "LAT": 57.4454501,
    "LON": 10.5343081
  },
  "51": {
    "id": 10051,
    "name": "Skanderborg Sundhedscenter",
    "address": "",
    "city": "Skanderborg",
    "state": "",
    "zip": 8660,
    "county": "",
    "phone": "",
    "type": "",
    "ownership": "",
    "emergency": "",
    "quality": "",
    "LAT": 56.0339807,
    "LON": 9.9282981
  },
  "52": {
    "id": 10052,
    "name": "Skørping Privat Hospital",
    "address": "",
    "city": "",
    "state": "",
    "zip": "",
    "county": "",
    "phone": "",
    "type": "",
    "ownership": "",
    "emergency": "",
    "quality": "",
    "LAT": 56.8360904,
    "LON": 9.8751178
  },
  "53": {
    "id": 10053,
    "name": "Steno Diabetes Center Copenhagen",
    "address": "",
    "city": "",
    "state": "",
    "zip": "",
    "county": "",
    "phone": "",
    "type": "",
    "ownership": "",
    "emergency": "",
    "quality": "",
    "LAT": 55.7554454,
    "LON": 12.5236738
  },
  "54": {
    "id": 10054,
    "name": "Støttecenter Saxenhøj",
    "address": "",
    "city": "",
    "state": "",
    "zip": "",
    "county": "",
    "phone": "",
    "type": "",
    "ownership": "",
    "emergency": "",
    "quality": "",
    "LAT": 54.8001079,
    "LON": 11.6213601
  },
  "56": {
    "id": 10056,
    "name": "Sundhedsområdet Klostergården",
    "address": "",
    "city": "Kolding",
    "state": "",
    "zip": 6000,
    "county": "",
    "phone": "",
    "type": "",
    "ownership": "",
    "emergency": "",
    "quality": "",
    "LAT": 55.500752,
    "LON": 9.4821491
  },
  "57": {
    "id": 10057,
    "name": "Sydvestjydsk Sygehus, Esbjerg",
    "address": "",
    "city": "Esbjerg",
    "state": "",
    "zip": 6700,
    "county": "",
    "phone": "",
    "type": "",
    "ownership": "",
    "emergency": "Yes",
    "quality": "",
    "LAT": 55.4734797,
    "LON": 8.455534
  },
  "58": {
    "id": 10058,
    "name": "Århus Universitetshospital Risskov",
    "address": "",
    "city": "Aarhus",
    "state": "",
    "zip": 8240,
    "county": "",
    "phone": "",
    "type": "",
    "ownership": "",
    "emergency": "",
    "quality": "",
    "LAT": 56.1839778,
    "LON": 10.2359368
  },
  "59": {
    "id": 10059,
    "name": "Århus Universitetshospital Århus Sygehus",
    "address": "",
    "city": "Aarhus C",
    "state": "",
    "zip": 8000,
    "county": "",
    "phone": "",
    "type": "",
    "ownership": "",
    "emergency": "",
    "quality": "",
    "LAT": 56.1416224,
    "LON": 10.1904339
  },
  "60": {
    "id": 10060,
    "name": "Ærø Sygehus",
    "address": "",
    "city": "",
    "state": "",
    "zip": 5970,
    "county": "",
    "phone": "",
    "type": "",
    "ownership": "",
    "emergency": "Yes",
    "quality": "",
    "LAT": 54.8924021,
    "LON": 10.4062921
  },
  "61": {
    "id": 10061,
    "name": "Aarup Lægerne",
    "address": "",
    "city": "",
    "state": "",
    "zip": "",
    "county": "",
    "phone": "+45 64 43 10 24",
    "type": "",
    "ownership": "",
    "emergency": "",
    "quality": "",
    "LAT": 55.374079,
    "LON": 10.052747
  },
  "62": {
    "id": 10062,
    "name": "Behandlerhuset Dokken",
    "address": "",
    "city": "",
    "state": "",
    "zip": 7700,
    "county": "",
    "phone": "",
    "type": "",
    "ownership": "",
    "emergency": "",
    "quality": "",
    "LAT": 56.9519464,
    "LON": 8.694626
  },
  "63": {
    "id": 10063,
    "name": "FamilieLægerne Espergærde",
    "address": "",
    "city": "",
    "state": "",
    "zip": "",
    "county": "",
    "phone": "+45 4848 0260",
    "type": "",
    "ownership": "",
    "emergency": "",
    "quality": "",
    "LAT": 55.9948559,
    "LON": 12.5066659
  },
  "64": {
    "id": 10064,
    "name": "Gigtsanatoriet",
    "address": "",
    "city": "",
    "state": "",
    "zip": "",
    "county": "",
    "phone": "",
    "type": "",
    "ownership": "",
    "emergency": "",
    "quality": "",
    "LAT": 55.2604126,
    "LON": 11.282825
  },
  "65": {
    "id": 10065,
    "name": "Glumsø lægehus",
    "address": "",
    "city": "",
    "state": "",
    "zip": "",
    "county": "",
    "phone": "",
    "type": "",
    "ownership": "",
    "emergency": "",
    "quality": "",
    "LAT": 55.3544847,
    "LON": 11.6907088
  },
  "67": {
    "id": 10067,
    "name": "Karise Lægerne",
    "address": "",
    "city": "",
    "state": "",
    "zip": "",
    "county": "",
    "phone": "",
    "type": "",
    "ownership": "",
    "emergency": "",
    "quality": "",
    "LAT": 55.3055826,
    "LON": 12.2078561
  },
  "68": {
    "id": 10068,
    "name": "Læge Philipp Harbig",
    "address": "",
    "city": "Aarhus",
    "state": "",
    "zip": 8200,
    "county": "",
    "phone": "",
    "type": "",
    "ownership": "",
    "emergency": "",
    "quality": "",
    "LAT": 56.1808798,
    "LON": 10.202239
  },
  "69": {
    "id": 10069,
    "name": "Læge Preben Dissing",
    "address": "",
    "city": "Grenaa",
    "state": "",
    "zip": 8500,
    "county": "",
    "phone": "",
    "type": "",
    "ownership": "",
    "emergency": "",
    "quality": "",
    "LAT": 56.4156866,
    "LON": 10.8746022
  },
  "70": {
    "id": 10070,
    "name": "Lægehus",
    "address": "",
    "city": "",
    "state": "",
    "zip": "",
    "county": "",
    "phone": "",
    "type": "",
    "ownership": "",
    "emergency": "",
    "quality": "",
    "LAT": 54.9992243,
    "LON": 12.0852978
  },
  "72": {
    "id": 10072,
    "name": "Lægehus Midtbyen",
    "address": "",
    "city": "Kolding",
    "state": "",
    "zip": 6000,
    "county": "",
    "phone": "",
    "type": "",
    "ownership": "",
    "emergency": "",
    "quality": "",
    "LAT": 55.492708,
    "LON": 9.482462
  },
  "73": {
    "id": 10073,
    "name": "Lægehuset",
    "address": "",
    "city": "",
    "state": "",
    "zip": "",
    "county": "",
    "phone": "+45 59 25 66 00",
    "type": "",
    "ownership": "",
    "emergency": "",
    "quality": "",
    "LAT": 55.6587625,
    "LON": 11.3971345
  },
  "79": {
    "id": 10079,
    "name": "Lægehuset Korupcentret",
    "address": "",
    "city": "",
    "state": "",
    "zip": "",
    "county": "",
    "phone": "",
    "type": "",
    "ownership": "",
    "emergency": "",
    "quality": "",
    "LAT": 55.4194113,
    "LON": 10.2735441
  },
  "80": {
    "id": 10080,
    "name": "Lægehuset Lundby-Præstø",
    "address": "",
    "city": "",
    "state": "",
    "zip": "",
    "county": "",
    "phone": "",
    "type": "",
    "ownership": "",
    "emergency": "No",
    "quality": "",
    "LAT": 55.1091284,
    "LON": 11.8714933
  },
  "81": {
    "id": 10081,
    "name": "Lægehuset Regstrup",
    "address": "",
    "city": "",
    "state": "",
    "zip": "",
    "county": "",
    "phone": "+45 59471885",
    "type": "",
    "ownership": "",
    "emergency": "",
    "quality": "",
    "LAT": 55.6634682,
    "LON": 11.6200777
  },
  "82": {
    "id": 10082,
    "name": "Lægehuset Ryomgård",
    "address": "",
    "city": "Ryomgård",
    "state": "",
    "zip": 8550,
    "county": "",
    "phone": "",
    "type": "",
    "ownership": "",
    "emergency": "",
    "quality": "",
    "LAT": 56.3803828,
    "LON": 10.5017137
  },
  "83": {
    "id": 10083,
    "name": "Lægehuset Sct. Anne",
    "address": "",
    "city": "",
    "state": "",
    "zip": "",
    "county": "",
    "phone": "",
    "type": "",
    "ownership": "",
    "emergency": "No",
    "quality": "",
    "LAT": 55.3934655,
    "LON": 10.3850639
  },
  "84": {
    "id": 10084,
    "name": "Lægehuset i Hedensted",
    "address": "",
    "city": "",
    "state": "",
    "zip": 8722,
    "county": "",
    "phone": "",
    "type": "",
    "ownership": "",
    "emergency": "",
    "quality": "",
    "LAT": 55.7796084,
    "LON": 9.6898529
  },
  "85": {
    "id": 10085,
    "name": "Lægehuset i Smørum",
    "address": "",
    "city": "",
    "state": "",
    "zip": "",
    "county": "",
    "phone": "",
    "type": "",
    "ownership": "",
    "emergency": "",
    "quality": "",
    "LAT": 55.733253,
    "LON": 12.3037183
  },
  "86": {
    "id": 10086,
    "name": "Lægehuset Østergade",
    "address": "",
    "city": "Esbjerg",
    "state": "",
    "zip": 6700,
    "county": "",
    "phone": "+45 82131400",
    "type": "",
    "ownership": "",
    "emergency": "",
    "quality": "",
    "LAT": 55.4685688,
    "LON": 8.4568152
  },
  "87": {
    "id": 10087,
    "name": "Lægeklinikken  Saad Whaeb",
    "address": "",
    "city": "Esbjerg",
    "state": "",
    "zip": 6700,
    "county": "",
    "phone": "+45 75126511",
    "type": "",
    "ownership": "",
    "emergency": "",
    "quality": "",
    "LAT": 55.4646832,
    "LON": 8.4504226
  },
  "88": {
    "id": 10088,
    "name": "Lægeklinikken Sulsted",
    "address": "",
    "city": "Aalborg",
    "state": "",
    "zip": 9381,
    "county": "",
    "phone": "",
    "type": "",
    "ownership": "",
    "emergency": "",
    "quality": "",
    "LAT": 57.1559609,
    "LON": 9.964837
  },
  "89": {
    "id": 10089,
    "name": "Lægerne Hoeg, Lind og Østergaard-Nielsen",
    "address": "",
    "city": "Gram",
    "state": "",
    "zip": 6510,
    "county": "",
    "phone": "",
    "type": "",
    "ownership": "",
    "emergency": "",
    "quality": "",
    "LAT": 55.2893025,
    "LON": 9.0566504
  },
  "90": {
    "id": 10090,
    "name": "Lægerne Idriss Kise",
    "address": "",
    "city": "Sorring",
    "state": "",
    "zip": 8641,
    "county": "",
    "phone": "",
    "type": "",
    "ownership": "",
    "emergency": "",
    "quality": "",
    "LAT": 56.1763844,
    "LON": 9.7795586
  },
  "91": {
    "id": 10091,
    "name": "Lægerne Kongelundsvej 290",
    "address": "",
    "city": "",
    "state": "",
    "zip": "",
    "county": "",
    "phone": "",
    "type": "",
    "ownership": "",
    "emergency": "",
    "quality": "",
    "LAT": 55.6168139,
    "LON": 12.5853842
  },
  "92": {
    "id": 10092,
    "name": "Lægerne Kongelundsvej 434",
    "address": "",
    "city": "",
    "state": "",
    "zip": "",
    "county": "",
    "phone": "",
    "type": "",
    "ownership": "",
    "emergency": "",
    "quality": "",
    "LAT": 55.6036695,
    "LON": 12.5831598
  },
  "93": {
    "id": 10093,
    "name": "Lægerne Nygårdsvej",
    "address": "",
    "city": "Esbjerg",
    "state": "",
    "zip": 6700,
    "county": "",
    "phone": "",
    "type": "",
    "ownership": "",
    "emergency": "",
    "quality": "",
    "LAT": 55.4712231,
    "LON": 8.4446417
  },
  "94": {
    "id": 10094,
    "name": "Lægerne Skovbrynet",
    "address": "",
    "city": "Skagen",
    "state": "",
    "zip": 9990,
    "county": "",
    "phone": "",
    "type": "",
    "ownership": "",
    "emergency": "",
    "quality": "",
    "LAT": 57.720126,
    "LON": 10.5756157
  },
  "95": {
    "id": 10095,
    "name": "Lægerne i Brande",
    "address": "",
    "city": "Brande",
    "state": "",
    "zip": 7330,
    "county": "",
    "phone": "",
    "type": "",
    "ownership": "",
    "emergency": "",
    "quality": "",
    "LAT": 55.9402111,
    "LON": 9.1240316
  },
  "96": {
    "id": 10096,
    "name": "Lægerne i Gørding",
    "address": "",
    "city": "Gørding",
    "state": "",
    "zip": 6690,
    "county": "",
    "phone": "",
    "type": "",
    "ownership": "",
    "emergency": "",
    "quality": "",
    "LAT": 55.4691084,
    "LON": 8.8041742
  },
  "97": {
    "id": 10097,
    "name": "Lægerne i Hirtshals",
    "address": "",
    "city": "Hirtshals",
    "state": "",
    "zip": 9850,
    "county": "",
    "phone": 4598941177,
    "type": "",
    "ownership": "",
    "emergency": "",
    "quality": "",
    "LAT": 57.586726,
    "LON": 9.9732903
  },
  "98": {
    "id": 10098,
    "name": "Lægerne i Nibe",
    "address": "",
    "city": "Aalborg",
    "state": "",
    "zip": 9240,
    "county": "",
    "phone": "",
    "type": "",
    "ownership": "",
    "emergency": "",
    "quality": "",
    "LAT": 56.9839492,
    "LON": 9.6325306
  },
  "99": {
    "id": 10099,
    "name": "Lægerne i Solbjerg",
    "address": "",
    "city": "Aarhus",
    "state": "",
    "zip": 8355,
    "county": "",
    "phone": 4586927433,
    "type": "",
    "ownership": "",
    "emergency": "defibrillator",
    "quality": "",
    "LAT": 56.0453327,
    "LON": 10.0862651
  },
  "100": {
    "id": 10100,
    "name": "Lægerne i Svenstrup",
    "address": "",
    "city": "Aalborg",
    "state": "",
    "zip": 9230,
    "county": "",
    "phone": "",
    "type": "",
    "ownership": "",
    "emergency": "",
    "quality": "",
    "LAT": 56.9707426,
    "LON": 9.8340273
  },
  "101": {
    "id": 10101,
    "name": "Lægerne i Trige",
    "address": "",
    "city": "Aarhus",
    "state": "",
    "zip": 8380,
    "county": "",
    "phone": "",
    "type": "",
    "ownership": "",
    "emergency": "",
    "quality": "",
    "LAT": 56.2531102,
    "LON": 10.1412348
  },
  "102": {
    "id": 10102,
    "name": "Lægernes Hus",
    "address": "",
    "city": "Gråsten",
    "state": "",
    "zip": 6300,
    "county": "",
    "phone": "",
    "type": "",
    "ownership": "",
    "emergency": "",
    "quality": "",
    "LAT": 54.9111359,
    "LON": 9.5880134
  },
  "103": {
    "id": 10103,
    "name": "Maribo Sundhedscenter",
    "address": "",
    "city": "",
    "state": "",
    "zip": "",
    "county": "",
    "phone": "",
    "type": "",
    "ownership": "",
    "emergency": "",
    "quality": "",
    "LAT": 54.7657236,
    "LON": 11.5131556
  },
  "104": {
    "id": 10104,
    "name": "Næstved Lægecenter",
    "address": "",
    "city": "",
    "state": "",
    "zip": "",
    "county": "",
    "phone": "",
    "type": "",
    "ownership": "",
    "emergency": "",
    "quality": "",
    "LAT": 55.2216968,
    "LON": 11.7577878
  },
  "105": {
    "id": 10105,
    "name": "Skødstrup lægehus",
    "address": "",
    "city": "Aarhus",
    "state": "",
    "zip": 8541,
    "county": "",
    "phone": "",
    "type": "",
    "ownership": "",
    "emergency": "",
    "quality": "",
    "LAT": 56.2627835,
    "LON": 10.3025338
  },
  "106": {
    "id": 10106,
    "name": "Sundhedens Hus",
    "address": "",
    "city": "Aalborg",
    "state": "",
    "zip": 9000,
    "county": "",
    "phone": "",
    "type": "",
    "ownership": "",
    "emergency": "",
    "quality": "",
    "LAT": 57.0436868,
    "LON": 9.925578
  },
  "107": {
    "id": 10107,
    "name": "Sundhedscenter",
    "address": "",
    "city": "",
    "state": "",
    "zip": "",
    "county": "",
    "phone": "",
    "type": "",
    "ownership": "",
    "emergency": "",
    "quality": "",
    "LAT": 55.2561779,
    "LON": 11.3069048
  },
  "108": {
    "id": 10108,
    "name": "Sundhedscenter Haderslev",
    "address": "",
    "city": "Haderslev",
    "state": "",
    "zip": 6100,
    "county": "",
    "phone": "",
    "type": "",
    "ownership": "",
    "emergency": "",
    "quality": "",
    "LAT": 55.2562875,
    "LON": 9.4814372
  },
  "109": {
    "id": 10109,
    "name": "Sundhedscenter Odsherred",
    "address": "",
    "city": "",
    "state": "",
    "zip": "",
    "county": "",
    "phone": "",
    "type": "",
    "ownership": "",
    "emergency": "",
    "quality": "",
    "LAT": 55.9208872,
    "LON": 11.6638506
  },
  "110": {
    "id": 10110,
    "name": "Sundhedshus Hurup",
    "address": "",
    "city": "Hurup",
    "state": "",
    "zip": 7760,
    "county": "",
    "phone": "",
    "type": "",
    "ownership": "",
    "emergency": "",
    "quality": "",
    "LAT": 56.753163,
    "LON": 8.4159337
  },
  "111": {
    "id": 10111,
    "name": "Ulstrup Lægepraksis",
    "address": "",
    "city": "Ulstrup",
    "state": "",
    "zip": 8860,
    "county": "",
    "phone": "",
    "type": "",
    "ownership": "",
    "emergency": "",
    "quality": "",
    "LAT": 56.3926441,
    "LON": 9.7947581
  },
  "112": {
    "id": 10112,
    "name": "Vivild lægehus",
    "address": "",
    "city": "Vivild",
    "state": "",
    "zip": 8961,
    "county": "",
    "phone": "",
    "type": "",
    "ownership": "",
    "emergency": "",
    "quality": "",
    "LAT": 56.4836861,
    "LON": 10.4526116
  }
}