{
  "0": {
    "id": 10000,
    "name": "A.Z. Jan Portaels",
    "address": "Gendarmeriestraat 65",
    "city": "Vilvoorde",
    "state": "Vlaanderen",
    "zip": 1800,
    "county": "",
    "phone": "",
    "type": "",
    "ownership": "",
    "emergency": "Yes",
    "quality": "",
    "LAT": 50.9275154,
    "LON": 4.4190125
  },
  "3": {
    "id": 10003,
    "name": "A.Z. Sint-Lucas campus Sint-Lucas",
    "address": "Groenebriel 1",
    "city": "Gent",
    "state": "Vlaanderen",
    "zip": 9000,
    "county": "",
    "phone": "",
    "type": "",
    "ownership": "",
    "emergency": "Yes",
    "quality": "",
    "LAT": 51.064075,
    "LON": 3.7198579
  },
  "4": {
    "id": 10004,
    "name": "A.Z. Sint-Lucas campus Volkskliniek",
    "address": "Tichelrei 1",
    "city": "Gent",
    "state": "Vlaanderen",
    "zip": 9000,
    "county": "",
    "phone": "",
    "type": "",
    "ownership": "",
    "emergency": "",
    "quality": "",
    "LAT": 51.0606214,
    "LON": 3.7212564
  },
  "5": {
    "id": 10005,
    "name": "ASZ Campus Geraardsbergen",
    "address": "",
    "city": "Geraardsbergen",
    "state": "Vlaanderen",
    "zip": 9500,
    "county": "",
    "phone": "",
    "type": "",
    "ownership": "",
    "emergency": "",
    "quality": "",
    "LAT": 50.7705536,
    "LON": 3.8771583
  },
  "6": {
    "id": 10006,
    "name": "ASZ Wetteren",
    "address": "",
    "city": "Wetteren",
    "state": "Vlaanderen",
    "zip": 9230,
    "county": "",
    "phone": "",
    "type": "",
    "ownership": "",
    "emergency": "Yes",
    "quality": "",
    "LAT": 51.011728,
    "LON": 3.8977137
  },
  "7": {
    "id": 10007,
    "name": "AZ Alma- campus Ringlaan",
    "address": "Ringlaan 15",
    "city": "Eeklo",
    "state": "Vlaanderen",
    "zip": 9900,
    "county": "",
    "phone": "",
    "type": "",
    "ownership": "",
    "emergency": "",
    "quality": "",
    "LAT": 51.1916682,
    "LON": 3.5358218
  },
  "8": {
    "id": 10008,
    "name": "AZ Damiaan",
    "address": "Gouwelozestraat 100",
    "city": "Oostende",
    "state": "Vlaanderen",
    "zip": 8400,
    "county": "",
    "phone": "",
    "type": "",
    "ownership": "",
    "emergency": "",
    "quality": "",
    "LAT": 51.2178487,
    "LON": 2.9352914
  },
  "9": {
    "id": 10009,
    "name": "AZ Delta Menen",
    "address": "",
    "city": "Menen",
    "state": "Vlaanderen",
    "zip": 8930,
    "county": "",
    "phone": "",
    "type": "",
    "ownership": "",
    "emergency": "Yes",
    "quality": "",
    "LAT": 50.7923928,
    "LON": 3.1226568
  },
  "10": {
    "id": 10010,
    "name": "AZ Delta campus Brugsesteenweg",
    "address": "Brugsesteenweg 90",
    "city": "Roeselare",
    "state": "Vlaanderen",
    "zip": 8800,
    "county": "",
    "phone": "+32 51 23 61 11",
    "type": "",
    "ownership": "",
    "emergency": "",
    "quality": "",
    "LAT": 50.9547734,
    "LON": 3.1219107
  },
  "11": {
    "id": 10011,
    "name": "AZ Delta campus Wilgenstraat",
    "address": "Wilgenstraat 2",
    "city": "Roeselare",
    "state": "Vlaanderen",
    "zip": 8800,
    "county": "",
    "phone": "",
    "type": "",
    "ownership": "",
    "emergency": "Yes",
    "quality": "",
    "LAT": 50.9389763,
    "LON": 3.1216664
  },
  "12": {
    "id": 10012,
    "name": "AZ Diest Campus Hasseltsestraat",
    "address": "",
    "city": "Diest",
    "state": "Vlaanderen",
    "zip": 3290,
    "county": "",
    "phone": "",
    "type": "",
    "ownership": "",
    "emergency": "",
    "quality": "",
    "LAT": 50.9804781,
    "LON": 5.0518246
  },
  "13": {
    "id": 10013,
    "name": "AZ Diest Campus Statiestraat",
    "address": "",
    "city": "Diest",
    "state": "Vlaanderen",
    "zip": 3290,
    "county": "",
    "phone": "+32 13 35 40 11",
    "type": "",
    "ownership": "",
    "emergency": "",
    "quality": "",
    "LAT": 50.986332,
    "LON": 5.0516469
  },
  "14": {
    "id": 10014,
    "name": "AZ Glorieux",
    "address": "",
    "city": "Ronse",
    "state": "Vlaanderen",
    "zip": 9600,
    "county": "",
    "phone": "",
    "type": "",
    "ownership": "",
    "emergency": "",
    "quality": "",
    "LAT": 50.7548259,
    "LON": 3.6051066
  },
  "15": {
    "id": 10015,
    "name": "AZ Groeninge - campus Kennedylaan",
    "address": "President Kennedylaan 4",
    "city": "Kortrijk",
    "state": "Vlaanderen",
    "zip": 8500,
    "county": "",
    "phone": "",
    "type": "",
    "ownership": "",
    "emergency": "Yes",
    "quality": "",
    "LAT": 50.8018199,
    "LON": 3.2621457
  },
  "16": {
    "id": 10016,
    "name": "AZ Groeninge - campus Reepkaai",
    "address": "Reepkaai 4",
    "city": "",
    "state": "Vlaanderen",
    "zip": "",
    "county": "",
    "phone": "",
    "type": "",
    "ownership": "",
    "emergency": "No",
    "quality": "",
    "LAT": 50.8298986,
    "LON": 3.2599253
  },
  "17": {
    "id": 10017,
    "name": "AZ Jan Palfijn site Watersportbaan",
    "address": "Henri Dunantlaan 5",
    "city": "Gent",
    "state": "Vlaanderen",
    "zip": 9000,
    "county": "",
    "phone": "",
    "type": "",
    "ownership": "",
    "emergency": "Yes",
    "quality": "",
    "LAT": 51.0478855,
    "LON": 3.7004804
  },
  "18": {
    "id": 10018,
    "name": "AZ Klina",
    "address": "Augustijnslei 100",
    "city": "Brasschaat",
    "state": "Vlaanderen",
    "zip": 2930,
    "county": "",
    "phone": "",
    "type": "",
    "ownership": "",
    "emergency": "",
    "quality": "",
    "LAT": 51.2989382,
    "LON": 4.4888286
  },
  "19": {
    "id": 10019,
    "name": "AZ Maria Middelares",
    "address": "Kortrijksesteenweg 1026",
    "city": "Gent",
    "state": "Vlaanderen",
    "zip": 9051,
    "county": "",
    "phone": "",
    "type": "",
    "ownership": "",
    "emergency": "Yes",
    "quality": "",
    "LAT": 51.0238507,
    "LON": 3.7024463
  },
  "20": {
    "id": 10020,
    "name": "AZ Maria Middelares campus Sint-Jozef",
    "address": "Kliniekstraat 27",
    "city": "Gent",
    "state": "Vlaanderen",
    "zip": 9050,
    "county": "",
    "phone": "+32 9 236 50 00",
    "type": "",
    "ownership": "",
    "emergency": "Yes",
    "quality": "",
    "LAT": 51.0436009,
    "LON": 3.7570078
  },
  "21": {
    "id": 10021,
    "name": "AZ Monica",
    "address": "",
    "city": "Antwerpen",
    "state": "Vlaanderen",
    "zip": 2100,
    "county": "",
    "phone": "",
    "type": "",
    "ownership": "",
    "emergency": "Yes",
    "quality": "",
    "LAT": 51.2073111,
    "LON": 4.4706491
  },
  "22": {
    "id": 10022,
    "name": "AZ Monica Antwerpen",
    "address": "",
    "city": "Antwerpen",
    "state": "Vlaanderen",
    "zip": 2018,
    "county": "",
    "phone": "",
    "type": "",
    "ownership": "",
    "emergency": "",
    "quality": "",
    "LAT": 51.2015676,
    "LON": 4.408578
  },
  "23": {
    "id": 10023,
    "name": "AZ Nikolaas (Meesterstraat)",
    "address": "",
    "city": "Sint-Niklaas",
    "state": "Vlaanderen",
    "zip": 9100,
    "county": "",
    "phone": "",
    "type": "",
    "ownership": "",
    "emergency": "",
    "quality": "",
    "LAT": 51.1631351,
    "LON": 4.1511064
  },
  "24": {
    "id": 10024,
    "name": "AZ Nikolaas (Moerland)",
    "address": "Moerlandstraat 1",
    "city": "Sint-Niklaas",
    "state": "Vlaanderen",
    "zip": 9100,
    "county": "",
    "phone": "",
    "type": "",
    "ownership": "",
    "emergency": "",
    "quality": "",
    "LAT": 51.1609406,
    "LON": 4.1509993
  },
  "25": {
    "id": 10025,
    "name": "AZ Nikolaas Campus Beveren",
    "address": "",
    "city": "Beveren",
    "state": "Vlaanderen",
    "zip": 9120,
    "county": "",
    "phone": "",
    "type": "",
    "ownership": "",
    "emergency": "",
    "quality": "",
    "LAT": 51.2104909,
    "LON": 4.2508722
  },
  "26": {
    "id": 10026,
    "name": "AZ Oudenaarde",
    "address": "Minderbroedersstraat 3",
    "city": "Oudenaarde",
    "state": "Vlaanderen",
    "zip": 9700,
    "county": "",
    "phone": "+32 55 33 61 11",
    "type": "",
    "ownership": "",
    "emergency": "",
    "quality": "",
    "LAT": 50.8430108,
    "LON": 3.601752
  },
  "27": {
    "id": 10027,
    "name": "AZ Sint-Blasius Dagkliniek",
    "address": "Koevliet 6",
    "city": "Zele",
    "state": "Vlaanderen",
    "zip": 9240,
    "county": "",
    "phone": "",
    "type": "",
    "ownership": "",
    "emergency": "No",
    "quality": "",
    "LAT": 51.0665191,
    "LON": 4.0266977
  },
  "28": {
    "id": 10028,
    "name": "AZ Sint-Dimpna",
    "address": "",
    "city": "Geel",
    "state": "Vlaanderen",
    "zip": 2440,
    "county": "",
    "phone": "",
    "type": "",
    "ownership": "",
    "emergency": "",
    "quality": "",
    "LAT": 51.1583474,
    "LON": 5.0015767
  },
  "29": {
    "id": 10029,
    "name": "AZ Sint-Dimpna (enkel personeel)",
    "address": "",
    "city": "Geel",
    "state": "Vlaanderen",
    "zip": 2440,
    "county": "",
    "phone": "",
    "type": "",
    "ownership": "",
    "emergency": "",
    "quality": "",
    "LAT": 51.1583373,
    "LON": 5.0021894
  },
  "30": {
    "id": 10030,
    "name": "AZ Sint-Jan",
    "address": "Ruddershove 10",
    "city": "Brugge",
    "state": "Vlaanderen",
    "zip": 8000,
    "county": "",
    "phone": "",
    "type": "",
    "ownership": "",
    "emergency": "Yes",
    "quality": "",
    "LAT": 51.2213677,
    "LON": 3.1977402
  },
  "31": {
    "id": 10031,
    "name": "AZ Sint-Jan Brugge-Oostende - Campus Hendrik Serruys",
    "address": "Kaïrostraat 84",
    "city": "Oostende",
    "state": "Vlaanderen",
    "zip": 8400,
    "county": "",
    "phone": "",
    "type": "",
    "ownership": "",
    "emergency": "",
    "quality": "",
    "LAT": 51.2239481,
    "LON": 2.9144458
  },
  "32": {
    "id": 10032,
    "name": "AZ Sint-Jozef",
    "address": "",
    "city": "Malle",
    "state": "Vlaanderen",
    "zip": 2390,
    "county": "",
    "phone": "",
    "type": "",
    "ownership": "",
    "emergency": "Yes",
    "quality": "",
    "LAT": 51.2755462,
    "LON": 4.6428568
  },
  "33": {
    "id": 10033,
    "name": "AZ Sint-Lucas",
    "address": "",
    "city": "Brugge",
    "state": "Vlaanderen",
    "zip": 8310,
    "county": "",
    "phone": "+32 50 36 91 11",
    "type": "",
    "ownership": "",
    "emergency": "",
    "quality": "",
    "LAT": 51.1850017,
    "LON": 3.2466793
  },
  "35": {
    "id": 10035,
    "name": "AZ Sint-Maarten",
    "address": "",
    "city": "Mechelen",
    "state": "Vlaanderen",
    "zip": 2800,
    "county": "",
    "phone": "",
    "type": "",
    "ownership": "",
    "emergency": "",
    "quality": "",
    "LAT": 51.0522222,
    "LON": 4.4733557
  },
  "36": {
    "id": 10036,
    "name": "AZ St-Dimpna",
    "address": "",
    "city": "Geel",
    "state": "Vlaanderen",
    "zip": 2440,
    "county": "",
    "phone": "",
    "type": "",
    "ownership": "",
    "emergency": "",
    "quality": "",
    "LAT": 51.1595944,
    "LON": 5.0007994
  },
  "39": {
    "id": 10039,
    "name": "AZ Turnhout Campus Sint Elizabeth",
    "address": "",
    "city": "Turnhout",
    "state": "Vlaanderen",
    "zip": 2300,
    "county": "",
    "phone": "",
    "type": "",
    "ownership": "",
    "emergency": "",
    "quality": "",
    "LAT": 51.3127219,
    "LON": 4.9432027
  },
  "40": {
    "id": 10040,
    "name": "AZ Turnhout Campus Sint Jozef",
    "address": "",
    "city": "Turnhout",
    "state": "Vlaanderen",
    "zip": 2300,
    "county": "",
    "phone": "",
    "type": "",
    "ownership": "",
    "emergency": "",
    "quality": "",
    "LAT": 51.3342037,
    "LON": 4.9185066
  },
  "41": {
    "id": 10041,
    "name": "AZ West",
    "address": "",
    "city": "Veurne",
    "state": "Vlaanderen",
    "zip": 8630,
    "county": "",
    "phone": "",
    "type": "",
    "ownership": "",
    "emergency": "",
    "quality": "",
    "LAT": 51.0613313,
    "LON": 2.6715605
  },
  "42": {
    "id": 10042,
    "name": "AZ Zeno campus Blankenberge",
    "address": "Dr. Frans Verhaegestraat 1",
    "city": "Blankenberge",
    "state": "Vlaanderen",
    "zip": 8370,
    "county": "",
    "phone": "+32 50 43 41 11",
    "type": "",
    "ownership": "",
    "emergency": "Yes",
    "quality": "",
    "LAT": 51.3080095,
    "LON": 3.1251157
  },
  "43": {
    "id": 10043,
    "name": "AZ Zeno campus Knokke-Heist",
    "address": "Kalvekeetdijk 260",
    "city": "Knokke-Heist",
    "state": "Vlaanderen",
    "zip": 8300,
    "county": "",
    "phone": "+32 50 53 50 00",
    "type": "",
    "ownership": "",
    "emergency": "Yes",
    "quality": "",
    "LAT": 51.3250828,
    "LON": 3.2902951
  },
  "44": {
    "id": 10044,
    "name": "AZ-Nikolaas",
    "address": "",
    "city": "Sint-Gillis-Waas",
    "state": "Vlaanderen",
    "zip": 9170,
    "county": "",
    "phone": "",
    "type": "",
    "ownership": "",
    "emergency": "",
    "quality": "",
    "LAT": 51.223704,
    "LON": 4.1245789
  },
  "45": {
    "id": 10045,
    "name": "Algemeen Stedelijk Ziekenhuis Aalst",
    "address": "",
    "city": "Aalst",
    "state": "Vlaanderen",
    "zip": 9300,
    "county": "",
    "phone": "",
    "type": "",
    "ownership": "",
    "emergency": "Yes",
    "quality": "",
    "LAT": 50.9363633,
    "LON": 4.0161419
  },
  "46": {
    "id": 10046,
    "name": "Algemeen Ziekenhuis Sint-Blasius",
    "address": "",
    "city": "Dendermonde",
    "state": "Vlaanderen",
    "zip": 9200,
    "county": "",
    "phone": "",
    "type": "",
    "ownership": "",
    "emergency": "",
    "quality": "",
    "LAT": 51.0262041,
    "LON": 4.1133228
  },
  "47": {
    "id": 10047,
    "name": "Asster Psychiatrisch Ziekenhuis Campus Melveren",
    "address": "",
    "city": "Sint-Truiden",
    "state": "Vlaanderen",
    "zip": 3800,
    "county": "",
    "phone": "",
    "type": "",
    "ownership": "",
    "emergency": "",
    "quality": "",
    "LAT": 50.838881,
    "LON": 5.190948
  },
  "48": {
    "id": 10048,
    "name": "Asster Psychiatrische ziekenhuis Campus Stad",
    "address": "",
    "city": "Sint-Truiden",
    "state": "Vlaanderen",
    "zip": 3800,
    "county": "",
    "phone": "",
    "type": "",
    "ownership": "",
    "emergency": "",
    "quality": "",
    "LAT": 50.8099876,
    "LON": 5.1739956
  },
  "49": {
    "id": 10049,
    "name": "C.H.U. Notre-dame des Bruyères",
    "address": "Rue de Gaillarmont 600",
    "city": "Liège",
    "state": "Wallonie",
    "zip": 4032,
    "county": "",
    "phone": "",
    "type": "",
    "ownership": "",
    "emergency": "Yes",
    "quality": "",
    "LAT": 50.6243239,
    "LON": 5.6352129
  },
  "50": {
    "id": 10050,
    "name": "CHM",
    "address": "",
    "city": "Mouscron",
    "state": "Wallonie",
    "zip": 7700,
    "county": "",
    "phone": "",
    "type": "",
    "ownership": "",
    "emergency": "Yes",
    "quality": "",
    "LAT": 50.7489336,
    "LON": 3.2205068
  },
  "51": {
    "id": 10051,
    "name": "CHR Mons-Hainaut Site Saint-Joseph",
    "address": "Avenue Baudouin de Constantinople 5",
    "city": "Mons",
    "state": "Wallonie",
    "zip": 7000,
    "county": "",
    "phone": "",
    "type": "",
    "ownership": "",
    "emergency": "Yes",
    "quality": "",
    "LAT": 50.4547493,
    "LON": 3.9607193
  },
  "52": {
    "id": 10052,
    "name": "CHR Mons-Hainaut Site Warquignies",
    "address": "Rue des Chaufours 27",
    "city": "Boussu",
    "state": "Wallonie",
    "zip": 7300,
    "county": "",
    "phone": "",
    "type": "",
    "ownership": "",
    "emergency": "Yes",
    "quality": "",
    "LAT": 50.4187734,
    "LON": 3.8040234
  },
  "53": {
    "id": 10053,
    "name": "CHR Verviers | La Tourelle",
    "address": "Rue du Parc 29",
    "city": "Verviers",
    "state": "Wallonie",
    "zip": 4800,
    "county": "",
    "phone": "",
    "type": "",
    "ownership": "",
    "emergency": "Yes",
    "quality": "",
    "LAT": 50.5819777,
    "LON": 5.8572288
  },
  "54": {
    "id": 10054,
    "name": "CHU Ambroise Paré",
    "address": "",
    "city": "Mons",
    "state": "Wallonie",
    "zip": 7000,
    "county": "",
    "phone": "",
    "type": "",
    "ownership": "",
    "emergency": "Yes",
    "quality": "",
    "LAT": 50.4581915,
    "LON": 3.9606929
  },
  "55": {
    "id": 10055,
    "name": "CHU Brugmann - UVC Brugmann",
    "address": "Place Arthur Van Gehuchten - Arthur Van Gehuchtenplein 4",
    "city": "Brussel",
    "state": "",
    "zip": 1020,
    "county": "",
    "phone": "",
    "type": "",
    "ownership": "",
    "emergency": "Yes",
    "quality": "",
    "LAT": 50.8851079,
    "LON": 4.3300592
  },
  "56": {
    "id": 10056,
    "name": "CHU Charleroi - Marie Curie (Lodelinsart)",
    "address": "Chaussée de Bruxelles nan",
    "city": "Charleroi",
    "state": "Wallonie",
    "zip": 6042,
    "county": "",
    "phone": "+32 71 92 07 01",
    "type": "",
    "ownership": "",
    "emergency": "Yes",
    "quality": "",
    "LAT": 50.4304463,
    "LON": 4.4401943
  },
  "57": {
    "id": 10057,
    "name": "CHU Esneux",
    "address": "rue Grandfosse 25-27",
    "city": "Esneux",
    "state": "Wallonie",
    "zip": 4130,
    "county": "",
    "phone": "",
    "type": "",
    "ownership": "",
    "emergency": "No",
    "quality": "",
    "LAT": 50.5322087,
    "LON": 5.5770286
  },
  "58": {
    "id": 10058,
    "name": "CHU Esneux Polyclinique",
    "address": "rue Grandfosse 33",
    "city": "Esneux",
    "state": "Wallonie",
    "zip": 4130,
    "county": "",
    "phone": "",
    "type": "",
    "ownership": "",
    "emergency": "No",
    "quality": "",
    "LAT": 50.5323707,
    "LON": 5.578278
  },
  "59": {
    "id": 10059,
    "name": "CHU Saint-Pierre - UMC Sint-Pieter",
    "address": "Rue Haute - Hoogstraat 322",
    "city": "Brussel",
    "state": "",
    "zip": 1000,
    "county": "",
    "phone": "",
    "type": "",
    "ownership": "",
    "emergency": "Yes",
    "quality": "",
    "LAT": 50.8344015,
    "LON": 4.3457406
  },
  "60": {
    "id": 10060,
    "name": "Campus Sint-Jan",
    "address": "Houtemstraat 115",
    "city": "Tienen",
    "state": "Vlaanderen",
    "zip": 3300,
    "county": "",
    "phone": "",
    "type": "",
    "ownership": "",
    "emergency": "",
    "quality": "",
    "LAT": 50.8154846,
    "LON": 4.9405981
  },
  "61": {
    "id": 10061,
    "name": "Centre Hospitalier Hornu - Frameries",
    "address": "",
    "city": "Frameries",
    "state": "Wallonie",
    "zip": 7080,
    "county": "",
    "phone": "",
    "type": "",
    "ownership": "",
    "emergency": "No",
    "quality": "",
    "LAT": 50.4071136,
    "LON": 3.8910473
  },
  "62": {
    "id": 10062,
    "name": "Centre Hospitalier Reine Astrid Malmedy",
    "address": "Rue Devant les Religieuses 2",
    "city": "Malmedy",
    "state": "Wallonie",
    "zip": 4960,
    "county": "",
    "phone": "",
    "type": "",
    "ownership": "",
    "emergency": "Yes",
    "quality": "",
    "LAT": 50.426357,
    "LON": 6.0230262
  },
  "63": {
    "id": 10063,
    "name": "Centre Hospitalier Régional de Huy",
    "address": "Rue des Trois Ponts 2",
    "city": "Huy",
    "state": "Wallonie",
    "zip": 4500,
    "county": "",
    "phone": "+32 85 27 21 11",
    "type": "",
    "ownership": "",
    "emergency": "Yes",
    "quality": "",
    "LAT": 50.5134521,
    "LON": 5.2395055
  },
  "64": {
    "id": 10064,
    "name": "Centre Hospitalier Spécialisé Notre-Dame des Anges",
    "address": "Rue Émile Vandervelde 67",
    "city": "Liège",
    "state": "Wallonie",
    "zip": 4000,
    "county": "",
    "phone": "",
    "type": "",
    "ownership": "",
    "emergency": "No",
    "quality": "",
    "LAT": 50.6480674,
    "LON": 5.5448588
  },
  "65": {
    "id": 10065,
    "name": "Centre Hospitalier Spécialisé l'Accueil",
    "address": "Rue du Doyard 15",
    "city": "Lierneux",
    "state": "Wallonie",
    "zip": 4990,
    "county": "",
    "phone": "",
    "type": "",
    "ownership": "",
    "emergency": "",
    "quality": "",
    "LAT": 50.289536,
    "LON": 5.7873744
  },
  "66": {
    "id": 10066,
    "name": "Centre Hospitalier Tubize Nivelles - Site de Tubize",
    "address": "Avenue de Scandiano 8",
    "city": "Tubize",
    "state": "Wallonie",
    "zip": 1480,
    "county": "",
    "phone": "",
    "type": "",
    "ownership": "",
    "emergency": "",
    "quality": "",
    "LAT": 50.6926293,
    "LON": 4.2030516
  },
  "67": {
    "id": 10067,
    "name": "Centre Hospitalier Tubize-Nivelles site de Nivelles",
    "address": "",
    "city": "Nivelles",
    "state": "Wallonie",
    "zip": 1400,
    "county": "",
    "phone": "",
    "type": "",
    "ownership": "",
    "emergency": "Yes",
    "quality": "",
    "LAT": 50.5942888,
    "LON": 4.3168064
  },
  "68": {
    "id": 10068,
    "name": "Centre Hospitalier Universitaire Tivoli",
    "address": "",
    "city": "La Louvière",
    "state": "Wallonie",
    "zip": 7100,
    "county": "",
    "phone": "",
    "type": "",
    "ownership": "",
    "emergency": "Yes",
    "quality": "",
    "LAT": 50.4781266,
    "LON": 4.2054339
  },
  "69": {
    "id": 10069,
    "name": "Centre Hospitalier de Mouscron",
    "address": "Avenue de Fécamp 49",
    "city": "Mouscron",
    "state": "Wallonie",
    "zip": 7700,
    "county": "",
    "phone": "+32 56 85 85 85",
    "type": "",
    "ownership": "",
    "emergency": "",
    "quality": "",
    "LAT": 50.7489812,
    "LON": 3.219568
  },
  "70": {
    "id": 10070,
    "name": "Centre Hospitalier de Wallonie picarde - site IMC",
    "address": "",
    "city": "Tournai",
    "state": "Wallonie",
    "zip": 7500,
    "county": "",
    "phone": "",
    "type": "",
    "ownership": "",
    "emergency": "",
    "quality": "",
    "LAT": 50.5931911,
    "LON": 3.4010519
  },
  "71": {
    "id": 10071,
    "name": "Centre Hospitalier de l'Ardenne",
    "address": "",
    "city": "Libramont-Chevigny",
    "state": "Wallonie",
    "zip": 6800,
    "county": "",
    "phone": "",
    "type": "",
    "ownership": "",
    "emergency": "Yes",
    "quality": "",
    "LAT": 49.9254962,
    "LON": 5.3781149
  },
  "72": {
    "id": 10072,
    "name": "Centre Hospitalier de la Haute Senne - site Saint Vincent",
    "address": "",
    "city": "Soignies",
    "state": "Wallonie",
    "zip": 7060,
    "county": "",
    "phone": "",
    "type": "",
    "ownership": "",
    "emergency": "No",
    "quality": "",
    "LAT": 50.5767818,
    "LON": 4.0660158
  },
  "73": {
    "id": 10073,
    "name": "Centre Medical Mosan",
    "address": "Rue de Lantin 122",
    "city": "Liège",
    "state": "Wallonie",
    "zip": 4000,
    "county": "",
    "phone": "+32 4 247 81 20",
    "type": "",
    "ownership": "",
    "emergency": "",
    "quality": "",
    "LAT": 50.675785,
    "LON": 5.5418784
  },
  "74": {
    "id": 10074,
    "name": "Centre Neurologique et de Réadaptation Fonctionnelle",
    "address": "",
    "city": "Tinlot",
    "state": "Wallonie",
    "zip": 4557,
    "county": "",
    "phone": "",
    "type": "",
    "ownership": "",
    "emergency": "",
    "quality": "",
    "LAT": 50.4865525,
    "LON": 5.4348292
  },
  "75": {
    "id": 10075,
    "name": "Centre de Réadaptation Heysel - Revalidatiecentrum Heizel",
    "address": "Rue du Heysel - Heizelstraat 3",
    "city": "Brussel",
    "state": "",
    "zip": 1020,
    "county": "",
    "phone": "",
    "type": "",
    "ownership": "",
    "emergency": "",
    "quality": "",
    "LAT": 50.8911933,
    "LON": 4.3432567
  },
  "76": {
    "id": 10076,
    "name": "Centre de santé des Fagnes",
    "address": "Boulevard Louise 18",
    "city": "Chimay",
    "state": "Wallonie",
    "zip": 6460,
    "county": "",
    "phone": "",
    "type": "",
    "ownership": "",
    "emergency": "",
    "quality": "",
    "LAT": 50.0444351,
    "LON": 4.3101295
  },
  "77": {
    "id": 10077,
    "name": "Centre hospitalier Etterbeek-Ixelles - Ziekenhuizencentrum Etterbeek-Elsene",
    "address": "Rue Jean Paquot - Jean Paquotstraat 63",
    "city": "Elsene",
    "state": "",
    "zip": 1050,
    "county": "",
    "phone": "+32 2 641 41 11",
    "type": "",
    "ownership": "",
    "emergency": "Yes",
    "quality": "",
    "LAT": 50.8256318,
    "LON": 4.3777079
  },
  "78": {
    "id": 10078,
    "name": "Centre hospitalier Joseph Wauters",
    "address": "Avenue de la Résistance 2",
    "city": "Waremme",
    "state": "Wallonie",
    "zip": 4300,
    "county": "",
    "phone": "",
    "type": "",
    "ownership": "",
    "emergency": "",
    "quality": "",
    "LAT": 50.6924025,
    "LON": 5.2502706
  },
  "79": {
    "id": 10079,
    "name": "Centre hospitalier Paul Brien - Verplegingscentrum Paul Brien",
    "address": "Rue du Foyer Schaerbeekois - Schaarbeekse Haardstraat 36",
    "city": "Schaarbeek",
    "state": "",
    "zip": 1030,
    "county": "",
    "phone": "",
    "type": "",
    "ownership": "",
    "emergency": "Yes",
    "quality": "",
    "LAT": 50.8707003,
    "LON": 4.3850323
  },
  "80": {
    "id": 10080,
    "name": "Centre hospitalier Valida",
    "address": "Avenue Josse Goffin - Josse Goffinlaan 180",
    "city": "Sint-Agatha-Berchem",
    "state": "",
    "zip": 1082,
    "county": "",
    "phone": "+32 2 482 40 00",
    "type": "",
    "ownership": "",
    "emergency": "",
    "quality": "",
    "LAT": 50.8669094,
    "LON": 4.3069906
  },
  "81": {
    "id": 10081,
    "name": "Centre hospitalier du Bois de l'Abbaye",
    "address": "",
    "city": "Seraing",
    "state": "Wallonie",
    "zip": 4100,
    "county": "",
    "phone": "",
    "type": "",
    "ownership": "",
    "emergency": "",
    "quality": "",
    "LAT": 50.5819246,
    "LON": 5.4918099
  },
  "82": {
    "id": 10082,
    "name": "ChWaPi Site Union",
    "address": "Rue des Sports nan",
    "city": "Tournai",
    "state": "Wallonie",
    "zip": 7500,
    "county": "",
    "phone": "",
    "type": "",
    "ownership": "",
    "emergency": "",
    "quality": "",
    "LAT": 50.5998092,
    "LON": 3.3827826
  },
  "83": {
    "id": 10083,
    "name": "Chirec - Hôpital de Braine-Waterloo",
    "address": "Rue Wayez 35",
    "city": "Braine-l'Alleud",
    "state": "Wallonie",
    "zip": 1420,
    "county": "",
    "phone": "+32 2 434 91 11",
    "type": "",
    "ownership": "",
    "emergency": "Yes",
    "quality": "",
    "LAT": 50.6856278,
    "LON": 4.3672156
  },
  "84": {
    "id": 10084,
    "name": "Chêne aux Haies",
    "address": "",
    "city": "Mons",
    "state": "Wallonie",
    "zip": 7000,
    "county": "",
    "phone": "",
    "type": "",
    "ownership": "",
    "emergency": "",
    "quality": "",
    "LAT": 50.4605019,
    "LON": 3.978357
  },
  "85": {
    "id": 10085,
    "name": "Clairs Vallons",
    "address": "",
    "city": "Ottignies-Louvain-la-Neuve",
    "state": "Wallonie",
    "zip": 1340,
    "county": "",
    "phone": "",
    "type": "",
    "ownership": "",
    "emergency": "",
    "quality": "",
    "LAT": 50.6591836,
    "LON": 4.6034381
  },
  "86": {
    "id": 10086,
    "name": "Clinique André Renard",
    "address": "",
    "city": "Herstal",
    "state": "Wallonie",
    "zip": 4040,
    "county": "",
    "phone": "",
    "type": "",
    "ownership": "",
    "emergency": "",
    "quality": "",
    "LAT": 50.6746387,
    "LON": 5.6338726
  },
  "87": {
    "id": 10087,
    "name": "Clinique Edmond-Jacques",
    "address": "Rue d'Harnoncourt 48",
    "city": "Virton",
    "state": "Wallonie",
    "zip": 6762,
    "county": "",
    "phone": "",
    "type": "",
    "ownership": "",
    "emergency": "",
    "quality": "",
    "LAT": 49.553598,
    "LON": 5.5269602
  },
  "88": {
    "id": 10088,
    "name": "Clinique Notre-Dame",
    "address": "",
    "city": "Oupeye",
    "state": "Wallonie",
    "zip": 4681,
    "county": "",
    "phone": "",
    "type": "",
    "ownership": "",
    "emergency": "",
    "quality": "",
    "LAT": 50.732309,
    "LON": 5.6874787
  },
  "90": {
    "id": 10090,
    "name": "Clinique Notre-Dame de Grâce",
    "address": "chaussée de Nivelles 212",
    "city": "Charleroi",
    "state": "Wallonie",
    "zip": 6041,
    "county": "",
    "phone": "",
    "type": "",
    "ownership": "",
    "emergency": "Yes",
    "quality": "",
    "LAT": 50.4738036,
    "LON": 4.428674
  },
  "91": {
    "id": 10091,
    "name": "Clinique Peltzer (CHR)",
    "address": "Rue de Liège 107",
    "city": "Verviers",
    "state": "Wallonie",
    "zip": 4800,
    "county": "",
    "phone": "",
    "type": "",
    "ownership": "",
    "emergency": "",
    "quality": "",
    "LAT": 50.5843596,
    "LON": 5.8540349
  },
  "92": {
    "id": 10092,
    "name": "Clinique Psychiatrique des Frères Alexiens",
    "address": "Rue du Chateau de Ruyff 68",
    "city": "Welkenraedt",
    "state": "Wallonie",
    "zip": 4840,
    "county": "",
    "phone": "",
    "type": "",
    "ownership": "",
    "emergency": "",
    "quality": "",
    "LAT": 50.6740217,
    "LON": 5.95333
  },
  "93": {
    "id": 10093,
    "name": "Clinique Saint-Jean - Kliniek Sint-Jan",
    "address": "Boulevard du Jardin Botanique - Kruidtuinlaan 32",
    "city": "Brussel",
    "state": "",
    "zip": 1000,
    "county": "",
    "phone": "",
    "type": "",
    "ownership": "",
    "emergency": "Yes",
    "quality": "",
    "LAT": 50.8534822,
    "LON": 4.3603011
  },
  "94": {
    "id": 10094,
    "name": "Clinique Saint-Joseph",
    "address": "Rue des Déportés 137",
    "city": "Arlon",
    "state": "Wallonie",
    "zip": 6700,
    "county": "",
    "phone": "",
    "type": "",
    "ownership": "",
    "emergency": "Yes",
    "quality": "",
    "LAT": 49.6781912,
    "LON": 5.8205352
  },
  "97": {
    "id": 10097,
    "name": "Clinique Saint-Luc",
    "address": "Rue Saint-Luc 8",
    "city": "Namur",
    "state": "Wallonie",
    "zip": 5004,
    "county": "",
    "phone": "",
    "type": "",
    "ownership": "",
    "emergency": "Yes",
    "quality": "",
    "LAT": 50.4767817,
    "LON": 4.8800495
  },
  "98": {
    "id": 10098,
    "name": "Clinique Saint-Michel - Sint-Michiels Ziekenhuis",
    "address": "Rue de Linthout - Linthoutstraat 150",
    "city": "Etterbeek",
    "state": "",
    "zip": 1040,
    "county": "",
    "phone": "",
    "type": "",
    "ownership": "",
    "emergency": "Yes",
    "quality": "",
    "LAT": 50.8429522,
    "LON": 4.4003712
  },
  "99": {
    "id": 10099,
    "name": "Clinique Saint-Pierre",
    "address": "Avenue Reine Fabiola 9",
    "city": "Ottignies-Louvain-la-Neuve",
    "state": "Wallonie",
    "zip": 1340,
    "county": "",
    "phone": "",
    "type": "",
    "ownership": "",
    "emergency": "Yes",
    "quality": "",
    "LAT": 50.6684386,
    "LON": 4.5592373
  },
  "100": {
    "id": 10100,
    "name": "Clinique Saint-Vincent",
    "address": "",
    "city": "Liège",
    "state": "Wallonie",
    "zip": 4000,
    "county": "",
    "phone": "",
    "type": "",
    "ownership": "",
    "emergency": "",
    "quality": "",
    "LAT": 50.6873306,
    "LON": 5.5490375
  },
  "101": {
    "id": 10101,
    "name": "Clinique Sainte-Anne Saint-Remi - Sint-Anna Sint-Remi Kliniek",
    "address": "Boulevard Jules Graindor - Jules Graindorlaan 66",
    "city": "Anderlecht",
    "state": "",
    "zip": 1070,
    "county": "",
    "phone": "",
    "type": "",
    "ownership": "",
    "emergency": "Yes",
    "quality": "",
    "LAT": 50.8446487,
    "LON": 4.3166137
  },
  "102": {
    "id": 10102,
    "name": "Clinique Sainte-Elisabeth",
    "address": "Rue du Naimeux 17",
    "city": "Verviers",
    "state": "Wallonie",
    "zip": 4802,
    "county": "",
    "phone": "",
    "type": "",
    "ownership": "",
    "emergency": "",
    "quality": "",
    "LAT": 50.5784147,
    "LON": 5.8625602
  },
  "103": {
    "id": 10103,
    "name": "Clinique Sainte-Rosalie (C.H.R. de la Citadelle)",
    "address": "",
    "city": "Liège",
    "state": "Wallonie",
    "zip": 4000,
    "county": "",
    "phone": "",
    "type": "",
    "ownership": "",
    "emergency": "No",
    "quality": "",
    "LAT": 50.6297658,
    "LON": 5.55633
  },
  "104": {
    "id": 10104,
    "name": "Clinique Sainte-Élisabeth",
    "address": "",
    "city": "Namur",
    "state": "Wallonie",
    "zip": 5000,
    "county": "",
    "phone": "",
    "type": "",
    "ownership": "",
    "emergency": "Yes",
    "quality": "",
    "LAT": 50.4607992,
    "LON": 4.8454964
  },
  "105": {
    "id": 10105,
    "name": "Clinique Sainte-Élisabeth - Sint-Elisabeth Ziekenhuis",
    "address": "Avenue De Fré - De Frélaan 206",
    "city": "Uccle",
    "state": "Bruxelles",
    "zip": 1180,
    "county": "",
    "phone": "+32 2 614 20 00",
    "type": "",
    "ownership": "",
    "emergency": "Yes",
    "quality": "",
    "LAT": 50.8051388,
    "LON": 4.3674079
  },
  "106": {
    "id": 10106,
    "name": "Clinique de l'Espérance",
    "address": "Rue Saint-Nicolas 447",
    "city": "Saint-Nicolas",
    "state": "Wallonie",
    "zip": 4420,
    "county": "",
    "phone": "",
    "type": "",
    "ownership": "",
    "emergency": "",
    "quality": "",
    "LAT": 50.640897,
    "LON": 5.5335492
  },
  "107": {
    "id": 10107,
    "name": "Clinique de l'IPAL : Site du Péri",
    "address": "",
    "city": "Liège",
    "state": "Wallonie",
    "zip": 4000,
    "county": "",
    "phone": "",
    "type": "",
    "ownership": "",
    "emergency": "",
    "quality": "",
    "LAT": 50.6493027,
    "LON": 5.5697851
  },
  "108": {
    "id": 10108,
    "name": "Clinique des Houx",
    "address": "",
    "city": "Engis",
    "state": "Wallonie",
    "zip": 4480,
    "county": "",
    "phone": "",
    "type": "",
    "ownership": "",
    "emergency": "",
    "quality": "",
    "LAT": 50.5510922,
    "LON": 5.4081578
  },
  "109": {
    "id": 10109,
    "name": "Clinique du Bois de la Pierre",
    "address": "",
    "city": "Wavre",
    "state": "Wallonie",
    "zip": 1300,
    "county": "",
    "phone": "",
    "type": "",
    "ownership": "",
    "emergency": "",
    "quality": "",
    "LAT": 50.6964113,
    "LON": 4.6146038
  },
  "110": {
    "id": 10110,
    "name": "Clinique du Château Rouge",
    "address": "",
    "city": "Herstal",
    "state": "Wallonie",
    "zip": 4040,
    "county": "",
    "phone": "",
    "type": "",
    "ownership": "",
    "emergency": "",
    "quality": "",
    "LAT": 50.6730228,
    "LON": 5.6373891
  },
  "111": {
    "id": 10111,
    "name": "Clinique du MontLégia (CHC)",
    "address": "",
    "city": "Liège",
    "state": "Wallonie",
    "zip": 4000,
    "county": "",
    "phone": "",
    "type": "",
    "ownership": "",
    "emergency": "",
    "quality": "",
    "LAT": 50.6476968,
    "LON": 5.5375332
  },
  "112": {
    "id": 10112,
    "name": "Clinique universitaire de Mont-Godinne",
    "address": "Avenue Docteur Gaston Thérasse 1",
    "city": "Yvoir",
    "state": "Wallonie",
    "zip": 5530,
    "county": "",
    "phone": "",
    "type": "",
    "ownership": "",
    "emergency": "Yes",
    "quality": "",
    "LAT": 50.3585352,
    "LON": 4.8784311
  },
  "113": {
    "id": 10113,
    "name": "Croix-Rouge et agence ONE d'Ampsin",
    "address": "",
    "city": "Amay",
    "state": "Wallonie",
    "zip": 4540,
    "county": "",
    "phone": "",
    "type": "",
    "ownership": "",
    "emergency": "No",
    "quality": "",
    "LAT": 50.540763,
    "LON": 5.2847348
  },
  "114": {
    "id": 10114,
    "name": "De Mick",
    "address": "Papestraat 30",
    "city": "Brasschaat",
    "state": "Vlaanderen",
    "zip": 2930,
    "county": "",
    "phone": "",
    "type": "",
    "ownership": "",
    "emergency": "",
    "quality": "",
    "LAT": 51.3075766,
    "LON": 4.5441198
  },
  "115": {
    "id": 10115,
    "name": "Epicura Ath",
    "address": "Rue Maria Thomée 1",
    "city": "Ath",
    "state": "Wallonie",
    "zip": 7800,
    "county": "",
    "phone": "",
    "type": "",
    "ownership": "",
    "emergency": "Yes",
    "quality": "",
    "LAT": 50.6353691,
    "LON": 3.7756854
  },
  "116": {
    "id": 10116,
    "name": "Epicura Baudour",
    "address": "Rue Louis Caty 136",
    "city": "Saint-Ghislain",
    "state": "Wallonie",
    "zip": 7331,
    "county": "",
    "phone": "",
    "type": "",
    "ownership": "",
    "emergency": "Yes",
    "quality": "",
    "LAT": 50.4689714,
    "LON": 3.8426736
  },
  "117": {
    "id": 10117,
    "name": "Epicura Hornu",
    "address": "Rue de Mons 63",
    "city": "Boussu",
    "state": "Wallonie",
    "zip": 7301,
    "county": "",
    "phone": "+32 65 71 31 11",
    "type": "",
    "ownership": "",
    "emergency": "Yes",
    "quality": "",
    "LAT": 50.4368298,
    "LON": 3.8286038
  },
  "118": {
    "id": 10118,
    "name": "Forensisch Psychiatrisch Centrum",
    "address": "",
    "city": "Gent",
    "state": "Vlaanderen",
    "zip": 9032,
    "county": "",
    "phone": "",
    "type": "",
    "ownership": "",
    "emergency": "",
    "quality": "",
    "LAT": 51.0779484,
    "LON": 3.7201704
  },
  "119": {
    "id": 10119,
    "name": "GHdC (Notre-Dame)",
    "address": "",
    "city": "Charleroi",
    "state": "Wallonie",
    "zip": 6000,
    "county": "",
    "phone": "",
    "type": "",
    "ownership": "",
    "emergency": "",
    "quality": "",
    "LAT": 50.4180456,
    "LON": 4.4535293
  },
  "120": {
    "id": 10120,
    "name": "H. Hart Ziekenhuis",
    "address": "Kliniekstraat 45",
    "city": "Tienen",
    "state": "Vlaanderen",
    "zip": 3300,
    "county": "",
    "phone": "+32 16 80 90 11",
    "type": "",
    "ownership": "",
    "emergency": "",
    "quality": "",
    "LAT": 50.8113841,
    "LON": 4.9323419
  },
  "121": {
    "id": 10121,
    "name": "H. Hartziekenhuis Mol",
    "address": "Gasthuisstraat 1",
    "city": "Mol",
    "state": "Vlaanderen",
    "zip": 2400,
    "county": "",
    "phone": "",
    "type": "",
    "ownership": "",
    "emergency": "",
    "quality": "",
    "LAT": 51.1869833,
    "LON": 5.1146623
  },
  "122": {
    "id": 10122,
    "name": "Heilig Hart Ziekenhuis",
    "address": "",
    "city": "Mol",
    "state": "Vlaanderen",
    "zip": 2400,
    "county": "",
    "phone": "",
    "type": "",
    "ownership": "",
    "emergency": "",
    "quality": "",
    "LAT": 51.1875597,
    "LON": 5.1148329
  },
  "126": {
    "id": 10126,
    "name": "Home \"Le Bon Repos",
    "address": "",
    "city": "Dour",
    "state": "Wallonie",
    "zip": 7370,
    "county": "",
    "phone": "",
    "type": "",
    "ownership": "",
    "emergency": "",
    "quality": "",
    "LAT": 50.3961968,
    "LON": 3.7693068
  },
  "127": {
    "id": 10127,
    "name": "Hôpital Delta - Delta Ziekenhuis",
    "address": "Boulevard du Triomphe - Triomflaan 201",
    "city": "Oudergem",
    "state": "",
    "zip": 1160,
    "county": "",
    "phone": "",
    "type": "",
    "ownership": "",
    "emergency": "Yes",
    "quality": "",
    "LAT": 50.8174238,
    "LON": 4.4018218
  },
  "128": {
    "id": 10128,
    "name": "Hôpital Militaire Reine Astrid - Militair Hospitaal Koningin Astrid",
    "address": "Rue Bruyn - Bruynstraat 1",
    "city": "Brussel",
    "state": "",
    "zip": 1000,
    "county": "",
    "phone": "",
    "type": "",
    "ownership": "",
    "emergency": "",
    "quality": "",
    "LAT": 50.9080376,
    "LON": 4.3979614
  },
  "129": {
    "id": 10129,
    "name": "Hôpital Neuro-Psychiatrique Saint-Martin",
    "address": "Rue du Fort de Dave 84",
    "city": "Namur",
    "state": "Wallonie",
    "zip": 5000,
    "county": "",
    "phone": "",
    "type": "",
    "ownership": "",
    "emergency": "No",
    "quality": "",
    "LAT": 50.4299845,
    "LON": 4.8750004
  },
  "130": {
    "id": 10130,
    "name": "Hôpital Princesse Paola",
    "address": "",
    "city": "Marche-en-Famenne",
    "state": "Wallonie",
    "zip": 6900,
    "county": "",
    "phone": "",
    "type": "",
    "ownership": "",
    "emergency": "Yes",
    "quality": "",
    "LAT": 50.2280235,
    "LON": 5.3216363
  },
  "131": {
    "id": 10131,
    "name": "Hôpital Saint-Joseph",
    "address": "Rue de Hesbaye 75",
    "city": "Liège",
    "state": "Wallonie",
    "zip": 4000,
    "county": "",
    "phone": "",
    "type": "",
    "ownership": "",
    "emergency": "",
    "quality": "",
    "LAT": 50.6483381,
    "LON": 5.5551682
  },
  "132": {
    "id": 10132,
    "name": "Hôpital Saint-Vincent",
    "address": "",
    "city": "Dinant",
    "state": "Wallonie",
    "zip": 5500,
    "county": "",
    "phone": "",
    "type": "",
    "ownership": "",
    "emergency": "",
    "quality": "",
    "LAT": 50.2656149,
    "LON": 4.9426384
  },
  "133": {
    "id": 10133,
    "name": "Hôpital de Jolimont",
    "address": "Rue Ferrer 159",
    "city": "La Louvière",
    "state": "Wallonie",
    "zip": 7100,
    "county": "",
    "phone": "+32 64 23 30 11",
    "type": "",
    "ownership": "",
    "emergency": "",
    "quality": "",
    "LAT": 50.4790921,
    "LON": 4.2160053
  },
  "134": {
    "id": 10134,
    "name": "Hôpital de Jour Universitaire la Clé",
    "address": "Boulevard de la Constitution 149",
    "city": "Liège",
    "state": "Wallonie",
    "zip": 4020,
    "county": "",
    "phone": "",
    "type": "",
    "ownership": "",
    "emergency": "",
    "quality": "",
    "LAT": 50.6461849,
    "LON": 5.5918333
  },
  "136": {
    "id": 10136,
    "name": "Hôpital de Lobbes",
    "address": "Rue de la Station 25",
    "city": "Lobbes",
    "state": "Wallonie",
    "zip": 6540,
    "county": "",
    "phone": "",
    "type": "",
    "ownership": "",
    "emergency": "Yes",
    "quality": "",
    "LAT": 50.3454014,
    "LON": 4.2607702
  },
  "137": {
    "id": 10137,
    "name": "Hôpital de la Citadelle (CHR)",
    "address": "",
    "city": "Liège",
    "state": "Wallonie",
    "zip": 4000,
    "county": "",
    "phone": "",
    "type": "",
    "ownership": "",
    "emergency": "",
    "quality": "",
    "LAT": 50.651778,
    "LON": 5.5752134
  },
  "138": {
    "id": 10138,
    "name": "Hôpital Érasme - Erasmusziekenhuis",
    "address": "Route de Lennik - Lennikse Baan 808",
    "city": "Anderlecht",
    "state": "",
    "zip": 1070,
    "county": "",
    "phone": "",
    "type": "",
    "ownership": "",
    "emergency": "Yes",
    "quality": "",
    "LAT": 50.8133959,
    "LON": 4.2634539
  },
  "139": {
    "id": 10139,
    "name": "Imelda Ziekenhuis",
    "address": "Imeldalaan 9",
    "city": "Bonheiden",
    "state": "Vlaanderen",
    "zip": 2820,
    "county": "",
    "phone": "+32 15 50 50 11",
    "type": "",
    "ownership": "",
    "emergency": "",
    "quality": "",
    "LAT": 51.0190764,
    "LON": 4.5574261
  },
  "140": {
    "id": 10140,
    "name": "Instituut Tropische Geneeskunde Prins Leopold",
    "address": "",
    "city": "Antwerpen",
    "state": "Vlaanderen",
    "zip": 2000,
    "county": "",
    "phone": "",
    "type": "",
    "ownership": "",
    "emergency": "",
    "quality": "",
    "LAT": 51.2127312,
    "LON": 4.3976104
  },
  "141": {
    "id": 10141,
    "name": "Jan Yperman",
    "address": "Oostlaan 11,11A,11B",
    "city": "Poperinge",
    "state": "Vlaanderen",
    "zip": 8970,
    "county": "",
    "phone": "",
    "type": "",
    "ownership": "",
    "emergency": "",
    "quality": "",
    "LAT": 50.8564425,
    "LON": 2.7458794
  },
  "142": {
    "id": 10142,
    "name": "Jessa",
    "address": "",
    "city": "Herk-de-Stad",
    "state": "Vlaanderen",
    "zip": 3540,
    "county": "",
    "phone": "",
    "type": "",
    "ownership": "",
    "emergency": "",
    "quality": "",
    "LAT": 50.9385043,
    "LON": 5.1633259
  },
  "143": {
    "id": 10143,
    "name": "Jessa Ziekenhuis, campus Salvator",
    "address": "Salvatorstraat 20",
    "city": "Hasselt",
    "state": "Vlaanderen",
    "zip": 3500,
    "county": "",
    "phone": "",
    "type": "",
    "ownership": "",
    "emergency": "No",
    "quality": "",
    "LAT": 50.9107885,
    "LON": 5.3428991
  },
  "144": {
    "id": 10144,
    "name": "Jessa ziekenhuis, campus Virga Jesse",
    "address": "Stadsomvaart 11",
    "city": "Hasselt",
    "state": "Vlaanderen",
    "zip": 3500,
    "county": "",
    "phone": "",
    "type": "",
    "ownership": "",
    "emergency": "Yes",
    "quality": "",
    "LAT": 50.9263446,
    "LON": 5.3404338
  },
  "145": {
    "id": 10145,
    "name": "Joseph Bracops",
    "address": "Rue Docteur Huet - Dokter Huetstraat 79",
    "city": "Anderlecht",
    "state": "Bruxelles",
    "zip": 1070,
    "county": "",
    "phone": "",
    "type": "",
    "ownership": "",
    "emergency": "Yes",
    "quality": "",
    "LAT": 50.8345398,
    "LON": 4.2919724
  },
  "146": {
    "id": 10146,
    "name": "KARUS",
    "address": "Beukenlaan 21",
    "city": "Gent",
    "state": "Vlaanderen",
    "zip": 9051,
    "county": "",
    "phone": "",
    "type": "",
    "ownership": "",
    "emergency": "",
    "quality": "",
    "LAT": 51.0261239,
    "LON": 3.6761414
  },
  "147": {
    "id": 10147,
    "name": "Kliniek Sint Jozef",
    "address": "",
    "city": "Pittem",
    "state": "Vlaanderen",
    "zip": 8740,
    "county": "",
    "phone": "",
    "type": "",
    "ownership": "",
    "emergency": "",
    "quality": "",
    "LAT": 50.9852377,
    "LON": 3.2502484
  },
  "148": {
    "id": 10148,
    "name": "Klinik St Josef",
    "address": "Klosterstraße 9",
    "city": "Sankt-Vith",
    "state": "",
    "zip": 4780,
    "county": "",
    "phone": "",
    "type": "",
    "ownership": "",
    "emergency": "Yes",
    "quality": "",
    "LAT": 50.2779515,
    "LON": 6.1269273
  },
  "149": {
    "id": 10149,
    "name": "Koningin Elisabeth Instituut",
    "address": "Fernand Dewittelaan 1",
    "city": "Koksijde",
    "state": "Vlaanderen",
    "zip": 8670,
    "county": "",
    "phone": "",
    "type": "",
    "ownership": "",
    "emergency": "",
    "quality": "",
    "LAT": 51.1401563,
    "LON": 2.6948579
  },
  "150": {
    "id": 10150,
    "name": "Koningin Paola Kinderziekenhuis",
    "address": "",
    "city": "Antwerpen",
    "state": "Vlaanderen",
    "zip": 2020,
    "county": "",
    "phone": "",
    "type": "",
    "ownership": "",
    "emergency": "",
    "quality": "",
    "LAT": 51.1809848,
    "LON": 4.4212328
  },
  "151": {
    "id": 10151,
    "name": "Le Domaine - Centre hospitalier",
    "address": "Rue Jean Lanneau 39",
    "city": "",
    "state": "Wallonie",
    "zip": "",
    "county": "",
    "phone": "",
    "type": "",
    "ownership": "",
    "emergency": "No",
    "quality": "",
    "LAT": 50.6814332,
    "LON": 4.3384547
  },
  "152": {
    "id": 10152,
    "name": "Le Roseau Vert",
    "address": "Place du Roseau Vert 2",
    "city": "Honnelles",
    "state": "Wallonie",
    "zip": 7387,
    "county": "",
    "phone": "",
    "type": "",
    "ownership": "",
    "emergency": "",
    "quality": "",
    "LAT": 50.3782098,
    "LON": 3.6655792
  },
  "153": {
    "id": 10153,
    "name": "Le Tilleriau",
    "address": "",
    "city": "Soignies",
    "state": "Wallonie",
    "zip": 7060,
    "county": "",
    "phone": "",
    "type": "",
    "ownership": "",
    "emergency": "Yes",
    "quality": "",
    "LAT": 50.5803221,
    "LON": 4.0786544
  },
  "154": {
    "id": 10154,
    "name": "Le Valdor",
    "address": "",
    "city": "Liège",
    "state": "Wallonie",
    "zip": 4000,
    "county": "",
    "phone": "",
    "type": "",
    "ownership": "",
    "emergency": "",
    "quality": "",
    "LAT": 50.6324595,
    "LON": 5.5888608
  },
  "155": {
    "id": 10155,
    "name": "Les Jours Heureux",
    "address": "",
    "city": "Dour",
    "state": "Wallonie",
    "zip": 7370,
    "county": "",
    "phone": "",
    "type": "",
    "ownership": "",
    "emergency": "",
    "quality": "",
    "LAT": 50.380579,
    "LON": 3.8099563
  },
  "156": {
    "id": 10156,
    "name": "MPI Heilig Hart",
    "address": "Leernsesteenweg 53",
    "city": "Deinze",
    "state": "Vlaanderen",
    "zip": 9800,
    "county": "",
    "phone": "",
    "type": "",
    "ownership": "",
    "emergency": "No",
    "quality": "",
    "LAT": 50.9996782,
    "LON": 3.5490629
  },
  "157": {
    "id": 10157,
    "name": "MR",
    "address": "",
    "city": "Celles",
    "state": "Wallonie",
    "zip": 7760,
    "county": "",
    "phone": "",
    "type": "",
    "ownership": "",
    "emergency": "No",
    "quality": "",
    "LAT": 50.7191082,
    "LON": 3.455411
  },
  "158": {
    "id": 10158,
    "name": "MRS \"Bon Accueil",
    "address": "",
    "city": "Dour",
    "state": "Wallonie",
    "zip": 7370,
    "county": "",
    "phone": "",
    "type": "",
    "ownership": "",
    "emergency": "",
    "quality": "",
    "LAT": 50.4012135,
    "LON": 3.7636294
  },
  "159": {
    "id": 10159,
    "name": "Maison de Repos / Résidence Caraman",
    "address": "",
    "city": "Boussu",
    "state": "Wallonie",
    "zip": 7300,
    "county": "",
    "phone": "",
    "type": "",
    "ownership": "",
    "emergency": "",
    "quality": "",
    "LAT": 50.4337701,
    "LON": 3.7910058
  },
  "160": {
    "id": 10160,
    "name": "Maison de repos",
    "address": "",
    "city": "Flobecq",
    "state": "Wallonie",
    "zip": 7880,
    "county": "",
    "phone": "",
    "type": "",
    "ownership": "",
    "emergency": "",
    "quality": "",
    "LAT": 50.7398259,
    "LON": 3.7314737
  },
  "161": {
    "id": 10161,
    "name": "Maison de retraite",
    "address": "",
    "city": "Estinnes",
    "state": "Wallonie",
    "zip": 7120,
    "county": "",
    "phone": "",
    "type": "",
    "ownership": "",
    "emergency": "",
    "quality": "",
    "LAT": 50.3540645,
    "LON": 4.0585637
  },
  "162": {
    "id": 10162,
    "name": "Mariaziekenhuis",
    "address": "Maesensveld 1",
    "city": "Pelt",
    "state": "Vlaanderen",
    "zip": 3900,
    "county": "",
    "phone": "+32 11 82 60 00",
    "type": "",
    "ownership": "",
    "emergency": "",
    "quality": "",
    "LAT": 51.211885,
    "LON": 5.4164627
  },
  "163": {
    "id": 10163,
    "name": "Medisch Centrum",
    "address": "Watermolenstraat nan",
    "city": "Brakel",
    "state": "Vlaanderen",
    "zip": 9660,
    "county": "",
    "phone": "",
    "type": "",
    "ownership": "",
    "emergency": "",
    "quality": "",
    "LAT": 50.8092559,
    "LON": 3.7699439
  },
  "164": {
    "id": 10164,
    "name": "Medisch Centrum Beringen",
    "address": "Hospitaalstraat 27",
    "city": "Beringen",
    "state": "Vlaanderen",
    "zip": 3580,
    "county": "",
    "phone": "",
    "type": "",
    "ownership": "",
    "emergency": "",
    "quality": "",
    "LAT": 51.0625052,
    "LON": 5.2194085
  },
  "165": {
    "id": 10165,
    "name": "OPZ Geel",
    "address": "Dr. Sanodreef 4",
    "city": "Geel",
    "state": "Vlaanderen",
    "zip": 2440,
    "county": "",
    "phone": "",
    "type": "",
    "ownership": "",
    "emergency": "",
    "quality": "",
    "LAT": 51.1543293,
    "LON": 4.9793556
  },
  "166": {
    "id": 10166,
    "name": "Onze Lieve Vrouw van Lourdes",
    "address": "",
    "city": "Waregem",
    "state": "Vlaanderen",
    "zip": 8793,
    "county": "",
    "phone": "",
    "type": "",
    "ownership": "",
    "emergency": "Yes",
    "quality": "",
    "LAT": 50.8997563,
    "LON": 3.4165815
  },
  "167": {
    "id": 10167,
    "name": "Onze-Lieve-Vrouwziekenhuis",
    "address": "Moorselbaan 164",
    "city": "Aalst",
    "state": "Vlaanderen",
    "zip": 9300,
    "county": "",
    "phone": "+32 53 72 41 11",
    "type": "",
    "ownership": "",
    "emergency": "Yes",
    "quality": "",
    "LAT": 50.9449054,
    "LON": 4.0538357
  },
  "168": {
    "id": 10168,
    "name": "Openbaar Psychiatrisch Zorgcentrum Rekem",
    "address": "",
    "city": "Maasmechelen",
    "state": "Vlaanderen",
    "zip": 3630,
    "county": "",
    "phone": "",
    "type": "",
    "ownership": "",
    "emergency": "",
    "quality": "",
    "LAT": 50.9370664,
    "LON": 5.6638693
  },
  "169": {
    "id": 10169,
    "name": "P",
    "address": "",
    "city": "Sint-Niklaas",
    "state": "Vlaanderen",
    "zip": 9100,
    "county": "",
    "phone": "",
    "type": "",
    "ownership": "",
    "emergency": "",
    "quality": "",
    "LAT": 51.1622231,
    "LON": 4.1325908
  },
  "170": {
    "id": 10170,
    "name": "PVT Waesdonck",
    "address": "",
    "city": "Mortsel",
    "state": "Vlaanderen",
    "zip": 2640,
    "county": "",
    "phone": "",
    "type": "",
    "ownership": "",
    "emergency": "",
    "quality": "",
    "LAT": 51.1809888,
    "LON": 4.4583978
  },
  "171": {
    "id": 10171,
    "name": "Polyclinique Universitaire d'Aywaille (CHU Liège)",
    "address": "",
    "city": "Aywaille",
    "state": "Wallonie",
    "zip": 4920,
    "county": "",
    "phone": "",
    "type": "",
    "ownership": "",
    "emergency": "",
    "quality": "",
    "LAT": 50.47223,
    "LON": 5.66768
  },
  "172": {
    "id": 10172,
    "name": "Polyclinique de Nivelles",
    "address": "",
    "city": "Nivelles",
    "state": "Wallonie",
    "zip": 1400,
    "county": "",
    "phone": "",
    "type": "",
    "ownership": "",
    "emergency": "",
    "quality": "",
    "LAT": 50.5981285,
    "LON": 4.3263155
  },
  "173": {
    "id": 10173,
    "name": "Practimed  Campus Tessenderlo",
    "address": "Groenstraat 27",
    "city": "Tessenderlo",
    "state": "Vlaanderen",
    "zip": 3980,
    "county": "",
    "phone": "+32 13 670 730",
    "type": "",
    "ownership": "",
    "emergency": "No",
    "quality": "",
    "LAT": 51.0715818,
    "LON": 5.0959448
  },
  "174": {
    "id": 10174,
    "name": "Psychiatrisch Centrum Dr. Guislain",
    "address": "Jozef Guislainstraat 43",
    "city": "Gent",
    "state": "Vlaanderen",
    "zip": 9000,
    "county": "",
    "phone": "",
    "type": "",
    "ownership": "",
    "emergency": "",
    "quality": "",
    "LAT": 51.0684817,
    "LON": 3.7014746
  },
  "175": {
    "id": 10175,
    "name": "Psychiatrisch Centrum Gent-Sleidinge",
    "address": "Weststraat 135",
    "city": "Evergem",
    "state": "Vlaanderen",
    "zip": 9940,
    "county": "",
    "phone": "",
    "type": "",
    "ownership": "",
    "emergency": "No",
    "quality": "",
    "LAT": 51.1243086,
    "LON": 3.6674259
  },
  "176": {
    "id": 10176,
    "name": "Psychiatrisch Centrum Sint-Amandus",
    "address": "",
    "city": "Beernem",
    "state": "Vlaanderen",
    "zip": 8730,
    "county": "",
    "phone": "",
    "type": "",
    "ownership": "",
    "emergency": "",
    "quality": "",
    "LAT": 51.1182745,
    "LON": 3.3218233
  },
  "177": {
    "id": 10177,
    "name": "Psychiatrisch Centrum Zoete Nood Gods",
    "address": "",
    "city": "Lede",
    "state": "Vlaanderen",
    "zip": 9340,
    "county": "",
    "phone": "",
    "type": "",
    "ownership": "",
    "emergency": "",
    "quality": "",
    "LAT": 50.970133,
    "LON": 3.9701491
  },
  "178": {
    "id": 10178,
    "name": "Psychiatrisch Verzorgingstehuis (PVT) De Warande",
    "address": "Zwaluwlaan 62",
    "city": "Wachtebeke",
    "state": "Vlaanderen",
    "zip": 9185,
    "county": "",
    "phone": "",
    "type": "",
    "ownership": "",
    "emergency": "",
    "quality": "",
    "LAT": 51.1651485,
    "LON": 3.8456009
  },
  "179": {
    "id": 10179,
    "name": "Psychiatrisch Ziekenhuis Bethaniënhuis",
    "address": "",
    "city": "Zoersel",
    "state": "Vlaanderen",
    "zip": 2980,
    "county": "",
    "phone": "",
    "type": "",
    "ownership": "",
    "emergency": "",
    "quality": "",
    "LAT": 51.2723134,
    "LON": 4.6384962
  },
  "180": {
    "id": 10180,
    "name": "Psychiatrisch Ziekenhuis Heilig Hart",
    "address": "Poperingseweg 16",
    "city": "Ieper",
    "state": "Vlaanderen",
    "zip": 8900,
    "county": "",
    "phone": "",
    "type": "",
    "ownership": "",
    "emergency": "",
    "quality": "",
    "LAT": 50.8513736,
    "LON": 2.8650963
  },
  "181": {
    "id": 10181,
    "name": "Psychiatrisch Ziekenhuis Onze-Lieve-Vrouw",
    "address": "",
    "city": "Brugge",
    "state": "Vlaanderen",
    "zip": 8000,
    "county": "",
    "phone": "",
    "type": "",
    "ownership": "",
    "emergency": "",
    "quality": "",
    "LAT": 51.1944645,
    "LON": 3.2089895
  },
  "182": {
    "id": 10182,
    "name": "Psychiatrisch Ziekenhuis Sint-Alexius",
    "address": "",
    "city": "Grimbergen",
    "state": "Vlaanderen",
    "zip": 1850,
    "county": "",
    "phone": "",
    "type": "",
    "ownership": "",
    "emergency": "No",
    "quality": "",
    "LAT": 50.9201404,
    "LON": 4.3565407
  },
  "183": {
    "id": 10183,
    "name": "Psychiatrisch Ziekenhuis Sint-Jan de Deo",
    "address": "Fratersplein 9",
    "city": "Gent",
    "state": "Vlaanderen",
    "zip": 9000,
    "county": "",
    "phone": "",
    "type": "",
    "ownership": "",
    "emergency": "",
    "quality": "",
    "LAT": 51.06453,
    "LON": 3.7234324
  },
  "184": {
    "id": 10184,
    "name": "Psychiatrisch Ziekenhuis Sint-Jan-Baptist",
    "address": "Suikerkaai 81",
    "city": "Zelzate",
    "state": "Vlaanderen",
    "zip": 9060,
    "county": "",
    "phone": "",
    "type": "",
    "ownership": "",
    "emergency": "",
    "quality": "",
    "LAT": 51.1872262,
    "LON": 3.8036132
  },
  "185": {
    "id": 10185,
    "name": "RVT Ter Meeren",
    "address": "Wolfshaegen 186",
    "city": "Huldenberg",
    "state": "Vlaanderen",
    "zip": 3040,
    "county": "",
    "phone": "",
    "type": "",
    "ownership": "",
    "emergency": "",
    "quality": "",
    "LAT": 50.8111325,
    "LON": 4.6287413
  },
  "186": {
    "id": 10186,
    "name": "Regionaal Ziekenhuis St-Trudo",
    "address": "Diestersteenweg 100",
    "city": "Sint-Truiden",
    "state": "Vlaanderen",
    "zip": 3800,
    "county": "",
    "phone": "",
    "type": "",
    "ownership": "",
    "emergency": "Yes",
    "quality": "",
    "LAT": 50.8229838,
    "LON": 5.1860694
  },
  "187": {
    "id": 10187,
    "name": "Regionaal ziekenhuis Heilig Hart Leuven",
    "address": "Naamsestraat 105",
    "city": "Leuven",
    "state": "Vlaanderen",
    "zip": 3000,
    "county": "",
    "phone": "",
    "type": "",
    "ownership": "",
    "emergency": "Yes",
    "quality": "",
    "LAT": 50.8717812,
    "LON": 4.7019749
  },
  "188": {
    "id": 10188,
    "name": "Revalidatiecentrum Preventorium Pulderbos",
    "address": "",
    "city": "Zandhoven",
    "state": "Vlaanderen",
    "zip": 2240,
    "county": "",
    "phone": "",
    "type": "",
    "ownership": "",
    "emergency": "",
    "quality": "",
    "LAT": 51.238595,
    "LON": 4.7260269
  },
  "189": {
    "id": 10189,
    "name": "Saint-Alfred (malades mentaux)",
    "address": "",
    "city": "Soignies",
    "state": "Wallonie",
    "zip": 7060,
    "county": "",
    "phone": "",
    "type": "",
    "ownership": "",
    "emergency": "",
    "quality": "",
    "LAT": 50.5419714,
    "LON": 4.0414794
  },
  "190": {
    "id": 10190,
    "name": "Saint-Bernard (Psychiatrie)",
    "address": "",
    "city": "Manage",
    "state": "Wallonie",
    "zip": 7170,
    "county": "",
    "phone": "",
    "type": "",
    "ownership": "",
    "emergency": "",
    "quality": "",
    "LAT": 50.4995684,
    "LON": 4.2251623
  },
  "191": {
    "id": 10191,
    "name": "Sanatorium du Basil",
    "address": "",
    "city": "Stoumont",
    "state": "Wallonie",
    "zip": 4987,
    "county": "",
    "phone": "",
    "type": "",
    "ownership": "",
    "emergency": "",
    "quality": "",
    "LAT": 50.4317462,
    "LON": 5.8563009
  },
  "192": {
    "id": 10192,
    "name": "Sankt Nikolaus Hospital",
    "address": "Hufengasse nan",
    "city": "Eupen",
    "state": "",
    "zip": 4700,
    "county": "",
    "phone": "",
    "type": "",
    "ownership": "",
    "emergency": "Yes",
    "quality": "",
    "LAT": 50.6285861,
    "LON": 6.0284753
  },
  "193": {
    "id": 10193,
    "name": "Sint Elisabeth",
    "address": "Nederij 133",
    "city": "Herentals",
    "state": "Vlaanderen",
    "zip": 2200,
    "county": "",
    "phone": "",
    "type": "",
    "ownership": "",
    "emergency": "Yes",
    "quality": "",
    "LAT": 51.185395,
    "LON": 4.8360625
  },
  "194": {
    "id": 10194,
    "name": "Sint Vincentius",
    "address": "",
    "city": "Deinze",
    "state": "Vlaanderen",
    "zip": 9800,
    "county": "",
    "phone": "",
    "type": "",
    "ownership": "",
    "emergency": "",
    "quality": "",
    "LAT": 50.985681,
    "LON": 3.52805
  },
  "195": {
    "id": 10195,
    "name": "Sint-Amedeus",
    "address": "Deurnestraat 252",
    "city": "Mortsel",
    "state": "Vlaanderen",
    "zip": 2640,
    "county": "",
    "phone": "",
    "type": "",
    "ownership": "",
    "emergency": "",
    "quality": "",
    "LAT": 51.1839648,
    "LON": 4.4506704
  },
  "196": {
    "id": 10196,
    "name": "Sint-Andriesziekenhuis",
    "address": "",
    "city": "Tielt",
    "state": "Vlaanderen",
    "zip": 8700,
    "county": "",
    "phone": "",
    "type": "",
    "ownership": "",
    "emergency": "",
    "quality": "",
    "LAT": 51.0026089,
    "LON": 3.3213594
  },
  "197": {
    "id": 10197,
    "name": "Sint-Augustinus (GZA)",
    "address": "",
    "city": "Antwerpen",
    "state": "Vlaanderen",
    "zip": 2610,
    "county": "",
    "phone": "",
    "type": "",
    "ownership": "",
    "emergency": "Yes",
    "quality": "",
    "LAT": 51.1750487,
    "LON": 4.415881
  },
  "198": {
    "id": 10198,
    "name": "Sint-Franciscus Xaverius-Ziekenhuis",
    "address": "Spaanse Loskaai 1",
    "city": "Brugge",
    "state": "Vlaanderen",
    "zip": 8000,
    "county": "",
    "phone": "+32 50 47 04 70",
    "type": "",
    "ownership": "",
    "emergency": "No",
    "quality": "",
    "LAT": 51.2129836,
    "LON": 3.2250538
  },
  "199": {
    "id": 10199,
    "name": "Sint-Franciscus ziekenhuis",
    "address": "Pastoor Paquaylaan 129",
    "city": "Heusden-Zolder",
    "state": "Vlaanderen",
    "zip": 3550,
    "county": "",
    "phone": "",
    "type": "",
    "ownership": "",
    "emergency": "",
    "quality": "",
    "LAT": 51.0478431,
    "LON": 5.3154042
  },
  "200": {
    "id": 10200,
    "name": "Sint-Jozefkliniek",
    "address": "Kasteelstraat 23",
    "city": "Bornem",
    "state": "Vlaanderen",
    "zip": 2880,
    "county": "",
    "phone": "",
    "type": "",
    "ownership": "",
    "emergency": "",
    "quality": "",
    "LAT": 51.1000165,
    "LON": 4.2314491
  },
  "201": {
    "id": 10201,
    "name": "Sint-Maria Halle",
    "address": "Ziekenhuislaan 100",
    "city": "Halle",
    "state": "Vlaanderen",
    "zip": 1500,
    "county": "",
    "phone": "+32 2 363 12 11",
    "type": "",
    "ownership": "",
    "emergency": "",
    "quality": "",
    "LAT": 50.7363334,
    "LON": 4.2283433
  },
  "202": {
    "id": 10202,
    "name": "Sint-Vincentius (GZA)",
    "address": "Sint-Vincentiusstraat 20",
    "city": "Antwerpen",
    "state": "Vlaanderen",
    "zip": 2018,
    "county": "",
    "phone": "",
    "type": "",
    "ownership": "",
    "emergency": "Yes",
    "quality": "",
    "LAT": 51.205158,
    "LON": 4.4133844
  },
  "203": {
    "id": 10203,
    "name": "Ter Duinen",
    "address": "Louisweg 46",
    "city": "Nieuwpoort",
    "state": "Vlaanderen",
    "zip": 8620,
    "county": "",
    "phone": "",
    "type": "",
    "ownership": "",
    "emergency": "No",
    "quality": "",
    "LAT": 51.1387428,
    "LON": 2.7153148
  },
  "204": {
    "id": 10204,
    "name": "UCLouvain Saint-Luc University Hospital",
    "address": "Avenue Hippocrate - Hippokrateslaan 10",
    "city": "Woluwé-Saint-Lambert",
    "state": "Bruxelles",
    "zip": 1200,
    "county": "",
    "phone": "+32 2 764 11 11",
    "type": "",
    "ownership": "",
    "emergency": "Yes",
    "quality": "",
    "LAT": 50.852123,
    "LON": 4.4510836
  },
  "205": {
    "id": 10205,
    "name": "UPC Sint-Kamillus",
    "address": "Krijkelberg 1",
    "city": "Bierbeek",
    "state": "Vlaanderen",
    "zip": 3360,
    "county": "",
    "phone": "",
    "type": "",
    "ownership": "",
    "emergency": "",
    "quality": "",
    "LAT": 50.8558625,
    "LON": 4.7469044
  },
  "206": {
    "id": 10206,
    "name": "UZ Leuven - Campus Lubbeek",
    "address": "nan 2",
    "city": "Lubbeek",
    "state": "Vlaanderen",
    "zip": 3210,
    "county": "",
    "phone": "",
    "type": "",
    "ownership": "",
    "emergency": "",
    "quality": "",
    "LAT": 50.8816068,
    "LON": 4.8442506
  },
  "207": {
    "id": 10207,
    "name": "UZ Pellenberg",
    "address": "",
    "city": "Lubbeek",
    "state": "Vlaanderen",
    "zip": 3210,
    "county": "",
    "phone": "",
    "type": "",
    "ownership": "",
    "emergency": "",
    "quality": "",
    "LAT": 50.8608593,
    "LON": 4.7984576
  },
  "208": {
    "id": 10208,
    "name": "Universitair Ziekenhuis Gent",
    "address": "Corneel Heymanslaan 10",
    "city": "Gent",
    "state": "Vlaanderen",
    "zip": 9000,
    "county": "",
    "phone": "",
    "type": "",
    "ownership": "",
    "emergency": "Yes",
    "quality": "",
    "LAT": 51.0256032,
    "LON": 3.7285908
  },
  "209": {
    "id": 10209,
    "name": "Urgences La Tourelle",
    "address": "Rue du Parc 29",
    "city": "Verviers",
    "state": "Wallonie",
    "zip": 4800,
    "county": "",
    "phone": "",
    "type": "",
    "ownership": "",
    "emergency": "Yes",
    "quality": "",
    "LAT": 50.5819714,
    "LON": 5.8574544
  },
  "210": {
    "id": 10210,
    "name": "Vesalius Ziekenhuis",
    "address": "",
    "city": "Tongeren",
    "state": "Vlaanderen",
    "zip": 3700,
    "county": "",
    "phone": "",
    "type": "",
    "ownership": "",
    "emergency": "",
    "quality": "",
    "LAT": 50.7875193,
    "LON": 5.4827837
  },
  "211": {
    "id": 10211,
    "name": "Vivalia - Hopital Sainte-Therese",
    "address": "Chaussée d'Houffalize 1",
    "city": "Bastogne",
    "state": "Wallonie",
    "zip": 6600,
    "county": "",
    "phone": "",
    "type": "",
    "ownership": "",
    "emergency": "Yes",
    "quality": "",
    "LAT": 50.011569,
    "LON": 5.7223686
  },
  "212": {
    "id": 10212,
    "name": "Vivalia Cup - Hôpital psychiatrique La Clairière",
    "address": "",
    "city": "Bertrix",
    "state": "Wallonie",
    "zip": 6880,
    "county": "",
    "phone": "",
    "type": "",
    "ownership": "",
    "emergency": "No",
    "quality": "",
    "LAT": 49.8375734,
    "LON": 5.2642578
  },
  "213": {
    "id": 10213,
    "name": "WZC Blijvelde",
    "address": "",
    "city": "Kortemark",
    "state": "Vlaanderen",
    "zip": 8610,
    "county": "",
    "phone": "",
    "type": "",
    "ownership": "",
    "emergency": "",
    "quality": "",
    "LAT": 51.0318043,
    "LON": 3.0395185
  },
  "214": {
    "id": 10214,
    "name": "WZR De Dennen vzw",
    "address": "",
    "city": "Malle",
    "state": "Vlaanderen",
    "zip": 2390,
    "county": "",
    "phone": "",
    "type": "",
    "ownership": "",
    "emergency": "No",
    "quality": "",
    "LAT": 51.2865307,
    "LON": 4.6428987
  },
  "215": {
    "id": 10215,
    "name": "ZNA Jan Palfijn",
    "address": "Lange Bremstraat 70",
    "city": "Antwerpen",
    "state": "Vlaanderen",
    "zip": 2170,
    "county": "",
    "phone": "+32 3 640 21 11",
    "type": "",
    "ownership": "",
    "emergency": "",
    "quality": "",
    "LAT": 51.25766,
    "LON": 4.4491903
  },
  "216": {
    "id": 10216,
    "name": "ZNA Middelheim",
    "address": "Lindendreef 1,1A",
    "city": "Antwerpen",
    "state": "Vlaanderen",
    "zip": 2020,
    "county": "",
    "phone": "",
    "type": "",
    "ownership": "",
    "emergency": "",
    "quality": "",
    "LAT": 51.1827852,
    "LON": 4.4204269
  },
  "217": {
    "id": 10217,
    "name": "ZNA Sint-Elisabeth",
    "address": "Leopoldstraat 26",
    "city": "Antwerpen",
    "state": "Vlaanderen",
    "zip": 2000,
    "county": "",
    "phone": "+32 3 234 41 11",
    "type": "",
    "ownership": "",
    "emergency": "",
    "quality": "",
    "LAT": 51.2138381,
    "LON": 4.4070948
  },
  "218": {
    "id": 10218,
    "name": "ZNA Sint-Erasmus",
    "address": "",
    "city": "Antwerpen",
    "state": "Vlaanderen",
    "zip": 2140,
    "county": "",
    "phone": "+32 3 270 80 11",
    "type": "",
    "ownership": "",
    "emergency": "",
    "quality": "",
    "LAT": 51.2073443,
    "LON": 4.4453451
  },
  "219": {
    "id": 10219,
    "name": "ZNA Stuivenberg",
    "address": "Lange Beeldekensstraat 167",
    "city": "Antwerpen",
    "state": "Vlaanderen",
    "zip": 2060,
    "county": "",
    "phone": "+32 3 217 71 11",
    "type": "",
    "ownership": "",
    "emergency": "Yes",
    "quality": "",
    "LAT": 51.2239867,
    "LON": 4.4330401
  },
  "220": {
    "id": 10220,
    "name": "ZOL Campus Sint-Jan",
    "address": "",
    "city": "Genk",
    "state": "Vlaanderen",
    "zip": 3600,
    "county": "",
    "phone": "",
    "type": "",
    "ownership": "",
    "emergency": "",
    "quality": "",
    "LAT": 50.9566342,
    "LON": 5.516027
  },
  "221": {
    "id": 10221,
    "name": "ZOL Ziekenhuis Oost Limburg Campus Sint-Barbara",
    "address": "Bessemerstraat 478",
    "city": "Lanaken",
    "state": "Vlaanderen",
    "zip": 3620,
    "county": "",
    "phone": "",
    "type": "",
    "ownership": "",
    "emergency": "No",
    "quality": "",
    "LAT": 50.9096734,
    "LON": 5.6262586
  },
  "222": {
    "id": 10222,
    "name": "Zeepreventorium",
    "address": "Koninklijke Baan 5",
    "city": "De Haan",
    "state": "Vlaanderen",
    "zip": 8420,
    "county": "",
    "phone": "",
    "type": "",
    "ownership": "",
    "emergency": "",
    "quality": "",
    "LAT": 51.2707571,
    "LON": 3.0190778
  },
  "223": {
    "id": 10223,
    "name": "Ziekenhuis Inkendaal",
    "address": "",
    "city": "Sint-Pieters-Leeuw",
    "state": "Vlaanderen",
    "zip": 1600,
    "county": "",
    "phone": "",
    "type": "",
    "ownership": "",
    "emergency": "",
    "quality": "",
    "LAT": 50.8049228,
    "LON": 4.2209572
  },
  "224": {
    "id": 10224,
    "name": "A.M. Spaey",
    "address": "Jozef Eerdekensstraat 7",
    "city": "Leuven",
    "state": "Vlaanderen",
    "zip": 3001,
    "county": "",
    "phone": "",
    "type": "",
    "ownership": "",
    "emergency": "",
    "quality": "",
    "LAT": 50.8652806,
    "LON": 4.7000642
  },
  "225": {
    "id": 10225,
    "name": "Accords Santé ASBL",
    "address": "Rue Joseph Wauters 78",
    "city": "Hannut",
    "state": "Wallonie",
    "zip": 4280,
    "county": "",
    "phone": "",
    "type": "",
    "ownership": "",
    "emergency": "",
    "quality": "",
    "LAT": 50.6750331,
    "LON": 5.0946532
  },
  "226": {
    "id": 10226,
    "name": "Adams L.",
    "address": "Jozef Mattheessensstraat 26",
    "city": "Hove",
    "state": "Vlaanderen",
    "zip": 2540,
    "county": "",
    "phone": "",
    "type": "",
    "ownership": "",
    "emergency": "",
    "quality": "",
    "LAT": 51.1433967,
    "LON": 4.4638228
  },
  "227": {
    "id": 10227,
    "name": "Alexandre Czaplicki (Médecine générale)",
    "address": "Avenue du Haut-Pays 97",
    "city": "Honnelles",
    "state": "Wallonie",
    "zip": 7387,
    "county": "",
    "phone": "",
    "type": "",
    "ownership": "",
    "emergency": "",
    "quality": "",
    "LAT": 50.3612365,
    "LON": 3.7787828
  },
  "228": {
    "id": 10228,
    "name": "Alexia Caulier",
    "address": "Rue de Mianoye 4",
    "city": "Yvoir",
    "state": "Wallonie",
    "zip": 5530,
    "county": "",
    "phone": "",
    "type": "",
    "ownership": "",
    "emergency": "",
    "quality": "",
    "LAT": 50.3377722,
    "LON": 4.981378
  },
  "229": {
    "id": 10229,
    "name": "Ama Vitam",
    "address": "Madrigaalstraat 1",
    "city": "Herentals",
    "state": "Vlaanderen",
    "zip": 2200,
    "county": "",
    "phone": "",
    "type": "",
    "ownership": "",
    "emergency": "",
    "quality": "",
    "LAT": 51.1767004,
    "LON": 4.8226467
  },
  "230": {
    "id": 10230,
    "name": "Artsenhuis De Linde",
    "address": "Markt 8",
    "city": "Langemark-Poelkapelle",
    "state": "Vlaanderen",
    "zip": 8920,
    "county": "",
    "phone": "",
    "type": "",
    "ownership": "",
    "emergency": "",
    "quality": "",
    "LAT": 50.9141437,
    "LON": 2.9182359
  },
  "231": {
    "id": 10231,
    "name": "Artsenhuis Egelantier",
    "address": "Zeebruggelaan 81",
    "city": "Blankenberge",
    "state": "Vlaanderen",
    "zip": 8370,
    "county": "",
    "phone": "+32 50 41 48 77",
    "type": "",
    "ownership": "",
    "emergency": "",
    "quality": "",
    "LAT": 51.30736,
    "LON": 3.1458485
  },
  "232": {
    "id": 10232,
    "name": "Artsenpraktijk Het park",
    "address": "'s Herenbaan 96",
    "city": "Rumst",
    "state": "Vlaanderen",
    "zip": 2840,
    "county": "",
    "phone": "+32 3 888 83 73",
    "type": "",
    "ownership": "",
    "emergency": "",
    "quality": "",
    "LAT": 51.1035136,
    "LON": 4.381932
  },
  "233": {
    "id": 10233,
    "name": "Aurélien Claes",
    "address": "Rue Isabelle Brunell 43",
    "city": "Assesse",
    "state": "Wallonie",
    "zip": 5330,
    "county": "",
    "phone": "",
    "type": "",
    "ownership": "",
    "emergency": "",
    "quality": "",
    "LAT": 50.3979376,
    "LON": 4.9518242
  },
  "234": {
    "id": 10234,
    "name": "Bart Hillewaere Huisarts",
    "address": "Bijlokstraat 134",
    "city": "Herent",
    "state": "Vlaanderen",
    "zip": 3020,
    "county": "",
    "phone": "",
    "type": "",
    "ownership": "",
    "emergency": "",
    "quality": "",
    "LAT": 50.9050953,
    "LON": 4.6846587
  },
  "235": {
    "id": 10235,
    "name": "Beirinckx - Verhelst",
    "address": "Mechelsesteenweg 85",
    "city": "Lier",
    "state": "Vlaanderen",
    "zip": 2500,
    "county": "",
    "phone": "",
    "type": "",
    "ownership": "",
    "emergency": "",
    "quality": "",
    "LAT": 51.1289981,
    "LON": 4.5591865
  },
  "236": {
    "id": 10236,
    "name": "Bury Véronique",
    "address": "Rue d'Omalius 20",
    "city": "Liège",
    "state": "Wallonie",
    "zip": 4000,
    "county": "",
    "phone": "",
    "type": "",
    "ownership": "",
    "emergency": "",
    "quality": "",
    "LAT": 50.6346614,
    "LON": 5.5581005
  },
  "237": {
    "id": 10237,
    "name": "Cabinet Médical du Perron",
    "address": "Place du Perron 16",
    "city": "Theux",
    "state": "Wallonie",
    "zip": 4910,
    "county": "",
    "phone": "",
    "type": "",
    "ownership": "",
    "emergency": "",
    "quality": "",
    "LAT": 50.5354792,
    "LON": 5.8133559
  },
  "238": {
    "id": 10238,
    "name": "Cabinet d'Ophtalmologie",
    "address": "Quai des Tanneries 26",
    "city": "Wavre",
    "state": "Wallonie",
    "zip": 1300,
    "county": "",
    "phone": "+32 10 22 71 09",
    "type": "",
    "ownership": "",
    "emergency": "",
    "quality": "",
    "LAT": 50.7129173,
    "LON": 4.608906
  },
  "239": {
    "id": 10239,
    "name": "Caroline De Boey",
    "address": "Beulk 56",
    "city": "Lille",
    "state": "Vlaanderen",
    "zip": 2275,
    "county": "",
    "phone": "",
    "type": "",
    "ownership": "",
    "emergency": "",
    "quality": "",
    "LAT": 51.2637969,
    "LON": 4.78043
  },
  "240": {
    "id": 10240,
    "name": "Centre Kinesithérapie",
    "address": "Rue d'Harnoncourt 49",
    "city": "Virton",
    "state": "Wallonie",
    "zip": 6762,
    "county": "",
    "phone": "",
    "type": "",
    "ownership": "",
    "emergency": "",
    "quality": "",
    "LAT": 49.5537742,
    "LON": 5.5260967
  },
  "241": {
    "id": 10241,
    "name": "Centre Médical de Aye",
    "address": "Rue des Jolis Bois 39",
    "city": "Marche-en-Famenne",
    "state": "Wallonie",
    "zip": 6900,
    "county": "",
    "phone": "+32 84 32 22 01",
    "type": "",
    "ownership": "",
    "emergency": "",
    "quality": "",
    "LAT": 50.2241648,
    "LON": 5.2944369
  },
  "242": {
    "id": 10242,
    "name": "Centre Médical de Braine-le-Château",
    "address": "Rue de la Station 13",
    "city": "Braine-le-Château",
    "state": "Wallonie",
    "zip": 1440,
    "county": "",
    "phone": "+32 2 366 04 48",
    "type": "",
    "ownership": "",
    "emergency": "",
    "quality": "",
    "LAT": 50.6817609,
    "LON": 4.270041
  },
  "243": {
    "id": 10243,
    "name": "Centre Médical de Hannut",
    "address": "",
    "city": "Hannut",
    "state": "Wallonie",
    "zip": 4280,
    "county": "",
    "phone": "",
    "type": "",
    "ownership": "",
    "emergency": "",
    "quality": "",
    "LAT": 50.6683609,
    "LON": 5.0851152
  },
  "244": {
    "id": 10244,
    "name": "Centre Médicalisé de Bra sur Lienne",
    "address": "Bierleux 69",
    "city": "Lierneux",
    "state": "Wallonie",
    "zip": 4990,
    "county": "",
    "phone": "",
    "type": "",
    "ownership": "",
    "emergency": "",
    "quality": "",
    "LAT": 50.3219895,
    "LON": 5.7303568
  },
  "245": {
    "id": 10245,
    "name": "Centre Médicis",
    "address": "",
    "city": "Sint-Pieters-Woluwe",
    "state": "",
    "zip": 1150,
    "county": "",
    "phone": "",
    "type": "",
    "ownership": "",
    "emergency": "",
    "quality": "",
    "LAT": 50.8367009,
    "LON": 4.4159574
  },
  "246": {
    "id": 10246,
    "name": "Centre d'Ophtalmologie",
    "address": "Avenue Nicolas Copernic 4",
    "city": "Mons",
    "state": "Wallonie",
    "zip": 7000,
    "county": "",
    "phone": "",
    "type": "",
    "ownership": "",
    "emergency": "",
    "quality": "",
    "LAT": 50.4582895,
    "LON": 3.9277252
  },
  "247": {
    "id": 10247,
    "name": "Centre de Santé Intégrée des Carrières",
    "address": "Rue Vieille Voie de Liège 1",
    "city": "Sprimont",
    "state": "Wallonie",
    "zip": 4140,
    "county": "",
    "phone": "",
    "type": "",
    "ownership": "",
    "emergency": "",
    "quality": "",
    "LAT": 50.5076931,
    "LON": 5.6593869
  },
  "251": {
    "id": 10251,
    "name": "Centre de soins ( Ostéopathe, Pédicure )",
    "address": "Rue Arthur Mahaux 44",
    "city": "Namur",
    "state": "Wallonie",
    "zip": 5021,
    "county": "",
    "phone": "+32 81 21 03 30",
    "type": "",
    "ownership": "",
    "emergency": "",
    "quality": "",
    "LAT": 50.4957375,
    "LON": 4.92725
  },
  "252": {
    "id": 10252,
    "name": "Centre médical ophtalmologique et pédiatrique",
    "address": "Avenue des Sorbiers 32",
    "city": "Ath",
    "state": "Wallonie",
    "zip": 7800,
    "county": "",
    "phone": "",
    "type": "",
    "ownership": "",
    "emergency": "",
    "quality": "",
    "LAT": 50.6326599,
    "LON": 3.7863117
  },
  "253": {
    "id": 10253,
    "name": "Centrum voor Klassieke Homeopathie",
    "address": "Twaalf septemberstraat 19",
    "city": "Hechtel-Eksel",
    "state": "Vlaanderen",
    "zip": 3940,
    "county": "",
    "phone": "+32 11 73 23 55",
    "type": "",
    "ownership": "",
    "emergency": "",
    "quality": "",
    "LAT": 51.1274316,
    "LON": 5.3658633
  },
  "254": {
    "id": 10254,
    "name": "Christian Collys",
    "address": "Rue de la Procession 66",
    "city": "Enghien",
    "state": "Wallonie",
    "zip": 7850,
    "county": "",
    "phone": 3223956037,
    "type": "",
    "ownership": "",
    "emergency": "",
    "quality": "",
    "LAT": 50.6908371,
    "LON": 4.0845157
  },
  "255": {
    "id": 10255,
    "name": "De Brug",
    "address": "Brugstraat 164",
    "city": "Brecht",
    "state": "Vlaanderen",
    "zip": 2960,
    "county": "",
    "phone": "",
    "type": "",
    "ownership": "",
    "emergency": "",
    "quality": "",
    "LAT": 51.3002028,
    "LON": 4.5718293
  },
  "256": {
    "id": 10256,
    "name": "De Deur",
    "address": "Sint-Alfonsusstraat 19",
    "city": "Roeselare",
    "state": "Vlaanderen",
    "zip": 8800,
    "county": "",
    "phone": "",
    "type": "",
    "ownership": "",
    "emergency": "",
    "quality": "",
    "LAT": 50.9457415,
    "LON": 3.1274816
  },
  "257": {
    "id": 10257,
    "name": "De Oude school",
    "address": "Kerkplein 27",
    "city": "Kortessem",
    "state": "Vlaanderen",
    "zip": 3720,
    "county": "",
    "phone": "",
    "type": "",
    "ownership": "",
    "emergency": "",
    "quality": "",
    "LAT": 50.859114,
    "LON": 5.390561
  },
  "258": {
    "id": 10258,
    "name": "De Ruyck Dirk",
    "address": "Mispelbilk 21",
    "city": "Gent",
    "state": "Vlaanderen",
    "zip": 9030,
    "county": "",
    "phone": "",
    "type": "",
    "ownership": "",
    "emergency": "",
    "quality": "",
    "LAT": 51.0858367,
    "LON": 3.6891187
  },
  "259": {
    "id": 10259,
    "name": "De Zorgpoort",
    "address": "Kerkplein 14-14B",
    "city": "Lommel",
    "state": "Vlaanderen",
    "zip": 3920,
    "county": "",
    "phone": "+32 11 55 02 30",
    "type": "",
    "ownership": "",
    "emergency": "",
    "quality": "",
    "LAT": 51.2281727,
    "LON": 5.3136283
  },
  "260": {
    "id": 10260,
    "name": "De kruin",
    "address": "Kruineikestraat 25",
    "city": "Haacht",
    "state": "Vlaanderen",
    "zip": 3150,
    "county": "",
    "phone": "",
    "type": "",
    "ownership": "",
    "emergency": "",
    "quality": "",
    "LAT": 50.9458848,
    "LON": 4.6443816
  },
  "261": {
    "id": 10261,
    "name": "Dermatologie Dr Bataille",
    "address": "",
    "city": "Hannut",
    "state": "Wallonie",
    "zip": 4280,
    "county": "",
    "phone": "",
    "type": "",
    "ownership": "",
    "emergency": "",
    "quality": "",
    "LAT": 50.6690719,
    "LON": 5.0489508
  },
  "262": {
    "id": 10262,
    "name": "Dermatologie@herent",
    "address": "Mechelsesteenweg 442",
    "city": "Herent",
    "state": "Vlaanderen",
    "zip": 3020,
    "county": "",
    "phone": "",
    "type": "",
    "ownership": "",
    "emergency": "",
    "quality": "",
    "LAT": 50.9058304,
    "LON": 4.6705278
  },
  "263": {
    "id": 10263,
    "name": "Dimanche",
    "address": "Rue Saint Remy 1",
    "city": "Walcourt",
    "state": "Wallonie",
    "zip": 5650,
    "county": "",
    "phone": "",
    "type": "",
    "ownership": "",
    "emergency": "",
    "quality": "",
    "LAT": 50.2610352,
    "LON": 4.5072037
  },
  "264": {
    "id": 10264,
    "name": "Docteur Demolin A.",
    "address": "Rue Henri Gouvart 11",
    "city": "Braine-le-Château",
    "state": "Wallonie",
    "zip": 1440,
    "county": "",
    "phone": "+32 2 366 02 88",
    "type": "",
    "ownership": "",
    "emergency": "",
    "quality": "",
    "LAT": 50.6898314,
    "LON": 4.3094647
  },
  "265": {
    "id": 10265,
    "name": "Docteur Deridder J-A",
    "address": "Rue de Mont-Saint-Pont 13",
    "city": "Braine-le-Château",
    "state": "Wallonie",
    "zip": 1440,
    "county": "",
    "phone": "+32 2 366 19 18",
    "type": "",
    "ownership": "",
    "emergency": "",
    "quality": "",
    "LAT": 50.6835211,
    "LON": 4.2736656
  },
  "266": {
    "id": 10266,
    "name": "Docteur F. Anthoine",
    "address": "Rue Bois Paris 14",
    "city": "Lasne",
    "state": "Wallonie",
    "zip": 1380,
    "county": "",
    "phone": "",
    "type": "",
    "ownership": "",
    "emergency": "",
    "quality": "",
    "LAT": 50.6868758,
    "LON": 4.469332
  },
  "267": {
    "id": 10267,
    "name": "Docteur Françis Marchant",
    "address": "Rue de Fernelmont 255",
    "city": "Namur",
    "state": "Wallonie",
    "zip": 5000,
    "county": "",
    "phone": "",
    "type": "",
    "ownership": "",
    "emergency": "",
    "quality": "",
    "LAT": 50.5040188,
    "LON": 4.9144447
  },
  "268": {
    "id": 10268,
    "name": "Docteur Manuel Motte",
    "address": "Rue de Snaye 1",
    "city": "Beauraing",
    "state": "Wallonie",
    "zip": 5574,
    "county": "",
    "phone": "",
    "type": "",
    "ownership": "",
    "emergency": "",
    "quality": "",
    "LAT": 50.098859,
    "LON": 5.0086202
  },
  "269": {
    "id": 10269,
    "name": "Docteur Nicolo Virginia",
    "address": "",
    "city": "Mons",
    "state": "Wallonie",
    "zip": 7011,
    "county": "",
    "phone": "",
    "type": "",
    "ownership": "",
    "emergency": "",
    "quality": "",
    "LAT": 50.4809969,
    "LON": 3.9049019
  },
  "270": {
    "id": 10270,
    "name": "Docteur Pierre Masoin",
    "address": "Route de Bastogne 5",
    "city": "Rambrouch",
    "state": "",
    "zip": 8832,
    "county": "",
    "phone": "",
    "type": "",
    "ownership": "",
    "emergency": "",
    "quality": "",
    "LAT": 49.8331502,
    "LON": 5.7400132
  },
  "271": {
    "id": 10271,
    "name": "Docteur Pierson Thierry",
    "address": "Quartier de la Brasserie 33",
    "city": "Beauraing",
    "state": "Wallonie",
    "zip": 5570,
    "county": "",
    "phone": "",
    "type": "",
    "ownership": "",
    "emergency": "",
    "quality": "",
    "LAT": 50.0990668,
    "LON": 4.8920213
  },
  "272": {
    "id": 10272,
    "name": "Docteur Tamigniau L.",
    "address": "Rue de Nivelles 24",
    "city": "Braine-le-Château",
    "state": "Wallonie",
    "zip": 1440,
    "county": "",
    "phone": "+32 2 366 10 91",
    "type": "",
    "ownership": "",
    "emergency": "",
    "quality": "",
    "LAT": 50.6808803,
    "LON": 4.273347
  },
  "273": {
    "id": 10273,
    "name": "Docteur Valérie Blavier (Pédiatre)",
    "address": "Avenue Joseph Wauters 24",
    "city": "Esneux",
    "state": "Wallonie",
    "zip": 4130,
    "county": "",
    "phone": "+32 487 255 866",
    "type": "",
    "ownership": "",
    "emergency": "",
    "quality": "",
    "LAT": 50.5679456,
    "LON": 5.5826381
  },
  "274": {
    "id": 10274,
    "name": "Docteur Zygrajch S.",
    "address": "Rue Cour au Bois 6B",
    "city": "Braine-le-Château",
    "state": "Wallonie",
    "zip": 1440,
    "county": "",
    "phone": "+32 2 366 22 13",
    "type": "",
    "ownership": "",
    "emergency": "",
    "quality": "",
    "LAT": 50.684835,
    "LON": 4.2937042
  },
  "275": {
    "id": 10275,
    "name": "Dokter",
    "address": "",
    "city": "Houthulst",
    "state": "Vlaanderen",
    "zip": 8650,
    "county": "",
    "phone": "",
    "type": "",
    "ownership": "",
    "emergency": "",
    "quality": "",
    "LAT": 50.9530275,
    "LON": 2.8519021
  },
  "277": {
    "id": 10277,
    "name": "Dokter Coussement",
    "address": "Hoogstraat 65",
    "city": "Roeselare",
    "state": "Vlaanderen",
    "zip": 8800,
    "county": "",
    "phone": "",
    "type": "",
    "ownership": "",
    "emergency": "",
    "quality": "",
    "LAT": 50.931559,
    "LON": 3.1491889
  },
  "278": {
    "id": 10278,
    "name": "Dokter Ellen Peeters",
    "address": "Zandstraat 65",
    "city": "Brecht",
    "state": "Vlaanderen",
    "zip": 2960,
    "county": "",
    "phone": "+31 4 68 49 15 48",
    "type": "",
    "ownership": "",
    "emergency": "",
    "quality": "",
    "LAT": 51.2920409,
    "LON": 4.5624405
  },
  "279": {
    "id": 10279,
    "name": "Dokter Maurissen Chris",
    "address": "Ristenstraat 31",
    "city": "Herenthout",
    "state": "Vlaanderen",
    "zip": 2270,
    "county": "",
    "phone": "+32 (0)14 51 61 77",
    "type": "",
    "ownership": "",
    "emergency": "",
    "quality": "",
    "LAT": 51.1441476,
    "LON": 4.7567182
  },
  "280": {
    "id": 10280,
    "name": "Dokters aan de Mandel",
    "address": "Mandellaan 73",
    "city": "Roeselare",
    "state": "Vlaanderen",
    "zip": 8800,
    "county": "",
    "phone": "",
    "type": "",
    "ownership": "",
    "emergency": "",
    "quality": "",
    "LAT": 50.9561682,
    "LON": 3.1339872
  },
  "281": {
    "id": 10281,
    "name": "Dokterspraktijk De Nieuwstraat",
    "address": "Nieuwstraat 7",
    "city": "Kortemark",
    "state": "Vlaanderen",
    "zip": 8610,
    "county": "",
    "phone": "",
    "type": "",
    "ownership": "",
    "emergency": "",
    "quality": "",
    "LAT": 51.0275915,
    "LON": 3.044235
  },
  "282": {
    "id": 10282,
    "name": "Dokterspraktijk Johan Poncelet",
    "address": "Sint-Lambrechts-Herkstraat 100",
    "city": "Hasselt",
    "state": "Vlaanderen",
    "zip": 3500,
    "county": "",
    "phone": "+32 11 31 67 10",
    "type": "",
    "ownership": "",
    "emergency": "",
    "quality": "",
    "LAT": 50.907182,
    "LON": 5.3041381
  },
  "283": {
    "id": 10283,
    "name": "Dokterspraktijk Smits Veerle",
    "address": "Plezantstraat 11-13",
    "city": "Hamme",
    "state": "Vlaanderen",
    "zip": 9220,
    "county": "",
    "phone": "",
    "type": "",
    "ownership": "",
    "emergency": "",
    "quality": "",
    "LAT": 51.0969733,
    "LON": 4.1365532
  },
  "284": {
    "id": 10284,
    "name": "Dorsimont Camille",
    "address": "Chaussée de Tongres 203",
    "city": "Amay",
    "state": "Wallonie",
    "zip": 4540,
    "county": "",
    "phone": "",
    "type": "",
    "ownership": "",
    "emergency": "",
    "quality": "",
    "LAT": 50.5528962,
    "LON": 5.3067641
  },
  "285": {
    "id": 10285,
    "name": "Dr CERFONTAINE Michel",
    "address": "Rue des prés 134",
    "city": "Liège",
    "state": "Wallonie",
    "zip": 4020,
    "county": "",
    "phone": "",
    "type": "",
    "ownership": "",
    "emergency": "",
    "quality": "",
    "LAT": 50.6677161,
    "LON": 5.656161
  },
  "286": {
    "id": 10286,
    "name": "Dr Devos",
    "address": "Desselgem-Dries 61",
    "city": "Waregem",
    "state": "Vlaanderen",
    "zip": 8792,
    "county": "",
    "phone": "",
    "type": "",
    "ownership": "",
    "emergency": "",
    "quality": "",
    "LAT": 50.884137,
    "LON": 3.3604639
  },
  "287": {
    "id": 10287,
    "name": "Dr Dupuis",
    "address": "Place Albert Ier 19",
    "city": "La Bruyère",
    "state": "Wallonie",
    "zip": 5081,
    "county": "",
    "phone": "+32 81 56 06 88",
    "type": "",
    "ownership": "",
    "emergency": "",
    "quality": "",
    "LAT": 50.53438,
    "LON": 4.7828843
  },
  "288": {
    "id": 10288,
    "name": "Dr Gilson Philippe",
    "address": "Rue de Visé 651",
    "city": "Liège",
    "state": "Wallonie",
    "zip": 4020,
    "county": "",
    "phone": "",
    "type": "",
    "ownership": "",
    "emergency": "",
    "quality": "",
    "LAT": 50.6690358,
    "LON": 5.6600497
  },
  "289": {
    "id": 10289,
    "name": "Dr J. Lambert",
    "address": "Rue de Beauffaux 13",
    "city": "La Bruyère",
    "state": "Wallonie",
    "zip": 5081,
    "county": "",
    "phone": "+32 81 56 64 27",
    "type": "",
    "ownership": "",
    "emergency": "",
    "quality": "",
    "LAT": 50.5360347,
    "LON": 4.779953
  },
  "290": {
    "id": 10290,
    "name": "Dr Libois",
    "address": "Rue de Gozée 556",
    "city": "Montigny-le-Tilleul",
    "state": "Wallonie",
    "zip": 6110,
    "county": "",
    "phone": "+32 71 51 72 53",
    "type": "",
    "ownership": "",
    "emergency": "",
    "quality": "",
    "LAT": 50.3701236,
    "LON": 4.3643633
  },
  "291": {
    "id": 10291,
    "name": "Dr Michelle Jammaer",
    "address": "Rue du Ponçay 20",
    "city": "Liège",
    "state": "Wallonie",
    "zip": 4020,
    "county": "",
    "phone": "",
    "type": "",
    "ownership": "",
    "emergency": "",
    "quality": "",
    "LAT": 50.6411047,
    "LON": 5.5945299
  },
  "292": {
    "id": 10292,
    "name": "Dr P. Jossart",
    "address": "Rue de la Damejelle 23",
    "city": "Floreffe",
    "state": "Wallonie",
    "zip": 5150,
    "county": "",
    "phone": "+32 81 44 17 93",
    "type": "",
    "ownership": "",
    "emergency": "",
    "quality": "",
    "LAT": 50.4167552,
    "LON": 4.756112
  },
  "293": {
    "id": 10293,
    "name": "Dr Pierre Bruwier",
    "address": "",
    "city": "Silly",
    "state": "Wallonie",
    "zip": 7830,
    "county": "",
    "phone": "",
    "type": "",
    "ownership": "",
    "emergency": "",
    "quality": "",
    "LAT": 50.6429831,
    "LON": 3.9192732
  },
  "294": {
    "id": 10294,
    "name": "Dr Puissant",
    "address": "",
    "city": "Hamoir",
    "state": "Wallonie",
    "zip": 4180,
    "county": "",
    "phone": "",
    "type": "",
    "ownership": "",
    "emergency": "",
    "quality": "",
    "LAT": 50.4244453,
    "LON": 5.5351681
  },
  "295": {
    "id": 10295,
    "name": "Dr V. Baugnet",
    "address": "rue Armand Guerlache 33",
    "city": "Ramillies",
    "state": "Wallonie",
    "zip": 1367,
    "county": "",
    "phone": "+32 81 877726",
    "type": "",
    "ownership": "",
    "emergency": "",
    "quality": "",
    "LAT": 50.6625588,
    "LON": 4.9232406
  },
  "296": {
    "id": 10296,
    "name": "Dr. Amandine Schellen",
    "address": "Rue Bassidaine 11",
    "city": "Viroinval",
    "state": "Wallonie",
    "zip": 5670,
    "county": "",
    "phone": "",
    "type": "",
    "ownership": "",
    "emergency": "",
    "quality": "",
    "LAT": 50.075043,
    "LON": 4.5478293
  },
  "297": {
    "id": 10297,
    "name": "Dr. Bart Du Chau",
    "address": "Sterrestraat 35",
    "city": "Tielt",
    "state": "Vlaanderen",
    "zip": 8700,
    "county": "",
    "phone": "",
    "type": "",
    "ownership": "",
    "emergency": "",
    "quality": "",
    "LAT": 50.9943374,
    "LON": 3.4177315
  },
  "298": {
    "id": 10298,
    "name": "Dr. Beysens B.",
    "address": "Burgemeester Lemmensstraat 51",
    "city": "Hamme",
    "state": "Vlaanderen",
    "zip": 9220,
    "county": "",
    "phone": "",
    "type": "",
    "ownership": "",
    "emergency": "",
    "quality": "",
    "LAT": 51.0653828,
    "LON": 4.1547961
  },
  "299": {
    "id": 10299,
    "name": "Dr. Dingens",
    "address": "Sint-Pieterskerklaan 3",
    "city": "Brugge",
    "state": "Vlaanderen",
    "zip": 8000,
    "county": "",
    "phone": "+32 50 31 01 77",
    "type": "",
    "ownership": "",
    "emergency": "",
    "quality": "",
    "LAT": 51.2302673,
    "LON": 3.2075731
  },
  "300": {
    "id": 10300,
    "name": "Dr. Hendrickx - Dr- Govaerts",
    "address": "Emiel van Roeystraat 4",
    "city": "Rijkevorsel",
    "state": "Vlaanderen",
    "zip": 2310,
    "county": "",
    "phone": "",
    "type": "",
    "ownership": "",
    "emergency": "",
    "quality": "",
    "LAT": 51.3479412,
    "LON": 4.7598892
  },
  "301": {
    "id": 10301,
    "name": "Dr. Huyberechts Sabine",
    "address": "Lodorp 64B",
    "city": "Aalter",
    "state": "Vlaanderen",
    "zip": 9880,
    "county": "",
    "phone": "",
    "type": "",
    "ownership": "",
    "emergency": "",
    "quality": "",
    "LAT": 51.049584,
    "LON": 3.4602998
  },
  "302": {
    "id": 10302,
    "name": "Dr. Jacobs",
    "address": "Molenzijde 24",
    "city": "Merksplas",
    "state": "Vlaanderen",
    "zip": 2330,
    "county": "",
    "phone": "",
    "type": "",
    "ownership": "",
    "emergency": "",
    "quality": "",
    "LAT": 51.3596305,
    "LON": 4.8512604
  },
  "303": {
    "id": 10303,
    "name": "Dr. K. Joostens",
    "address": "Loystraat 163",
    "city": "Hamme",
    "state": "Vlaanderen",
    "zip": 9220,
    "county": "",
    "phone": "",
    "type": "",
    "ownership": "",
    "emergency": "",
    "quality": "",
    "LAT": 51.0934799,
    "LON": 4.1421443
  },
  "304": {
    "id": 10304,
    "name": "Dr. Karin Van Den Bulcke",
    "address": "Roeselarestraat 39",
    "city": "Staden",
    "state": "Vlaanderen",
    "zip": 8840,
    "county": "",
    "phone": "+32 51 24 48 25",
    "type": "",
    "ownership": "",
    "emergency": "",
    "quality": "",
    "LAT": 50.9412163,
    "LON": 3.0622555
  },
  "305": {
    "id": 10305,
    "name": "Dr. Koshraveshan",
    "address": "Hoogstraat 42",
    "city": "Putte",
    "state": "Vlaanderen",
    "zip": 2580,
    "county": "",
    "phone": "",
    "type": "",
    "ownership": "",
    "emergency": "",
    "quality": "",
    "LAT": 51.0580766,
    "LON": 4.667236
  },
  "306": {
    "id": 10306,
    "name": "Dr. Kristel Van Craenenbroeck",
    "address": "Windmolenstraat 4",
    "city": "Zemst",
    "state": "Vlaanderen",
    "zip": 1980,
    "county": "",
    "phone": "",
    "type": "",
    "ownership": "",
    "emergency": "",
    "quality": "",
    "LAT": 50.9697179,
    "LON": 4.4539277
  },
  "307": {
    "id": 10307,
    "name": "Dr. Mertens",
    "address": "Jan De Cordesstr. 30",
    "city": "Putte",
    "state": "Vlaanderen",
    "zip": 2580,
    "county": "",
    "phone": "",
    "type": "",
    "ownership": "",
    "emergency": "",
    "quality": "",
    "LAT": 51.0587295,
    "LON": 4.6688827
  },
  "308": {
    "id": 10308,
    "name": "Dr. Naudts Stijn",
    "address": "Loystraat 104-106",
    "city": "Hamme",
    "state": "Vlaanderen",
    "zip": 9220,
    "county": "",
    "phone": "",
    "type": "",
    "ownership": "",
    "emergency": "",
    "quality": "",
    "LAT": 51.0939406,
    "LON": 4.1428273
  },
  "309": {
    "id": 10309,
    "name": "Dr. Stephan Vlaminck",
    "address": "Baron Joseph Ryelandtstraat 1",
    "city": "Brugge",
    "state": "Vlaanderen",
    "zip": 8000,
    "county": "",
    "phone": "+32 50 31 41 94",
    "type": "",
    "ownership": "",
    "emergency": "",
    "quality": "",
    "LAT": 51.2144006,
    "LON": 3.2095163
  },
  "310": {
    "id": 10310,
    "name": "Dr. Steven Van den Noortgate",
    "address": "Kruishofstraat 217",
    "city": "Antwerpen",
    "state": "Vlaanderen",
    "zip": 2610,
    "county": "",
    "phone": "",
    "type": "",
    "ownership": "",
    "emergency": "",
    "quality": "",
    "LAT": 51.1835348,
    "LON": 4.3944632
  },
  "311": {
    "id": 10311,
    "name": "Eddy De Prins",
    "address": "Armand Segerslei 93",
    "city": "Mortsel",
    "state": "Vlaanderen",
    "zip": 2640,
    "county": "",
    "phone": "",
    "type": "",
    "ownership": "",
    "emergency": "",
    "quality": "",
    "LAT": 51.1696374,
    "LON": 4.4444186
  },
  "312": {
    "id": 10312,
    "name": "Espace Médecine Spécialisée",
    "address": "Avenue des Combattants 19",
    "city": "Jodoigne",
    "state": "Wallonie",
    "zip": 1370,
    "county": "",
    "phone": "",
    "type": "",
    "ownership": "",
    "emergency": "",
    "quality": "",
    "LAT": 50.7237604,
    "LON": 4.8695574
  },
  "313": {
    "id": 10313,
    "name": "F. Van De Wing",
    "address": "Rumbeeksesteenweg 17-19",
    "city": "Roeselare",
    "state": "Vlaanderen",
    "zip": 8800,
    "county": "",
    "phone": "",
    "type": "",
    "ownership": "",
    "emergency": "",
    "quality": "",
    "LAT": 50.9410687,
    "LON": 3.1255047
  },
  "314": {
    "id": 10314,
    "name": "Franck Bronckart",
    "address": "Rue de Néringotte 26A",
    "city": "Ciney",
    "state": "Wallonie",
    "zip": 5590,
    "county": "",
    "phone": "+32 83 668075",
    "type": "",
    "ownership": "",
    "emergency": "",
    "quality": "",
    "LAT": 50.2461607,
    "LON": 5.1870566
  },
  "315": {
    "id": 10315,
    "name": "G. Veys",
    "address": "Ter Tommenstraat 2",
    "city": "Edegem",
    "state": "Vlaanderen",
    "zip": 2650,
    "county": "",
    "phone": "",
    "type": "",
    "ownership": "",
    "emergency": "",
    "quality": "",
    "LAT": 51.1636002,
    "LON": 4.4266452
  },
  "316": {
    "id": 10316,
    "name": "Gezondheidscentrum ALPE",
    "address": "nan 494",
    "city": "Herent",
    "state": "Vlaanderen",
    "zip": 3020,
    "county": "",
    "phone": "",
    "type": "",
    "ownership": "",
    "emergency": "",
    "quality": "",
    "LAT": 50.9072529,
    "LON": 4.6683258
  },
  "317": {
    "id": 10317,
    "name": "Groepsparktijk Hoogveldweg",
    "address": "Hoogveldweg 6",
    "city": "Leuven",
    "state": "Vlaanderen",
    "zip": 3012,
    "county": "",
    "phone": "",
    "type": "",
    "ownership": "",
    "emergency": "",
    "quality": "",
    "LAT": 50.9270432,
    "LON": 4.7195386
  },
  "318": {
    "id": 10318,
    "name": "Groepspraktijk",
    "address": "Mortselsesteenweg 204",
    "city": "Hove",
    "state": "Vlaanderen",
    "zip": 2540,
    "county": "",
    "phone": "",
    "type": "",
    "ownership": "",
    "emergency": "",
    "quality": "",
    "LAT": 51.1614795,
    "LON": 4.4708672
  },
  "319": {
    "id": 10319,
    "name": "Groepspraktijk DE FLINT",
    "address": "Frederik Lintsstraat 154",
    "city": "Leuven",
    "state": "Vlaanderen",
    "zip": 3000,
    "county": "",
    "phone": "+32 16 23 36 20",
    "type": "",
    "ownership": "",
    "emergency": "",
    "quality": "",
    "LAT": 50.8708893,
    "LON": 4.7069854
  },
  "320": {
    "id": 10320,
    "name": "Groepspraktijk De Bron",
    "address": "Driesstraat 43",
    "city": "Meise",
    "state": "Vlaanderen",
    "zip": 1861,
    "county": "",
    "phone": "",
    "type": "",
    "ownership": "",
    "emergency": "",
    "quality": "",
    "LAT": 50.9540791,
    "LON": 4.3037101
  },
  "321": {
    "id": 10321,
    "name": "Groepspraktijk De Dam",
    "address": "Oenselstraat 6",
    "city": "Maasmechelen",
    "state": "Vlaanderen",
    "zip": 3630,
    "county": "",
    "phone": "",
    "type": "",
    "ownership": "",
    "emergency": "",
    "quality": "",
    "LAT": 50.9633583,
    "LON": 5.7017057
  },
  "322": {
    "id": 10322,
    "name": "Groepspraktijk Het Pleintje",
    "address": "Pleinstraat 45",
    "city": "Heist-op-den-Berg",
    "state": "Vlaanderen",
    "zip": 2221,
    "county": "",
    "phone": "+32 15 22 56 76",
    "type": "",
    "ownership": "",
    "emergency": "",
    "quality": "",
    "LAT": 51.0498857,
    "LON": 4.7707398
  },
  "323": {
    "id": 10323,
    "name": "Groepspraktijk Nieuwelaan",
    "address": "Nieuwelaan 152",
    "city": "Meise",
    "state": "Vlaanderen",
    "zip": 1860,
    "county": "",
    "phone": "",
    "type": "",
    "ownership": "",
    "emergency": "",
    "quality": "",
    "LAT": 50.9397037,
    "LON": 4.3252985
  },
  "324": {
    "id": 10324,
    "name": "Haardstee",
    "address": "Acht Eeuwenlaan 51",
    "city": "Edegem",
    "state": "Vlaanderen",
    "zip": 2650,
    "county": "",
    "phone": "",
    "type": "",
    "ownership": "",
    "emergency": "",
    "quality": "",
    "LAT": 51.1537586,
    "LON": 4.4345564
  },
  "325": {
    "id": 10325,
    "name": "Halen Monique",
    "address": "Rue de Fexhe-Slins 13",
    "city": "Oupeye",
    "state": "Wallonie",
    "zip": 4680,
    "county": "",
    "phone": "",
    "type": "",
    "ownership": "",
    "emergency": "",
    "quality": "",
    "LAT": 50.707588,
    "LON": 5.6189101
  },
  "326": {
    "id": 10326,
    "name": "Harroy J",
    "address": "Rue Comhaire 39",
    "city": "Liège",
    "state": "Wallonie",
    "zip": 4000,
    "county": "",
    "phone": "",
    "type": "",
    "ownership": "",
    "emergency": "",
    "quality": "",
    "LAT": 50.6310727,
    "LON": 5.5547508
  },
  "327": {
    "id": 10327,
    "name": "Hauspy Frank",
    "address": "Eeklostraat 182",
    "city": "Gent",
    "state": "Vlaanderen",
    "zip": 9030,
    "county": "",
    "phone": "",
    "type": "",
    "ownership": "",
    "emergency": "",
    "quality": "",
    "LAT": 51.0779744,
    "LON": 3.6909754
  },
  "328": {
    "id": 10328,
    "name": "Heeren L.",
    "address": "Naamsesteenweg 101",
    "city": "Leuven",
    "state": "Vlaanderen",
    "zip": 3001,
    "county": "",
    "phone": "+32 16 22 12 32",
    "type": "",
    "ownership": "",
    "emergency": "",
    "quality": "",
    "LAT": 50.8657329,
    "LON": 4.6961527
  },
  "329": {
    "id": 10329,
    "name": "Huisarts",
    "address": "Bieststraat 221",
    "city": "Boortmeerbeek",
    "state": "Vlaanderen",
    "zip": 3191,
    "county": "",
    "phone": "",
    "type": "",
    "ownership": "",
    "emergency": "",
    "quality": "",
    "LAT": 50.9804816,
    "LON": 4.5305927
  },
  "330": {
    "id": 10330,
    "name": "Huisarts Heleen De Brabandere",
    "address": "Sleihagestraat 33",
    "city": "Staden",
    "state": "Vlaanderen",
    "zip": 8840,
    "county": "",
    "phone": "+32 51 22 10 14",
    "type": "",
    "ownership": "",
    "emergency": "",
    "quality": "",
    "LAT": 50.9426512,
    "LON": 3.0593269
  },
  "331": {
    "id": 10331,
    "name": "Huisartsen Corne",
    "address": "Menenstraat 301",
    "city": "Wevelgem",
    "state": "Vlaanderen",
    "zip": 8560,
    "county": "",
    "phone": "+32 56 40 09 25",
    "type": "",
    "ownership": "",
    "emergency": "",
    "quality": "",
    "LAT": 50.8036585,
    "LON": 3.162862
  },
  "332": {
    "id": 10332,
    "name": "Huisartsenhuis W-Vlaanderen",
    "address": "Hippoliet Spilleboutdreef 34",
    "city": "Roeselare",
    "state": "Vlaanderen",
    "zip": 8800,
    "county": "",
    "phone": "",
    "type": "",
    "ownership": "",
    "emergency": "",
    "quality": "",
    "LAT": 50.9377018,
    "LON": 3.1234095
  },
  "333": {
    "id": 10333,
    "name": "Huisartsenpraktijk",
    "address": "Stationsstraat 43",
    "city": "Beringen",
    "state": "Vlaanderen",
    "zip": 3581,
    "county": "",
    "phone": "",
    "type": "",
    "ownership": "",
    "emergency": "",
    "quality": "",
    "LAT": 51.0731188,
    "LON": 5.2227886
  },
  "334": {
    "id": 10334,
    "name": "Huisartsenpraktijk 'Den Boomgaard'",
    "address": "Boomgaardstraat 13",
    "city": "Aalter",
    "state": "Vlaanderen",
    "zip": 9880,
    "county": "",
    "phone": "",
    "type": "",
    "ownership": "",
    "emergency": "",
    "quality": "",
    "LAT": 51.0851569,
    "LON": 3.44929
  },
  "335": {
    "id": 10335,
    "name": "Huisartsenpraktijk Carlier-Schreurs-Ernens-Verbruggen",
    "address": "Thonissenlaan 92",
    "city": "Hasselt",
    "state": "Vlaanderen",
    "zip": 3500,
    "county": "",
    "phone": "",
    "type": "",
    "ownership": "",
    "emergency": "",
    "quality": "",
    "LAT": 50.9342672,
    "LON": 5.3364047
  },
  "336": {
    "id": 10336,
    "name": "Huisartsenpraktijk De Zilverberg",
    "address": "Karabiniersstraat 32",
    "city": "Roeselare",
    "state": "Vlaanderen",
    "zip": 8800,
    "county": "",
    "phone": "",
    "type": "",
    "ownership": "",
    "emergency": "",
    "quality": "",
    "LAT": 50.9205698,
    "LON": 3.1135093
  },
  "337": {
    "id": 10337,
    "name": "Huisartsenpraktijk Deben - Thumas - De Bondt",
    "address": "Mechelsestraat 194",
    "city": "Leuven",
    "state": "Vlaanderen",
    "zip": 3000,
    "county": "",
    "phone": "",
    "type": "",
    "ownership": "",
    "emergency": "No",
    "quality": "",
    "LAT": 50.886831,
    "LON": 4.6968251
  },
  "338": {
    "id": 10338,
    "name": "Huisartsenpraktijk Kumtich",
    "address": "Leuvenselaan 797",
    "city": "Tienen",
    "state": "Vlaanderen",
    "zip": 3300,
    "county": "",
    "phone": "",
    "type": "",
    "ownership": "",
    "emergency": "",
    "quality": "",
    "LAT": 50.8235601,
    "LON": 4.8880752
  },
  "339": {
    "id": 10339,
    "name": "Huisartsenpraktijk Molenbeersel",
    "address": "Oudekerkstraat 8/2",
    "city": "Kinrooi",
    "state": "Vlaanderen",
    "zip": 3640,
    "county": "",
    "phone": "",
    "type": "",
    "ownership": "",
    "emergency": "",
    "quality": "",
    "LAT": 51.1694601,
    "LON": 5.7356637
  },
  "340": {
    "id": 10340,
    "name": "Huisartsenpraktijk Netevallei",
    "address": "Broekstraat 17",
    "city": "Balen",
    "state": "Vlaanderen",
    "zip": 2491,
    "county": "",
    "phone": "+32 14 89 44 45",
    "type": "",
    "ownership": "",
    "emergency": "",
    "quality": "",
    "LAT": 51.143205,
    "LON": 5.1530613
  },
  "341": {
    "id": 10341,
    "name": "Huisartsenpraktijk Pastorie Roosbeek",
    "address": "Lubbeeksestraat 13",
    "city": "Boutersem",
    "state": "Vlaanderen",
    "zip": 3370,
    "county": "",
    "phone": "",
    "type": "",
    "ownership": "",
    "emergency": "",
    "quality": "",
    "LAT": 50.8332559,
    "LON": 4.8623467
  },
  "342": {
    "id": 10342,
    "name": "Huisartsenpraktijk Ruggeveld",
    "address": "August Van de Wielelei 83",
    "city": "Antwerpen",
    "state": "Vlaanderen",
    "zip": 2100,
    "county": "",
    "phone": "",
    "type": "",
    "ownership": "",
    "emergency": "",
    "quality": "",
    "LAT": 51.2194501,
    "LON": 4.4791214
  },
  "343": {
    "id": 10343,
    "name": "Huisartsenpraktijk Sint-Joris-Weert",
    "address": "Overwegstraat 14",
    "city": "Oud-Heverlee",
    "state": "Vlaanderen",
    "zip": 3051,
    "county": "",
    "phone": "+32 16 47 17 33",
    "type": "",
    "ownership": "",
    "emergency": "",
    "quality": "",
    "LAT": 50.8054585,
    "LON": 4.6494266
  },
  "344": {
    "id": 10344,
    "name": "Huisartsenpraktijk Verbeke",
    "address": "Groene Wandeling 24A",
    "city": "Waregem",
    "state": "Vlaanderen",
    "zip": 8793,
    "county": "",
    "phone": "+32 56 60 78 77",
    "type": "",
    "ownership": "",
    "emergency": "",
    "quality": "",
    "LAT": 50.8880635,
    "LON": 3.4128342
  },
  "345": {
    "id": 10345,
    "name": "Huisartsenwachtpost N16 (nieuw)",
    "address": "",
    "city": "Puurs-Sint-Amands",
    "state": "Vlaanderen",
    "zip": 2870,
    "county": "",
    "phone": "",
    "type": "",
    "ownership": "",
    "emergency": "",
    "quality": "",
    "LAT": 51.0776256,
    "LON": 4.2970768
  },
  "346": {
    "id": 10346,
    "name": "Ioana Paler",
    "address": "Place du Perron 33",
    "city": "Theux",
    "state": "Wallonie",
    "zip": 4910,
    "county": "",
    "phone": "",
    "type": "",
    "ownership": "",
    "emergency": "",
    "quality": "",
    "LAT": 50.5355527,
    "LON": 5.8127901
  },
  "347": {
    "id": 10347,
    "name": "J. Swannet",
    "address": "Sint-Amandsstraat 40",
    "city": "Roeselare",
    "state": "Vlaanderen",
    "zip": 8800,
    "county": "",
    "phone": "",
    "type": "",
    "ownership": "",
    "emergency": "",
    "quality": "",
    "LAT": 50.9481994,
    "LON": 3.1231696
  },
  "348": {
    "id": 10348,
    "name": "Jackers Dominique",
    "address": "Rue de Milmort 15",
    "city": "Oupeye",
    "state": "Wallonie",
    "zip": 4680,
    "county": "",
    "phone": "",
    "type": "",
    "ownership": "",
    "emergency": "",
    "quality": "",
    "LAT": 50.7074272,
    "LON": 5.6185519
  },
  "349": {
    "id": 10349,
    "name": "Jan Dominicus",
    "address": "Grote Heide 57",
    "city": "Pelt",
    "state": "Vlaanderen",
    "zip": 3910,
    "county": "",
    "phone": "",
    "type": "",
    "ownership": "",
    "emergency": "",
    "quality": "",
    "LAT": 51.2511051,
    "LON": 5.439671
  },
  "350": {
    "id": 10350,
    "name": "Jan Reniers",
    "address": "Paul van Tieghemlaan 27A",
    "city": "Gent",
    "state": "Vlaanderen",
    "zip": 9030,
    "county": "",
    "phone": "",
    "type": "",
    "ownership": "",
    "emergency": "",
    "quality": "",
    "LAT": 51.076898,
    "LON": 3.6819291
  },
  "351": {
    "id": 10351,
    "name": "Jan Van Boxem",
    "address": "Laarstraat 17",
    "city": "Rumst",
    "state": "Vlaanderen",
    "zip": 2840,
    "county": "",
    "phone": "",
    "type": "",
    "ownership": "",
    "emergency": "",
    "quality": "",
    "LAT": 51.101086,
    "LON": 4.4139103
  },
  "352": {
    "id": 10352,
    "name": "Javaux",
    "address": "Rue de Rocroi 20",
    "city": "Walcourt",
    "state": "Wallonie",
    "zip": 5650,
    "county": "",
    "phone": "",
    "type": "",
    "ownership": "",
    "emergency": "",
    "quality": "",
    "LAT": 50.2606225,
    "LON": 4.5076394
  },
  "353": {
    "id": 10353,
    "name": "Katrien Keppens",
    "address": "Zuidstraat 55",
    "city": "Roeselare",
    "state": "Vlaanderen",
    "zip": 8800,
    "county": "",
    "phone": "",
    "type": "",
    "ownership": "",
    "emergency": "",
    "quality": "",
    "LAT": 50.9418017,
    "LON": 3.1246979
  },
  "354": {
    "id": 10354,
    "name": "Kinesitherapeut Beyaert",
    "address": "Dorp 38",
    "city": "Nazareth",
    "state": "Vlaanderen",
    "zip": 9810,
    "county": "",
    "phone": "",
    "type": "",
    "ownership": "",
    "emergency": "",
    "quality": "",
    "LAT": 50.9598055,
    "LON": 3.5954676
  },
  "355": {
    "id": 10355,
    "name": "Kinesitherapie Lucia Vanden Eynde",
    "address": "Tiensesteenweg 350",
    "city": "Bierbeek",
    "state": "Vlaanderen",
    "zip": 3360,
    "county": "",
    "phone": "+32 479 48 61 95",
    "type": "",
    "ownership": "",
    "emergency": "",
    "quality": "",
    "LAT": 50.8532576,
    "LON": 4.8008946
  },
  "356": {
    "id": 10356,
    "name": "Kiné Isabelle Pochet",
    "address": "Rue de Glimes 7",
    "city": "Ramillies",
    "state": "Wallonie",
    "zip": 1367,
    "county": "",
    "phone": "+32 10 816 907;+32 472 92 19 55",
    "type": "",
    "ownership": "",
    "emergency": "",
    "quality": "",
    "LAT": 50.6907263,
    "LON": 4.8790194
  },
  "357": {
    "id": 10357,
    "name": "Kinésithérapie",
    "address": "Rue des Fougères 37",
    "city": "Montigny-le-Tilleul",
    "state": "Wallonie",
    "zip": 6110,
    "county": "",
    "phone": "",
    "type": "",
    "ownership": "",
    "emergency": "",
    "quality": "",
    "LAT": 50.3713098,
    "LON": 4.3604504
  },
  "358": {
    "id": 10358,
    "name": "L. Raport",
    "address": "Hertenstraat 9D",
    "city": "Wellen",
    "state": "Vlaanderen",
    "zip": 3831,
    "county": "",
    "phone": "+32 12 74 31 85",
    "type": "",
    "ownership": "",
    "emergency": "",
    "quality": "",
    "LAT": 50.8338779,
    "LON": 5.3354712
  },
  "359": {
    "id": 10359,
    "name": "Le Bureau Médical",
    "address": "Rue Bureau 72",
    "city": "Fléron",
    "state": "Wallonie",
    "zip": 4620,
    "county": "",
    "phone": "",
    "type": "",
    "ownership": "",
    "emergency": "",
    "quality": "",
    "LAT": 50.6132071,
    "LON": 5.6952155
  },
  "360": {
    "id": 10360,
    "name": "Le Polain M.",
    "address": "",
    "city": "Braine-le-Château",
    "state": "Wallonie",
    "zip": 1440,
    "county": "",
    "phone": "+32 2 366 18 17",
    "type": "",
    "ownership": "",
    "emergency": "",
    "quality": "",
    "LAT": 50.6783529,
    "LON": 4.2654836
  },
  "361": {
    "id": 10361,
    "name": "Lieve Coene",
    "address": "Emile Van Arenberghstraat 11",
    "city": "Leuven",
    "state": "Vlaanderen",
    "zip": 3000,
    "county": "",
    "phone": "+32 16 23 15 73",
    "type": "",
    "ownership": "",
    "emergency": "",
    "quality": "",
    "LAT": 50.8704398,
    "LON": 4.7012315
  },
  "362": {
    "id": 10362,
    "name": "Lieve Sevenants",
    "address": "",
    "city": "Aarschot",
    "state": "Vlaanderen",
    "zip": 3200,
    "county": "",
    "phone": "",
    "type": "",
    "ownership": "",
    "emergency": "",
    "quality": "",
    "LAT": 50.9953855,
    "LON": 4.8287885
  },
  "363": {
    "id": 10363,
    "name": "Linden en Van Torhout",
    "address": "Koning Albert I-laan 25",
    "city": "Roeselare",
    "state": "Vlaanderen",
    "zip": 8800,
    "county": "",
    "phone": "",
    "type": "",
    "ownership": "",
    "emergency": "",
    "quality": "",
    "LAT": 50.9433695,
    "LON": 3.1324334
  },
  "364": {
    "id": 10364,
    "name": "Luc Peeters",
    "address": "Paulusstraat 2",
    "city": "Brasschaat",
    "state": "Vlaanderen",
    "zip": 2930,
    "county": "",
    "phone": "",
    "type": "",
    "ownership": "",
    "emergency": "",
    "quality": "",
    "LAT": 51.2986083,
    "LON": 4.4699416
  },
  "365": {
    "id": 10365,
    "name": "M. Degraeve",
    "address": "Rijselstraat 10",
    "city": "Roeselare",
    "state": "Vlaanderen",
    "zip": 8800,
    "county": "",
    "phone": "",
    "type": "",
    "ownership": "",
    "emergency": "",
    "quality": "",
    "LAT": 50.9409362,
    "LON": 3.1232017
  },
  "366": {
    "id": 10366,
    "name": "M. Haspeslagh",
    "address": "Veldstraat 27",
    "city": "Roeselare",
    "state": "Vlaanderen",
    "zip": 8800,
    "county": "",
    "phone": "",
    "type": "",
    "ownership": "",
    "emergency": "",
    "quality": "",
    "LAT": 50.9420692,
    "LON": 3.1297001
  },
  "367": {
    "id": 10367,
    "name": "M. Terryn",
    "address": "Sint-Alfonsusstraat 11",
    "city": "Roeselare",
    "state": "Vlaanderen",
    "zip": 8800,
    "county": "",
    "phone": "",
    "type": "",
    "ownership": "",
    "emergency": "",
    "quality": "",
    "LAT": 50.9456084,
    "LON": 3.1271368
  },
  "368": {
    "id": 10368,
    "name": "MMS Maison Médicale de Spécialistes",
    "address": "Chaussée de Tirlemont 218D",
    "city": "Jodoigne",
    "state": "Wallonie",
    "zip": 1370,
    "county": "",
    "phone": "",
    "type": "",
    "ownership": "",
    "emergency": "",
    "quality": "",
    "LAT": 50.7365502,
    "LON": 4.881227
  },
  "369": {
    "id": 10369,
    "name": "Maison Médicale",
    "address": "Rue de l'Harmonie 106",
    "city": "Ohey",
    "state": "Wallonie",
    "zip": 5350,
    "county": "",
    "phone": "+32 85 61 10 73",
    "type": "",
    "ownership": "",
    "emergency": "",
    "quality": "",
    "LAT": 50.4369332,
    "LON": 5.1211568
  },
  "371": {
    "id": 10371,
    "name": "Maison médicale Couleurs Santé",
    "address": "Chaussée de Boondael - Boondaalse Steenweg 206",
    "city": "Elsene",
    "state": "",
    "zip": 1050,
    "county": "",
    "phone": "",
    "type": "",
    "ownership": "",
    "emergency": "",
    "quality": "",
    "LAT": 50.8215568,
    "LON": 4.3801058
  },
  "372": {
    "id": 10372,
    "name": "Malle terre Centre Medical",
    "address": "Grand-Route 75",
    "city": "Huy",
    "state": "Wallonie",
    "zip": 4500,
    "county": "",
    "phone": "",
    "type": "",
    "ownership": "",
    "emergency": "",
    "quality": "",
    "LAT": 50.5303168,
    "LON": 5.2619205
  },
  "373": {
    "id": 10373,
    "name": "Marinus Bart",
    "address": "de Ghellincklaan 1",
    "city": "Herentals",
    "state": "Vlaanderen",
    "zip": 2200,
    "county": "",
    "phone": "",
    "type": "",
    "ownership": "",
    "emergency": "",
    "quality": "",
    "LAT": 51.1396433,
    "LON": 4.8371759
  },
  "374": {
    "id": 10374,
    "name": "Marsic",
    "address": "Avenue de la Résistance 238",
    "city": "Soumagne",
    "state": "Wallonie",
    "zip": 4630,
    "county": "",
    "phone": "",
    "type": "",
    "ownership": "",
    "emergency": "",
    "quality": "",
    "LAT": 50.6309151,
    "LON": 5.7336469
  },
  "375": {
    "id": 10375,
    "name": "Maudens",
    "address": "",
    "city": "Wetteren",
    "state": "Vlaanderen",
    "zip": 9230,
    "county": "",
    "phone": "",
    "type": "",
    "ownership": "",
    "emergency": "",
    "quality": "",
    "LAT": 51.0009425,
    "LON": 3.889686
  },
  "376": {
    "id": 10376,
    "name": "Medecins Generalistes Reunis SPRLU",
    "address": "Rue des Capucines 3",
    "city": "Seraing",
    "state": "Wallonie",
    "zip": 4102,
    "county": "",
    "phone": "+32 4 336 13 03",
    "type": "",
    "ownership": "",
    "emergency": "",
    "quality": "",
    "LAT": 50.5881123,
    "LON": 5.5423654
  },
  "377": {
    "id": 10377,
    "name": "Medic S.P.R.L.U",
    "address": "Route de Gembloux 195",
    "city": "Eghezée",
    "state": "Wallonie",
    "zip": 5310,
    "county": "",
    "phone": "",
    "type": "",
    "ownership": "",
    "emergency": "",
    "quality": "",
    "LAT": 50.5987669,
    "LON": 4.8455368
  },
  "378": {
    "id": 10378,
    "name": "Medicentre Marc Thirion",
    "address": "Rue du Saivray 8A",
    "city": "Ciney",
    "state": "Wallonie",
    "zip": 5590,
    "county": "",
    "phone": "",
    "type": "",
    "ownership": "",
    "emergency": "",
    "quality": "",
    "LAT": 50.2517784,
    "LON": 5.2015143
  },
  "379": {
    "id": 10379,
    "name": "Médecine pour le Peuple",
    "address": "",
    "city": "Charleroi",
    "state": "Wallonie",
    "zip": 6001,
    "county": "",
    "phone": "",
    "type": "",
    "ownership": "",
    "emergency": "",
    "quality": "",
    "LAT": 50.3971385,
    "LON": 4.4411477
  },
  "380": {
    "id": 10380,
    "name": "Médimeuse",
    "address": "Rue du Fraichaux 5",
    "city": "Yvoir",
    "state": "Wallonie",
    "zip": 5530,
    "county": "",
    "phone": "",
    "type": "",
    "ownership": "",
    "emergency": "",
    "quality": "",
    "LAT": 50.3542426,
    "LON": 4.904081
  },
  "381": {
    "id": 10381,
    "name": "Oogart Knokke - Dr. Pinxten",
    "address": "Henry Van de Veldelaan 1",
    "city": "Knokke-Heist",
    "state": "Vlaanderen",
    "zip": 8300,
    "county": "",
    "phone": "",
    "type": "",
    "ownership": "",
    "emergency": "",
    "quality": "",
    "LAT": 51.3380584,
    "LON": 3.2845785
  },
  "382": {
    "id": 10382,
    "name": "Oogarts Seynaeve",
    "address": "Oostnieuwkerksesteenweg 53",
    "city": "Roeselare",
    "state": "Vlaanderen",
    "zip": 8800,
    "county": "",
    "phone": "",
    "type": "",
    "ownership": "",
    "emergency": "",
    "quality": "",
    "LAT": 50.9473771,
    "LON": 3.1049499
  },
  "383": {
    "id": 10383,
    "name": "Oogartsenpraktijk Alken",
    "address": "Meerdegatstraat 78A",
    "city": "Alken",
    "state": "Vlaanderen",
    "zip": 3570,
    "county": "",
    "phone": "",
    "type": "",
    "ownership": "",
    "emergency": "",
    "quality": "",
    "LAT": 50.8843188,
    "LON": 5.314582
  },
  "384": {
    "id": 10384,
    "name": "OrthoMedica",
    "address": "Astridlaan 114",
    "city": "Geraardsbergen",
    "state": "Vlaanderen",
    "zip": 9500,
    "county": "",
    "phone": "",
    "type": "",
    "ownership": "",
    "emergency": "",
    "quality": "",
    "LAT": 50.7796512,
    "LON": 3.8719665
  },
  "385": {
    "id": 10385,
    "name": "Osthéopathie",
    "address": "",
    "city": "Tubize",
    "state": "Wallonie",
    "zip": 1480,
    "county": "",
    "phone": "",
    "type": "",
    "ownership": "",
    "emergency": "",
    "quality": "",
    "LAT": 50.6945265,
    "LON": 4.2038704
  },
  "386": {
    "id": 10386,
    "name": "PRAKTIJKHUIS 94",
    "address": "nan 94",
    "city": "Herent",
    "state": "Vlaanderen",
    "zip": 3020,
    "county": "",
    "phone": "",
    "type": "",
    "ownership": "",
    "emergency": "",
    "quality": "",
    "LAT": 50.9045414,
    "LON": 4.6212064
  },
  "387": {
    "id": 10387,
    "name": "Paridaens",
    "address": "Kardinaal Cardijnstraat 25",
    "city": "Rumst",
    "state": "Vlaanderen",
    "zip": 2840,
    "county": "",
    "phone": "",
    "type": "",
    "ownership": "",
    "emergency": "",
    "quality": "",
    "LAT": 51.0796276,
    "LON": 4.3979516
  },
  "388": {
    "id": 10388,
    "name": "Paule Janssens",
    "address": "Avenue des Nations-Unies 71",
    "city": "Waterloo",
    "state": "Wallonie",
    "zip": 1410,
    "county": "",
    "phone": "+32 2 354 99 43",
    "type": "",
    "ownership": "",
    "emergency": "",
    "quality": "",
    "LAT": 50.729547,
    "LON": 4.3837963
  },
  "389": {
    "id": 10389,
    "name": "Peeters Johan",
    "address": "Polderkenslaan 19",
    "city": "Gent",
    "state": "Vlaanderen",
    "zip": 9030,
    "county": "",
    "phone": "",
    "type": "",
    "ownership": "",
    "emergency": "",
    "quality": "",
    "LAT": 51.0824808,
    "LON": 3.6713135
  },
  "390": {
    "id": 10390,
    "name": "Ph Williams",
    "address": "Hazeschransstraat 2",
    "city": "Edegem",
    "state": "Vlaanderen",
    "zip": 2650,
    "county": "",
    "phone": "",
    "type": "",
    "ownership": "",
    "emergency": "",
    "quality": "",
    "LAT": 51.1652529,
    "LON": 4.4259525
  },
  "391": {
    "id": 10391,
    "name": "Ph. Jacques - A. Robert",
    "address": "",
    "city": "Ham-sur-Heure-Nalinnes",
    "state": "Wallonie",
    "zip": 6120,
    "county": "",
    "phone": "",
    "type": "",
    "ownership": "",
    "emergency": "",
    "quality": "",
    "LAT": 50.3230856,
    "LON": 4.3837698
  },
  "392": {
    "id": 10392,
    "name": "Philip Noyez",
    "address": "Hooiland 9",
    "city": "Gent",
    "state": "Vlaanderen",
    "zip": 9030,
    "county": "",
    "phone": "",
    "type": "",
    "ownership": "",
    "emergency": "",
    "quality": "",
    "LAT": 51.0828477,
    "LON": 3.6725817
  },
  "393": {
    "id": 10393,
    "name": "Pierre Canivet",
    "address": "Rue de la Brasserie 4",
    "city": "Assesse",
    "state": "Wallonie",
    "zip": 5330,
    "county": "",
    "phone": "",
    "type": "",
    "ownership": "",
    "emergency": "",
    "quality": "",
    "LAT": 50.3697398,
    "LON": 5.0254143
  },
  "394": {
    "id": 10394,
    "name": "Pierre-Yves Devresse",
    "address": "Rue de Mianoye 29",
    "city": "Yvoir",
    "state": "Wallonie",
    "zip": 5530,
    "county": "",
    "phone": "",
    "type": "",
    "ownership": "",
    "emergency": "",
    "quality": "",
    "LAT": 50.3381835,
    "LON": 4.9845683
  },
  "395": {
    "id": 10395,
    "name": "Pieter Lievens",
    "address": "Ommegangstraat 4",
    "city": "Aalter",
    "state": "Vlaanderen",
    "zip": 9881,
    "county": "",
    "phone": "",
    "type": "",
    "ownership": "",
    "emergency": "",
    "quality": "",
    "LAT": 51.0860116,
    "LON": 3.4882438
  },
  "396": {
    "id": 10396,
    "name": "Planning Familial",
    "address": "Rue d'Omalius 9",
    "city": "Ciney",
    "state": "Wallonie",
    "zip": 5590,
    "county": "",
    "phone": "+32 83 22 07 07",
    "type": "",
    "ownership": "",
    "emergency": "",
    "quality": "",
    "LAT": 50.2949613,
    "LON": 5.0988911
  },
  "398": {
    "id": 10398,
    "name": "Poste médical de garde de Dinant",
    "address": "",
    "city": "Dinant",
    "state": "Wallonie",
    "zip": 5500,
    "county": "",
    "phone": "",
    "type": "",
    "ownership": "",
    "emergency": "",
    "quality": "",
    "LAT": 50.2643301,
    "LON": 4.9433036
  },
  "399": {
    "id": 10399,
    "name": "Potvin",
    "address": "Nieuwstraat 133",
    "city": "Rumst",
    "state": "Vlaanderen",
    "zip": 2840,
    "county": "",
    "phone": "",
    "type": "",
    "ownership": "",
    "emergency": "",
    "quality": "",
    "LAT": 51.0791348,
    "LON": 4.3994855
  },
  "400": {
    "id": 10400,
    "name": "Praktijk De Becker",
    "address": "Martelarenstraat 118",
    "city": "Vilvoorde",
    "state": "Vlaanderen",
    "zip": 1800,
    "county": "",
    "phone": "+32 2 252 18 44",
    "type": "",
    "ownership": "",
    "emergency": "",
    "quality": "",
    "LAT": 50.9301594,
    "LON": 4.4604892
  },
  "401": {
    "id": 10401,
    "name": "Praktijkhuis Baarle",
    "address": "Pastoor Van Herdegomstraat 17",
    "city": "Baarle-Nassau",
    "state": "",
    "zip": 5111,
    "county": "",
    "phone": "",
    "type": "",
    "ownership": "",
    "emergency": "",
    "quality": "",
    "LAT": 51.4407999,
    "LON": 4.9287829
  },
  "402": {
    "id": 10402,
    "name": "Radiologie Dr. Danneels",
    "address": "Molenstraat 102",
    "city": "Roeselare",
    "state": "Vlaanderen",
    "zip": 8800,
    "county": "",
    "phone": "",
    "type": "",
    "ownership": "",
    "emergency": "",
    "quality": "",
    "LAT": 50.9421937,
    "LON": 3.1156183
  },
  "403": {
    "id": 10403,
    "name": "Raes-Roex",
    "address": "Larkenstraat 34",
    "city": "Oudsbergen",
    "state": "Vlaanderen",
    "zip": 3670,
    "county": "",
    "phone": "",
    "type": "",
    "ownership": "",
    "emergency": "",
    "quality": "",
    "LAT": 51.1054544,
    "LON": 5.5561278
  },
  "404": {
    "id": 10404,
    "name": "RespiLiège",
    "address": "Rue Destriveaux 1",
    "city": "Liège",
    "state": "Wallonie",
    "zip": 4000,
    "county": "",
    "phone": "",
    "type": "",
    "ownership": "",
    "emergency": "",
    "quality": "",
    "LAT": 50.6348439,
    "LON": 5.5579883
  },
  "405": {
    "id": 10405,
    "name": "Schutz Sarah",
    "address": "Rue d'Omalius 30",
    "city": "Liège",
    "state": "Wallonie",
    "zip": 4000,
    "county": "",
    "phone": "",
    "type": "",
    "ownership": "",
    "emergency": "",
    "quality": "",
    "LAT": 50.6344194,
    "LON": 5.5582484
  },
  "406": {
    "id": 10406,
    "name": "Sophie Jacquart",
    "address": "Rue Pays de Liège 3A",
    "city": "Yvoir",
    "state": "Wallonie",
    "zip": 5530,
    "county": "",
    "phone": "",
    "type": "",
    "ownership": "",
    "emergency": "",
    "quality": "",
    "LAT": 50.3388278,
    "LON": 4.9827777
  },
  "407": {
    "id": 10407,
    "name": "Terwagne/Baudouin",
    "address": "nan 85",
    "city": "Couvin",
    "state": "Wallonie",
    "zip": 5660,
    "county": "",
    "phone": "",
    "type": "",
    "ownership": "",
    "emergency": "",
    "quality": "",
    "LAT": 50.0530651,
    "LON": 4.4930314
  },
  "408": {
    "id": 10408,
    "name": "Toussaint Paul",
    "address": "Rue de Fexhe-Slins 160",
    "city": "Oupeye",
    "state": "Wallonie",
    "zip": 4680,
    "county": "",
    "phone": "",
    "type": "",
    "ownership": "",
    "emergency": "",
    "quality": "",
    "LAT": 50.7167831,
    "LON": 5.5995176
  },
  "409": {
    "id": 10409,
    "name": "Uyttersprot",
    "address": "Rumbeeksesteenweg 235",
    "city": "Roeselare",
    "state": "Vlaanderen",
    "zip": 8800,
    "county": "",
    "phone": "+32 51 20 89 89",
    "type": "",
    "ownership": "",
    "emergency": "",
    "quality": "",
    "LAT": 50.9386658,
    "LON": 3.1344636
  },
  "410": {
    "id": 10410,
    "name": "Van 't Sestich",
    "address": "Van 't Sestichstraat 8",
    "city": "Leuven",
    "state": "Vlaanderen",
    "zip": 3000,
    "county": "",
    "phone": "",
    "type": "",
    "ownership": "",
    "emergency": "",
    "quality": "",
    "LAT": 50.8725008,
    "LON": 4.7026154
  },
  "411": {
    "id": 10411,
    "name": "Van Holsbeek",
    "address": "Meensesteenweg 177",
    "city": "Roeselare",
    "state": "Vlaanderen",
    "zip": 8800,
    "county": "",
    "phone": "",
    "type": "",
    "ownership": "",
    "emergency": "",
    "quality": "",
    "LAT": 50.9370627,
    "LON": 3.1213772
  },
  "412": {
    "id": 10412,
    "name": "Van Renterghem",
    "address": "Pinksterbloemstraat 6",
    "city": "Gent",
    "state": "Vlaanderen",
    "zip": 9030,
    "county": "",
    "phone": "",
    "type": "",
    "ownership": "",
    "emergency": "",
    "quality": "",
    "LAT": 51.0819338,
    "LON": 3.6845679
  },
  "413": {
    "id": 10413,
    "name": "Vanvyve - Wautier",
    "address": "Chaussée de Chastre 50",
    "city": "Sombreffe",
    "state": "Wallonie",
    "zip": 5140,
    "county": "",
    "phone": "",
    "type": "",
    "ownership": "",
    "emergency": "",
    "quality": "",
    "LAT": 50.5330267,
    "LON": 4.5980624
  },
  "414": {
    "id": 10414,
    "name": "Varendries",
    "address": "Eikvarenweg nan",
    "city": "Gent",
    "state": "Vlaanderen",
    "zip": 9031,
    "county": "",
    "phone": "",
    "type": "",
    "ownership": "",
    "emergency": "",
    "quality": "",
    "LAT": 51.0482151,
    "LON": 3.638975
  },
  "415": {
    "id": 10415,
    "name": "Verhaeghe",
    "address": "Ommegang Zuid 2",
    "city": "Staden",
    "state": "Vlaanderen",
    "zip": 8840,
    "county": "",
    "phone": "",
    "type": "",
    "ownership": "",
    "emergency": "",
    "quality": "",
    "LAT": 50.9297445,
    "LON": 3.0146639
  },
  "416": {
    "id": 10416,
    "name": "Vermeersch",
    "address": "Meensesteenweg 101",
    "city": "Roeselare",
    "state": "Vlaanderen",
    "zip": 8800,
    "county": "",
    "phone": "",
    "type": "",
    "ownership": "",
    "emergency": "",
    "quality": "",
    "LAT": 50.938991,
    "LON": 3.1218716
  },
  "417": {
    "id": 10417,
    "name": "Vileyn",
    "address": "Kerkstraat 200",
    "city": "Blankenberge",
    "state": "Vlaanderen",
    "zip": 8370,
    "county": "",
    "phone": "+32 50 41 31 79",
    "type": "",
    "ownership": "",
    "emergency": "",
    "quality": "",
    "LAT": 51.3092171,
    "LON": 3.1365332
  },
  "418": {
    "id": 10418,
    "name": "Villa Medica",
    "address": "Hoek 15-17",
    "city": "Rijkevorsel",
    "state": "Vlaanderen",
    "zip": 2310,
    "county": "",
    "phone": "",
    "type": "",
    "ownership": "",
    "emergency": "",
    "quality": "",
    "LAT": 51.3473339,
    "LON": 4.7599912
  },
  "419": {
    "id": 10419,
    "name": "William Sterckx",
    "address": "Stanislas De Rijcklaan 30",
    "city": "Leuven",
    "state": "Vlaanderen",
    "zip": 3001,
    "county": "",
    "phone": "+32 16 20 32 81",
    "type": "",
    "ownership": "",
    "emergency": "",
    "quality": "",
    "LAT": 50.8655389,
    "LON": 4.6988263
  },
  "420": {
    "id": 10420,
    "name": "Zorgpunt",
    "address": "nan 1E-H",
    "city": "Koekelare",
    "state": "Vlaanderen",
    "zip": 8680,
    "county": "",
    "phone": "",
    "type": "",
    "ownership": "",
    "emergency": "",
    "quality": "",
    "LAT": 51.0917626,
    "LON": 2.9800242
  },
  "421": {
    "id": 10421,
    "name": "dr. Logghe",
    "address": "Weststraat 55A",
    "city": "Roeselare",
    "state": "Vlaanderen",
    "zip": 8800,
    "county": "",
    "phone": "",
    "type": "",
    "ownership": "",
    "emergency": "",
    "quality": "",
    "LAT": 50.9487552,
    "LON": 3.1144976
  },
  "422": {
    "id": 10422,
    "name": "dr. Muliez",
    "address": "Hugo Verrieststraat 10",
    "city": "Roeselare",
    "state": "Vlaanderen",
    "zip": 8800,
    "county": "",
    "phone": "",
    "type": "",
    "ownership": "",
    "emergency": "",
    "quality": "",
    "LAT": 50.9495319,
    "LON": 3.1250196
  },
  "423": {
    "id": 10423,
    "name": "dr. Vanhemel",
    "address": "Boerenkrijglaan 24",
    "city": "Olen",
    "state": "Vlaanderen",
    "zip": 2250,
    "county": "",
    "phone": "",
    "type": "",
    "ownership": "",
    "emergency": "",
    "quality": "",
    "LAT": 51.1415353,
    "LON": 4.8662347
  },
  "424": {
    "id": 10424,
    "name": "gezondr.",
    "address": "Adriaen Willaertstraat 17",
    "city": "Roeselare",
    "state": "Vlaanderen",
    "zip": 8800,
    "county": "",
    "phone": "",
    "type": "",
    "ownership": "",
    "emergency": "",
    "quality": "",
    "LAT": 50.9501136,
    "LON": 3.1213891
  },
  "425": {
    "id": 10425,
    "name": "vzw ELG De Piramide",
    "address": "Vander Merschplein 10",
    "city": "Menen",
    "state": "Vlaanderen",
    "zip": 8930,
    "county": "",
    "phone": "",
    "type": "",
    "ownership": "",
    "emergency": "",
    "quality": "",
    "LAT": 50.7988067,
    "LON": 3.120079
  },
  "426": {
    "id": 10426,
    "name": "Érasme CMGU",
    "address": "Lenniksebaan 808",
    "city": "Anderlecht",
    "state": "",
    "zip": 1070,
    "county": "",
    "phone": "",
    "type": "",
    "ownership": "",
    "emergency": "",
    "quality": "",
    "LAT": 50.8137389,
    "LON": 4.2640162
  }
}