{
  "0": {
    "id": 10000,
    "name": "Biomedicínské centrum",
    "address": "",
    "city": "Plzeň",
    "state": "Plzeňský Kraj",
    "zip": "301 00",
    "county": "",
    "phone": "",
    "type": "",
    "ownership": "",
    "emergency": "",
    "quality": "",
    "LAT": 49.7623657,
    "LON": 13.3760559
  },
  "1": {
    "id": 10001,
    "name": "Bohumínská městská nemocnice",
    "address": "",
    "city": "Bohumín",
    "state": "Moravskoslezský Kraj",
    "zip": "735 81",
    "county": "",
    "phone": "",
    "type": "",
    "ownership": "",
    "emergency": "",
    "quality": "",
    "LAT": 49.917439,
    "LON": 18.3349987
  },
  "2": {
    "id": 10002,
    "name": "Centrum zdravotní péče",
    "address": "",
    "city": "Jirny",
    "state": "Středočeský Kraj",
    "zip": "250 90",
    "county": "",
    "phone": "",
    "type": "",
    "ownership": "",
    "emergency": "",
    "quality": "",
    "LAT": 50.1156539,
    "LON": 14.6990382
  },
  "3": {
    "id": 10003,
    "name": "Dětská léčebna Cvikov",
    "address": "",
    "city": "Cvikov",
    "state": "Liberecký Kraj",
    "zip": "471 54",
    "county": "",
    "phone": "",
    "type": "",
    "ownership": "",
    "emergency": "No",
    "quality": "",
    "LAT": 50.7845254,
    "LON": 14.6398659
  },
  "4": {
    "id": 10004,
    "name": "Dětská léčebna Dr. Filipa",
    "address": "",
    "city": "Poděbrady",
    "state": "Středočeský Kraj",
    "zip": "290 01",
    "county": "",
    "phone": "",
    "type": "",
    "ownership": "",
    "emergency": "",
    "quality": "",
    "LAT": 50.1468174,
    "LON": 15.1191849
  },
  "5": {
    "id": 10005,
    "name": "Dětské \"D",
    "address": "Mathonova 1",
    "city": "Prostějov",
    "state": "Olomoucký Kraj",
    "zip": "796 01",
    "county": "",
    "phone": "",
    "type": "",
    "ownership": "",
    "emergency": "",
    "quality": "",
    "LAT": 49.4749904,
    "LON": 17.0880731
  },
  "6": {
    "id": 10006,
    "name": "Emergency / Pohotovost",
    "address": "Purkyňovo náměstí 2",
    "city": "Třebíč",
    "state": "",
    "zip": "674 01",
    "county": "",
    "phone": "",
    "type": "",
    "ownership": "",
    "emergency": "",
    "quality": "",
    "LAT": 49.2129208,
    "LON": 15.8893403
  },
  "7": {
    "id": 10007,
    "name": "FN u sv. Anny",
    "address": "",
    "city": "Brno",
    "state": "Jihomoravský Kraj",
    "zip": "602 00",
    "county": "",
    "phone": "",
    "type": "",
    "ownership": "",
    "emergency": "",
    "quality": "",
    "LAT": 49.1888688,
    "LON": 16.601739
  },
  "8": {
    "id": 10008,
    "name": "FN u sv. Anny - Doléčovací a rehabilitační oddělení",
    "address": "",
    "city": "Brno",
    "state": "Jihomoravský Kraj",
    "zip": "634 00",
    "county": "",
    "phone": "",
    "type": "",
    "ownership": "",
    "emergency": "",
    "quality": "",
    "LAT": 49.1836666,
    "LON": 16.5605009
  },
  "9": {
    "id": 10009,
    "name": "Fakultní nemocnice",
    "address": "",
    "city": "Hradec Králové",
    "state": "Královéhradecký Kraj",
    "zip": "500 12",
    "county": "",
    "phone": "",
    "type": "",
    "ownership": "",
    "emergency": "Yes",
    "quality": "",
    "LAT": 50.2018747,
    "LON": 15.8250963
  },
  "10": {
    "id": 10010,
    "name": "Fakultní nemocnice Bohunice",
    "address": "",
    "city": "Brno",
    "state": "Jihomoravský Kraj",
    "zip": "625 00",
    "county": "",
    "phone": "",
    "type": "",
    "ownership": "",
    "emergency": "",
    "quality": "",
    "LAT": 49.176304,
    "LON": 16.5787082
  },
  "11": {
    "id": 10011,
    "name": "Fakultní nemocnice Královské Vinohrady",
    "address": "",
    "city": "Praha",
    "state": "Hlavní Město Praha",
    "zip": "100 00",
    "county": "",
    "phone": "",
    "type": "",
    "ownership": "",
    "emergency": "Yes",
    "quality": "",
    "LAT": 50.0761686,
    "LON": 14.473889
  },
  "12": {
    "id": 10012,
    "name": "Fakultní nemocnice Motol",
    "address": "V Úvalu 1",
    "city": "Praha",
    "state": "Hlavní Město Praha",
    "zip": "150 00",
    "county": "",
    "phone": "",
    "type": "",
    "ownership": "",
    "emergency": "",
    "quality": "",
    "LAT": 50.0749962,
    "LON": 14.3493238
  },
  "13": {
    "id": 10013,
    "name": "Fakultní nemocnice Olomouc",
    "address": "",
    "city": "Olomouc",
    "state": "Olomoucký Kraj",
    "zip": "779 00",
    "county": "",
    "phone": "",
    "type": "",
    "ownership": "",
    "emergency": "Yes",
    "quality": "",
    "LAT": 49.5818652,
    "LON": 17.2401479
  },
  "14": {
    "id": 10014,
    "name": "Fakultní nemocnice Ostrava",
    "address": "",
    "city": "Ostrava",
    "state": "Moravskoslezský Kraj",
    "zip": "708 00",
    "county": "",
    "phone": "",
    "type": "",
    "ownership": "",
    "emergency": "",
    "quality": "",
    "LAT": 49.8298762,
    "LON": 18.1620009
  },
  "15": {
    "id": 10015,
    "name": "Fakultní nemocnice Plzeň",
    "address": "Edvarda Beneše 13",
    "city": "Plzeň",
    "state": "Plzeňský Kraj",
    "zip": "301 00",
    "county": "",
    "phone": "",
    "type": "",
    "ownership": "",
    "emergency": "Yes",
    "quality": "",
    "LAT": 49.7334454,
    "LON": 13.3747185
  },
  "16": {
    "id": 10016,
    "name": "Fakultní poliklinika Všeobecné fakultní nemocnice v Praze",
    "address": "",
    "city": "Praha",
    "state": "Hlavní Město Praha",
    "zip": "120 00",
    "county": "",
    "phone": "+420 224 961 111",
    "type": "",
    "ownership": "",
    "emergency": "",
    "quality": "",
    "LAT": 50.0760429,
    "LON": 14.4213067
  },
  "17": {
    "id": 10017,
    "name": "Gynekologicko-porodnická klinika",
    "address": "",
    "city": "Praha",
    "state": "Hlavní Město Praha",
    "zip": "120 00",
    "county": "",
    "phone": "",
    "type": "",
    "ownership": "",
    "emergency": "",
    "quality": "",
    "LAT": 50.0706027,
    "LON": 14.4281035
  },
  "18": {
    "id": 10018,
    "name": "Gynekologická klinika",
    "address": "",
    "city": "Praha",
    "state": "Hlavní Město Praha",
    "zip": "198 00",
    "county": "",
    "phone": "",
    "type": "",
    "ownership": "",
    "emergency": "No",
    "quality": "",
    "LAT": 50.1029361,
    "LON": 14.5340441
  },
  "19": {
    "id": 10019,
    "name": "Hamzova dětská léčebna",
    "address": "",
    "city": "Luže",
    "state": "Pardubický Kraj",
    "zip": "538 54",
    "county": "",
    "phone": "",
    "type": "",
    "ownership": "",
    "emergency": "",
    "quality": "",
    "LAT": 49.8894985,
    "LON": 16.0309868
  },
  "20": {
    "id": 10020,
    "name": "Hornická nemocnice s poliklinikou",
    "address": "",
    "city": "Bílina",
    "state": "Ústecký Kraj",
    "zip": "418 01",
    "county": "",
    "phone": "",
    "type": "",
    "ownership": "",
    "emergency": "",
    "quality": "",
    "LAT": 50.5409057,
    "LON": 13.7827606
  },
  "21": {
    "id": 10021,
    "name": "Horní areál Nemocnice České Budějovice",
    "address": "B. Němcové 54",
    "city": "České Budějovice",
    "state": "Jihočeský Kraj",
    "zip": "370 01",
    "county": "",
    "phone": "",
    "type": "",
    "ownership": "",
    "emergency": "",
    "quality": "",
    "LAT": 48.9614081,
    "LON": 14.4702966
  },
  "22": {
    "id": 10022,
    "name": "Hospic",
    "address": "",
    "city": "Olomouc",
    "state": "Olomoucký Kraj",
    "zip": "779 00",
    "county": "",
    "phone": "",
    "type": "",
    "ownership": "",
    "emergency": "",
    "quality": "",
    "LAT": 49.6286189,
    "LON": 17.3383759
  },
  "23": {
    "id": 10023,
    "name": "IKEM",
    "address": "",
    "city": "Praha",
    "state": "Hlavní Město Praha",
    "zip": "140 00",
    "county": "",
    "phone": "",
    "type": "",
    "ownership": "",
    "emergency": "",
    "quality": "",
    "LAT": 50.0234508,
    "LON": 14.4661331
  },
  "24": {
    "id": 10024,
    "name": "IV. Poliklinika",
    "address": "",
    "city": "Plzeň",
    "state": "Plzeňský Kraj",
    "zip": "301 00",
    "county": "",
    "phone": "",
    "type": "",
    "ownership": "",
    "emergency": "",
    "quality": "",
    "LAT": 49.755017,
    "LON": 13.4163839
  },
  "25": {
    "id": 10025,
    "name": "Informace",
    "address": "Mathonova 1",
    "city": "Prostějov",
    "state": "Olomoucký Kraj",
    "zip": "796 01",
    "county": "",
    "phone": "",
    "type": "",
    "ownership": "",
    "emergency": "",
    "quality": "",
    "LAT": 49.4752958,
    "LON": 17.0874385
  },
  "26": {
    "id": 10026,
    "name": "Institut onkologie a rehabilitace Na Pleši",
    "address": "",
    "city": "Nová Ves pod Pleší",
    "state": "Středočeský Kraj",
    "zip": "262 04",
    "county": "",
    "phone": "",
    "type": "",
    "ownership": "",
    "emergency": "",
    "quality": "",
    "LAT": 49.8337334,
    "LON": 14.2894049
  },
  "27": {
    "id": 10027,
    "name": "Interna",
    "address": "",
    "city": "Zábřeh",
    "state": "Olomoucký Kraj",
    "zip": "789 01",
    "county": "",
    "phone": "",
    "type": "",
    "ownership": "",
    "emergency": "",
    "quality": "",
    "LAT": 49.882362,
    "LON": 16.8631438
  },
  "28": {
    "id": 10028,
    "name": "Jesenická nemocnice",
    "address": "",
    "city": "Jeseník",
    "state": "Olomoucký Kraj",
    "zip": "790 01",
    "county": "",
    "phone": "",
    "type": "",
    "ownership": "",
    "emergency": "",
    "quality": "",
    "LAT": 50.2279077,
    "LON": 17.1958735
  },
  "29": {
    "id": 10029,
    "name": "Karlovarská krajská nemocnice a.s.",
    "address": "Bezručova 19",
    "city": "Karlovy Vary",
    "state": "Karlovarský Kraj",
    "zip": "360 01",
    "county": "",
    "phone": "",
    "type": "",
    "ownership": "",
    "emergency": "",
    "quality": "",
    "LAT": 50.2338567,
    "LON": 12.8739682
  },
  "30": {
    "id": 10030,
    "name": "Klaudiánova nemocnice",
    "address": "třída Václava Klementa 23",
    "city": "Mladá Boleslav",
    "state": "Středočeský Kraj",
    "zip": "293 01",
    "county": "",
    "phone": "",
    "type": "",
    "ownership": "",
    "emergency": "Yes",
    "quality": "",
    "LAT": 50.4186549,
    "LON": 14.9105213
  },
  "31": {
    "id": 10031,
    "name": "Krajská nemocnice Liberec",
    "address": "Husova 10",
    "city": "Liberec",
    "state": "Liberecký Kraj",
    "zip": "460 01",
    "county": "",
    "phone": "",
    "type": "",
    "ownership": "",
    "emergency": "",
    "quality": "",
    "LAT": 50.7706674,
    "LON": 15.0637477
  },
  "32": {
    "id": 10032,
    "name": "Krajská nemocnice Tomáše Bati",
    "address": "",
    "city": "Zlín",
    "state": "Zlínský Kraj",
    "zip": "760 01",
    "county": "",
    "phone": "",
    "type": "",
    "ownership": "",
    "emergency": "",
    "quality": "",
    "LAT": 49.2286815,
    "LON": 17.6934465
  },
  "33": {
    "id": 10033,
    "name": "Krankenhaus Varnsdorf",
    "address": "",
    "city": "Varnsdorf",
    "state": "Ústecký Kraj",
    "zip": "407 47",
    "county": "",
    "phone": "",
    "type": "",
    "ownership": "",
    "emergency": "",
    "quality": "",
    "LAT": 50.8936783,
    "LON": 14.6100893
  },
  "34": {
    "id": 10034,
    "name": "LDN",
    "address": "",
    "city": "Mnichovo Hradiště",
    "state": "Středočeský Kraj",
    "zip": "295 01",
    "county": "",
    "phone": "",
    "type": "",
    "ownership": "",
    "emergency": "",
    "quality": "",
    "LAT": 50.5243566,
    "LON": 14.981427
  },
  "36": {
    "id": 10036,
    "name": "LRS Chvaly",
    "address": "",
    "city": "Praha",
    "state": "Hlavní Město Praha",
    "zip": "193 00",
    "county": "",
    "phone": "",
    "type": "",
    "ownership": "",
    "emergency": "",
    "quality": "",
    "LAT": 50.1084629,
    "LON": 14.5913942
  },
  "37": {
    "id": 10037,
    "name": "Lečební ústav Červená Voda",
    "address": "",
    "city": "Červená Voda",
    "state": "Pardubický Kraj",
    "zip": "561 61",
    "county": "",
    "phone": "+420 465 626 321",
    "type": "",
    "ownership": "",
    "emergency": "",
    "quality": "",
    "LAT": 50.0435679,
    "LON": 16.7355304
  },
  "38": {
    "id": 10038,
    "name": "Litomyšlská nemocnice",
    "address": "",
    "city": "Litomyšl",
    "state": "Pardubický Kraj",
    "zip": "570 01",
    "county": "",
    "phone": "+420 461 655 111",
    "type": "",
    "ownership": "",
    "emergency": "",
    "quality": "",
    "LAT": 49.8650749,
    "LON": 16.3120361
  },
  "39": {
    "id": 10039,
    "name": "Lužická nemocnice Rumburk",
    "address": "",
    "city": "Rumburk",
    "state": "Ústecký Kraj",
    "zip": "408 01",
    "county": "",
    "phone": "",
    "type": "",
    "ownership": "",
    "emergency": "",
    "quality": "",
    "LAT": 50.9489183,
    "LON": 14.5455313
  },
  "40": {
    "id": 10040,
    "name": "Léčebna TRN Janov",
    "address": "U léčebny 500",
    "city": "Mirošov",
    "state": "Plzeňský Kraj",
    "zip": "338 43",
    "county": "",
    "phone": "+420 371 512 111",
    "type": "",
    "ownership": "",
    "emergency": "",
    "quality": "",
    "LAT": 49.7048777,
    "LON": 13.6644218
  },
  "41": {
    "id": 10041,
    "name": "Léčebna dlouhodobě nemocných",
    "address": "",
    "city": "Ostrava",
    "state": "Moravskoslezský Kraj",
    "zip": "702 00",
    "county": "",
    "phone": "",
    "type": "",
    "ownership": "",
    "emergency": "",
    "quality": "",
    "LAT": 49.8188843,
    "LON": 18.3515394
  },
  "42": {
    "id": 10042,
    "name": "Léčebna pro dlouhodobě nemocné",
    "address": "",
    "city": "Brno",
    "state": "Jihomoravský Kraj",
    "zip": "639 00",
    "county": "",
    "phone": "",
    "type": "",
    "ownership": "",
    "emergency": "",
    "quality": "",
    "LAT": 49.1814112,
    "LON": 16.5858252
  },
  "43": {
    "id": 10043,
    "name": "Léčebna respiračních chorob pro dospělé",
    "address": "",
    "city": "Cvikov",
    "state": "Liberecký Kraj",
    "zip": "471 54",
    "county": "",
    "phone": "",
    "type": "",
    "ownership": "",
    "emergency": "",
    "quality": "",
    "LAT": 50.7901108,
    "LON": 14.6178512
  },
  "44": {
    "id": 10044,
    "name": "Masarykova městská nemocnice",
    "address": "",
    "city": "Jilemnice",
    "state": "Liberecký Kraj",
    "zip": "514 01",
    "county": "",
    "phone": "",
    "type": "",
    "ownership": "",
    "emergency": "",
    "quality": "",
    "LAT": 50.6130793,
    "LON": 15.4992293
  },
  "45": {
    "id": 10045,
    "name": "Masarykova nemocnice",
    "address": "",
    "city": "Ústí nad Labem",
    "state": "Ústecký Kraj",
    "zip": "400 11",
    "county": "",
    "phone": "",
    "type": "",
    "ownership": "",
    "emergency": "",
    "quality": "",
    "LAT": 50.6782292,
    "LON": 14.0264981
  },
  "48": {
    "id": 10048,
    "name": "Masarykovo sanatorium",
    "address": "",
    "city": "Dobříš",
    "state": "Středočeský Kraj",
    "zip": "263 01",
    "county": "",
    "phone": "",
    "type": "",
    "ownership": "",
    "emergency": "",
    "quality": "",
    "LAT": 49.7898517,
    "LON": 14.152698
  },
  "49": {
    "id": 10049,
    "name": "Mulačova nemocnice",
    "address": "",
    "city": "Plzeň",
    "state": "Plzeňský Kraj",
    "zip": "301 00",
    "county": "",
    "phone": "",
    "type": "",
    "ownership": "",
    "emergency": "",
    "quality": "",
    "LAT": 49.7275102,
    "LON": 13.369686
  },
  "50": {
    "id": 10050,
    "name": "Městská nemocnice Ostrava Fifejdy",
    "address": "",
    "city": "Ostrava",
    "state": "Moravskoslezský Kraj",
    "zip": "702 00",
    "county": "",
    "phone": "",
    "type": "",
    "ownership": "",
    "emergency": "",
    "quality": "",
    "LAT": 49.8347221,
    "LON": 18.2728561
  },
  "51": {
    "id": 10051,
    "name": "Městská nemocnice s poliklinikou Uh. Brod, s.r.o.",
    "address": "Partyzánů 2174",
    "city": "Uherský Brod",
    "state": "Zlínský Kraj",
    "zip": "688 01",
    "county": "",
    "phone": "",
    "type": "",
    "ownership": "",
    "emergency": "Yes",
    "quality": "",
    "LAT": 49.0289712,
    "LON": 17.6533259
  },
  "52": {
    "id": 10052,
    "name": "Městská nemocnice Čáslav",
    "address": "Jeníkovská 17",
    "city": "Čáslav",
    "state": "Středočeský Kraj",
    "zip": "286 01",
    "county": "",
    "phone": "",
    "type": "",
    "ownership": "",
    "emergency": "Yes",
    "quality": "",
    "LAT": 49.9032537,
    "LON": 15.4014539
  },
  "53": {
    "id": 10053,
    "name": "Městská poliklinika Slovany",
    "address": "Francouzská třída 2080/4",
    "city": "Plzeň",
    "state": "Plzeňský Kraj",
    "zip": "301 00",
    "county": "",
    "phone": "+420 378 014 111",
    "type": "",
    "ownership": "",
    "emergency": "",
    "quality": "",
    "LAT": 49.7310253,
    "LON": 13.4007278
  },
  "54": {
    "id": 10054,
    "name": "Nemocnice",
    "address": "",
    "city": "Příbram",
    "state": "Středočeský Kraj",
    "zip": "261 01",
    "county": "",
    "phone": "",
    "type": "",
    "ownership": "",
    "emergency": "",
    "quality": "",
    "LAT": 49.6918981,
    "LON": 14.0090978
  },
  "56": {
    "id": 10056,
    "name": "Nemocnice Boskovice",
    "address": "",
    "city": "Boskovice",
    "state": "Jihomoravský Kraj",
    "zip": "680 01",
    "county": "",
    "phone": "",
    "type": "",
    "ownership": "",
    "emergency": "",
    "quality": "",
    "LAT": 49.4916452,
    "LON": 16.6433953
  },
  "57": {
    "id": 10057,
    "name": "Nemocnice Brandýs nad Labem",
    "address": "",
    "city": "Brandýs nad Labem-Stará Boleslav",
    "state": "Středočeský Kraj",
    "zip": "250 01",
    "county": "",
    "phone": "",
    "type": "",
    "ownership": "",
    "emergency": "",
    "quality": "",
    "LAT": 50.1870451,
    "LON": 14.6514864
  },
  "58": {
    "id": 10058,
    "name": "Nemocnice Bílovec",
    "address": "",
    "city": "Bílovec",
    "state": "Moravskoslezský Kraj",
    "zip": "743 01",
    "county": "",
    "phone": "",
    "type": "",
    "ownership": "",
    "emergency": "",
    "quality": "",
    "LAT": 49.7642479,
    "LON": 18.0164834
  },
  "59": {
    "id": 10059,
    "name": "Nemocnice Břeclav p.o.",
    "address": "U Nemocnice 1",
    "city": "Břeclav",
    "state": "Jihomoravský Kraj",
    "zip": "691 41",
    "county": "",
    "phone": "",
    "type": "",
    "ownership": "",
    "emergency": "",
    "quality": "",
    "LAT": 48.7514291,
    "LON": 16.8817671
  },
  "60": {
    "id": 10060,
    "name": "Nemocnice Cheb",
    "address": "K Nemocnici 17",
    "city": "Cheb",
    "state": "Karlovarský Kraj",
    "zip": "350 02",
    "county": "",
    "phone": "",
    "type": "",
    "ownership": "",
    "emergency": "",
    "quality": "",
    "LAT": 50.0692705,
    "LON": 12.3631789
  },
  "61": {
    "id": 10061,
    "name": "Nemocnice Chomutov",
    "address": "",
    "city": "Chomutov",
    "state": "Ústecký Kraj",
    "zip": "430 01",
    "county": "",
    "phone": "",
    "type": "",
    "ownership": "",
    "emergency": "",
    "quality": "",
    "LAT": 50.4537741,
    "LON": 13.4064808
  },
  "62": {
    "id": 10062,
    "name": "Nemocnice Děčín",
    "address": "",
    "city": "Děčín",
    "state": "Ústecký Kraj",
    "zip": "405 02",
    "county": "",
    "phone": "",
    "type": "",
    "ownership": "",
    "emergency": "",
    "quality": "",
    "LAT": 50.782775,
    "LON": 14.2249729
  },
  "63": {
    "id": 10063,
    "name": "Nemocnice Frýdek-Místek",
    "address": "",
    "city": "Frýdek-Místek",
    "state": "Moravskoslezský Kraj",
    "zip": "738 01",
    "county": "",
    "phone": "",
    "type": "",
    "ownership": "",
    "emergency": "",
    "quality": "",
    "LAT": 49.6909182,
    "LON": 18.3565468
  },
  "64": {
    "id": 10064,
    "name": "Nemocnice Hořovice",
    "address": "K Nemocnici 14",
    "city": "Hořovice",
    "state": "Středočeský Kraj",
    "zip": "268 01",
    "county": "",
    "phone": "",
    "type": "",
    "ownership": "",
    "emergency": "",
    "quality": "",
    "LAT": 49.8403843,
    "LON": 13.9136748
  },
  "65": {
    "id": 10065,
    "name": "Nemocnice Hranice",
    "address": "",
    "city": "Hranice",
    "state": "Olomoucký Kraj",
    "zip": "753 01",
    "county": "",
    "phone": "",
    "type": "",
    "ownership": "",
    "emergency": "",
    "quality": "",
    "LAT": 49.5548959,
    "LON": 17.7438825
  },
  "66": {
    "id": 10066,
    "name": "Nemocnice Hustopeče p.o.",
    "address": "",
    "city": "Hustopeče",
    "state": "Jihomoravský Kraj",
    "zip": "693 01",
    "county": "",
    "phone": "",
    "type": "",
    "ownership": "",
    "emergency": "",
    "quality": "",
    "LAT": 48.9456103,
    "LON": 16.7301701
  },
  "67": {
    "id": 10067,
    "name": "Nemocnice Ivančice",
    "address": "Široká 16",
    "city": "Ivančice",
    "state": "Jihomoravský Kraj",
    "zip": "664 91",
    "county": "",
    "phone": "",
    "type": "",
    "ownership": "",
    "emergency": "Yes",
    "quality": "",
    "LAT": 49.1018213,
    "LON": 16.3714762
  },
  "68": {
    "id": 10068,
    "name": "Nemocnice Jihlava",
    "address": "",
    "city": "Jihlava",
    "state": "",
    "zip": "586 01",
    "county": "",
    "phone": "",
    "type": "",
    "ownership": "",
    "emergency": "Yes",
    "quality": "",
    "LAT": 49.3988566,
    "LON": 15.5701361
  },
  "69": {
    "id": 10069,
    "name": "Nemocnice Klatovy",
    "address": "",
    "city": "Klatovy",
    "state": "Plzeňský Kraj",
    "zip": "339 01",
    "county": "",
    "phone": "",
    "type": "",
    "ownership": "",
    "emergency": "",
    "quality": "",
    "LAT": 49.4045239,
    "LON": 13.2919049
  },
  "70": {
    "id": 10070,
    "name": "Nemocnice Kutná Hora",
    "address": "",
    "city": "Kutná Hora",
    "state": "Středočeský Kraj",
    "zip": "284 01",
    "county": "",
    "phone": "",
    "type": "",
    "ownership": "",
    "emergency": "Yes",
    "quality": "",
    "LAT": 49.9469531,
    "LON": 15.2511758
  },
  "71": {
    "id": 10071,
    "name": "Nemocnice Kyjov",
    "address": "",
    "city": "Kyjov",
    "state": "Jihomoravský Kraj",
    "zip": "697 01",
    "county": "",
    "phone": "",
    "type": "",
    "ownership": "",
    "emergency": "Yes",
    "quality": "",
    "LAT": 49.0104209,
    "LON": 17.1096008
  },
  "72": {
    "id": 10072,
    "name": "Nemocnice Mariánské Lázně",
    "address": "",
    "city": "Mariánské Lázně",
    "state": "Karlovarský Kraj",
    "zip": "353 01",
    "county": "",
    "phone": "",
    "type": "",
    "ownership": "",
    "emergency": "",
    "quality": "",
    "LAT": 49.9602198,
    "LON": 12.7043505
  },
  "73": {
    "id": 10073,
    "name": "Nemocnice Milosrdných bratří",
    "address": "",
    "city": "Vizovice",
    "state": "Zlínský Kraj",
    "zip": "763 12",
    "county": "",
    "phone": "",
    "type": "",
    "ownership": "",
    "emergency": "",
    "quality": "",
    "LAT": 49.2191713,
    "LON": 17.8502021
  },
  "75": {
    "id": 10075,
    "name": "Nemocnice Milosrdných bratří Letovice",
    "address": "",
    "city": "Letovice",
    "state": "Jihomoravský Kraj",
    "zip": "679 61",
    "county": "",
    "phone": "",
    "type": "",
    "ownership": "",
    "emergency": "",
    "quality": "",
    "LAT": 49.5448366,
    "LON": 16.5790725
  },
  "76": {
    "id": 10076,
    "name": "Nemocnice Most",
    "address": "",
    "city": "Most",
    "state": "Ústecký Kraj",
    "zip": "434 01",
    "county": "",
    "phone": "",
    "type": "",
    "ownership": "",
    "emergency": "Yes",
    "quality": "",
    "LAT": 50.5088243,
    "LON": 13.6232669
  },
  "77": {
    "id": 10077,
    "name": "Nemocnice Mělník",
    "address": "",
    "city": "Mělník",
    "state": "Středočeský Kraj",
    "zip": "276 01",
    "county": "",
    "phone": "",
    "type": "",
    "ownership": "",
    "emergency": "Yes",
    "quality": "",
    "LAT": 50.3476392,
    "LON": 14.4831661
  },
  "78": {
    "id": 10078,
    "name": "Nemocnice Na Bulovce",
    "address": "Budínova 2",
    "city": "Praha",
    "state": "Hlavní Město Praha",
    "zip": "180 00",
    "county": "",
    "phone": "",
    "type": "",
    "ownership": "",
    "emergency": "Yes",
    "quality": "",
    "LAT": 50.1155676,
    "LON": 14.4646655
  },
  "79": {
    "id": 10079,
    "name": "Nemocnice Na Homolce",
    "address": "Roentgenova 2",
    "city": "Praha",
    "state": "Hlavní Město Praha",
    "zip": "150 00",
    "county": "",
    "phone": "",
    "type": "",
    "ownership": "",
    "emergency": "",
    "quality": "",
    "LAT": 50.0736721,
    "LON": 14.3527297
  },
  "80": {
    "id": 10080,
    "name": "Nemocnice Na Strahově",
    "address": "Šermířská 1921/4",
    "city": "Praha",
    "state": "Hlavní Město Praha",
    "zip": "160 00",
    "county": "",
    "phone": "+420 225 003 111",
    "type": "",
    "ownership": "",
    "emergency": "No",
    "quality": "",
    "LAT": 50.0792136,
    "LON": 14.3911833
  },
  "81": {
    "id": 10081,
    "name": "Nemocnice Nový Bydžov",
    "address": "",
    "city": "Nový Bydžov",
    "state": "Královéhradecký Kraj",
    "zip": "504 01",
    "county": "",
    "phone": "",
    "type": "",
    "ownership": "",
    "emergency": "",
    "quality": "",
    "LAT": 50.2441356,
    "LON": 15.4804126
  },
  "82": {
    "id": 10082,
    "name": "Nemocnice Nový Jičín",
    "address": "Purkyňova 16",
    "city": "Nový Jičín",
    "state": "Moravskoslezský Kraj",
    "zip": "741 01",
    "county": "",
    "phone": "",
    "type": "",
    "ownership": "",
    "emergency": "",
    "quality": "",
    "LAT": 49.5886731,
    "LON": 18.0073401
  },
  "83": {
    "id": 10083,
    "name": "Nemocnice Nymburk",
    "address": "",
    "city": "Nymburk",
    "state": "Středočeský Kraj",
    "zip": "288 02",
    "county": "",
    "phone": "",
    "type": "",
    "ownership": "",
    "emergency": "Yes",
    "quality": "",
    "LAT": 50.1876453,
    "LON": 15.0363042
  },
  "84": {
    "id": 10084,
    "name": "Nemocnice Odry",
    "address": "",
    "city": "Odry",
    "state": "Moravskoslezský Kraj",
    "zip": "742 35",
    "county": "",
    "phone": "",
    "type": "",
    "ownership": "",
    "emergency": "",
    "quality": "",
    "LAT": 49.6653837,
    "LON": 17.8284277
  },
  "85": {
    "id": 10085,
    "name": "Nemocnice Pelhřimov",
    "address": "",
    "city": "Pelhřimov",
    "state": "",
    "zip": "393 01",
    "county": "",
    "phone": "",
    "type": "",
    "ownership": "",
    "emergency": "",
    "quality": "",
    "LAT": 49.4330302,
    "LON": 15.2285851
  },
  "86": {
    "id": 10086,
    "name": "Nemocnice Podlesí, a.s.",
    "address": "",
    "city": "Třinec",
    "state": "Moravskoslezský Kraj",
    "zip": "739 61",
    "county": "",
    "phone": "",
    "type": "",
    "ownership": "",
    "emergency": "",
    "quality": "",
    "LAT": 49.6816749,
    "LON": 18.6406928
  },
  "87": {
    "id": 10087,
    "name": "Nemocnice Prachatice",
    "address": "",
    "city": "Prachatice",
    "state": "Jihočeský Kraj",
    "zip": "383 01",
    "county": "",
    "phone": "",
    "type": "",
    "ownership": "",
    "emergency": "",
    "quality": "",
    "LAT": 49.008426,
    "LON": 14.0099671
  },
  "88": {
    "id": 10088,
    "name": "Nemocnice Prostějov",
    "address": "Mathonova 1",
    "city": "Prostějov",
    "state": "Olomoucký Kraj",
    "zip": "796 01",
    "county": "",
    "phone": "",
    "type": "",
    "ownership": "",
    "emergency": "Yes",
    "quality": "",
    "LAT": 49.4773831,
    "LON": 17.0832354
  },
  "89": {
    "id": 10089,
    "name": "Nemocnice Písek, a.s.",
    "address": "",
    "city": "Písek",
    "state": "Jihočeský Kraj",
    "zip": "397 01",
    "county": "",
    "phone": "",
    "type": "",
    "ownership": "",
    "emergency": "",
    "quality": "",
    "LAT": 49.3010675,
    "LON": 14.1548704
  },
  "90": {
    "id": 10090,
    "name": "Nemocnice Přerov",
    "address": "",
    "city": "Přerov",
    "state": "Olomoucký Kraj",
    "zip": "750 02",
    "county": "",
    "phone": "",
    "type": "",
    "ownership": "",
    "emergency": "Yes",
    "quality": "",
    "LAT": 49.4576644,
    "LON": 17.4764317
  },
  "91": {
    "id": 10091,
    "name": "Nemocnice Rokycany",
    "address": "",
    "city": "Rokycany",
    "state": "Plzeňský Kraj",
    "zip": "337 01",
    "county": "",
    "phone": "",
    "type": "",
    "ownership": "",
    "emergency": "Yes",
    "quality": "",
    "LAT": 49.7472337,
    "LON": 13.6040944
  },
  "92": {
    "id": 10092,
    "name": "Nemocnice Rudolfa a Stefanie Benešov",
    "address": "",
    "city": "Benešov",
    "state": "Středočeský Kraj",
    "zip": "256 01",
    "county": "",
    "phone": "",
    "type": "",
    "ownership": "",
    "emergency": "Yes",
    "quality": "",
    "LAT": 49.7874858,
    "LON": 14.6822282
  },
  "93": {
    "id": 10093,
    "name": "Nemocnice Sedlčany",
    "address": "Tyršova 161",
    "city": "Sedlčany",
    "state": "Středočeský Kraj",
    "zip": "264 01",
    "county": "",
    "phone": "",
    "type": "",
    "ownership": "",
    "emergency": "",
    "quality": "",
    "LAT": 49.6586197,
    "LON": 14.4257929
  },
  "94": {
    "id": 10094,
    "name": "Nemocnice Semily",
    "address": "",
    "city": "Semily",
    "state": "Liberecký Kraj",
    "zip": "513 01",
    "county": "",
    "phone": "",
    "type": "",
    "ownership": "",
    "emergency": "",
    "quality": "",
    "LAT": 50.5977294,
    "LON": 15.351685
  },
  "95": {
    "id": 10095,
    "name": "Nemocnice Slaný",
    "address": "",
    "city": "Slaný",
    "state": "Středočeský Kraj",
    "zip": "274 01",
    "county": "",
    "phone": "",
    "type": "",
    "ownership": "",
    "emergency": "",
    "quality": "",
    "LAT": 50.2352308,
    "LON": 14.0854517
  },
  "96": {
    "id": 10096,
    "name": "Nemocnice TGM",
    "address": "Purkyňova 11",
    "city": "Hodonín",
    "state": "Jihomoravský Kraj",
    "zip": "695 01",
    "county": "",
    "phone": "",
    "type": "",
    "ownership": "",
    "emergency": "",
    "quality": "",
    "LAT": 48.86416,
    "LON": 17.1449975
  },
  "97": {
    "id": 10097,
    "name": "Nemocnice Tanvald",
    "address": "",
    "city": "Tanvald",
    "state": "Liberecký Kraj",
    "zip": "468 41",
    "county": "",
    "phone": "",
    "type": "",
    "ownership": "",
    "emergency": "Yes",
    "quality": "",
    "LAT": 50.7402699,
    "LON": 15.3009296
  },
  "98": {
    "id": 10098,
    "name": "Nemocnice Teplice",
    "address": "",
    "city": "Teplice",
    "state": "Ústecký Kraj",
    "zip": "415 01",
    "county": "",
    "phone": "",
    "type": "",
    "ownership": "",
    "emergency": "",
    "quality": "",
    "LAT": 50.6358639,
    "LON": 13.80842
  },
  "99": {
    "id": 10099,
    "name": "Nemocnice Tábor, a.s.",
    "address": "Kapitána Jaroše 10",
    "city": "Tábor",
    "state": "Jihočeský Kraj",
    "zip": "390 03",
    "county": "",
    "phone": "",
    "type": "",
    "ownership": "",
    "emergency": "Yes",
    "quality": "",
    "LAT": 49.4181039,
    "LON": 14.6509461
  },
  "100": {
    "id": 10100,
    "name": "Nemocnice Třebíč",
    "address": "",
    "city": "Třebíč",
    "state": "",
    "zip": "674 01",
    "county": "",
    "phone": "",
    "type": "",
    "ownership": "",
    "emergency": "",
    "quality": "",
    "LAT": 49.2131406,
    "LON": 15.8884389
  },
  "101": {
    "id": 10101,
    "name": "Nemocnice Třinec",
    "address": "",
    "city": "Třinec",
    "state": "Moravskoslezský Kraj",
    "zip": "739 61",
    "county": "",
    "phone": "",
    "type": "",
    "ownership": "",
    "emergency": "",
    "quality": "",
    "LAT": 49.6728078,
    "LON": 18.6900448
  },
  "102": {
    "id": 10102,
    "name": "Nemocnice Valtice",
    "address": "",
    "city": "Valtice",
    "state": "Jihomoravský Kraj",
    "zip": "691 42",
    "county": "",
    "phone": "",
    "type": "",
    "ownership": "",
    "emergency": "",
    "quality": "",
    "LAT": 48.7444524,
    "LON": 16.7592693
  },
  "103": {
    "id": 10103,
    "name": "Nemocnice Vrchlabí",
    "address": "",
    "city": "Vrchlabí",
    "state": "Královéhradecký Kraj",
    "zip": "543 01",
    "county": "",
    "phone": "",
    "type": "",
    "ownership": "",
    "emergency": "",
    "quality": "",
    "LAT": 50.6229274,
    "LON": 15.6050718
  },
  "104": {
    "id": 10104,
    "name": "Nemocnice Vsetín",
    "address": "",
    "city": "Vsetín",
    "state": "Zlínský Kraj",
    "zip": "755 01",
    "county": "",
    "phone": "",
    "type": "",
    "ownership": "",
    "emergency": "",
    "quality": "",
    "LAT": 49.3313526,
    "LON": 17.9976375
  },
  "105": {
    "id": 10105,
    "name": "Nemocnice Vysoké Mýto",
    "address": "",
    "city": "Vysoké Mýto",
    "state": "Pardubický Kraj",
    "zip": "566 01",
    "county": "",
    "phone": "",
    "type": "",
    "ownership": "",
    "emergency": "",
    "quality": "",
    "LAT": 49.9552098,
    "LON": 16.1507315
  },
  "106": {
    "id": 10106,
    "name": "Nemocnice Vyškov",
    "address": "Purkyňova 36",
    "city": "Vyškov",
    "state": "Jihomoravský Kraj",
    "zip": "682 01",
    "county": "",
    "phone": "",
    "type": "",
    "ownership": "",
    "emergency": "Yes",
    "quality": "",
    "LAT": 49.2768252,
    "LON": 16.9824803
  },
  "107": {
    "id": 10107,
    "name": "Nemocnice následné péče",
    "address": "Jana Žižky 1304/1",
    "city": "Most",
    "state": "Ústecký Kraj",
    "zip": "434 01",
    "county": "",
    "phone": "",
    "type": "",
    "ownership": "",
    "emergency": "",
    "quality": "",
    "LAT": 50.5164111,
    "LON": 13.6337728
  },
  "109": {
    "id": 10109,
    "name": "Nemocnice následné péče Moravská Třebová",
    "address": "",
    "city": "Moravská Třebová",
    "state": "Pardubický Kraj",
    "zip": "571 01",
    "county": "",
    "phone": "",
    "type": "",
    "ownership": "",
    "emergency": "",
    "quality": "",
    "LAT": 49.7575601,
    "LON": 16.6540855
  },
  "110": {
    "id": 10110,
    "name": "Nemocnice následné péče Svatá Anna",
    "address": "",
    "city": "Planá",
    "state": "Plzeňský Kraj",
    "zip": "348 15",
    "county": "",
    "phone": "+420 374 751 911",
    "type": "",
    "ownership": "",
    "emergency": "",
    "quality": "",
    "LAT": 49.8797648,
    "LON": 12.7214363
  },
  "111": {
    "id": 10111,
    "name": "Nemocnice s poliklinikou Havířov",
    "address": "",
    "city": "Havířov",
    "state": "Moravskoslezský Kraj",
    "zip": "736 01",
    "county": "",
    "phone": "",
    "type": "",
    "ownership": "",
    "emergency": "",
    "quality": "",
    "LAT": 49.7817511,
    "LON": 18.4402209
  },
  "112": {
    "id": 10112,
    "name": "Nemocnice s poliklinikou Kadaň",
    "address": "",
    "city": "Kadaň",
    "state": "Ústecký Kraj",
    "zip": "432 01",
    "county": "",
    "phone": "",
    "type": "",
    "ownership": "",
    "emergency": "",
    "quality": "",
    "LAT": 50.3903195,
    "LON": 13.2688283
  },
  "113": {
    "id": 10113,
    "name": "Nemocnice s poliklinikou Karviná-Ráj pracoviště Orlová",
    "address": "",
    "city": "Orlová",
    "state": "Moravskoslezský Kraj",
    "zip": "735 14",
    "county": "",
    "phone": "",
    "type": "",
    "ownership": "",
    "emergency": "Yes",
    "quality": "",
    "LAT": 49.8746773,
    "LON": 18.4333752
  },
  "114": {
    "id": 10114,
    "name": "Nemocnice v Podhájí",
    "address": "",
    "city": "Rumburk",
    "state": "Ústecký Kraj",
    "zip": "408 01",
    "county": "",
    "phone": "",
    "type": "",
    "ownership": "",
    "emergency": "",
    "quality": "",
    "LAT": 50.9462416,
    "LON": 14.5410669
  },
  "115": {
    "id": 10115,
    "name": "Nemocnice Česká Lípa",
    "address": "",
    "city": "Česká Lípa",
    "state": "Liberecký Kraj",
    "zip": "470 01",
    "county": "",
    "phone": "",
    "type": "",
    "ownership": "",
    "emergency": "Yes",
    "quality": "",
    "LAT": 50.6850347,
    "LON": 14.5465999
  },
  "116": {
    "id": 10116,
    "name": "Nemocnice Český Krumlov",
    "address": "Na Moráni nan",
    "city": "Český Krumlov",
    "state": "Jihočeský Kraj",
    "zip": "381 01",
    "county": "",
    "phone": "",
    "type": "",
    "ownership": "",
    "emergency": "Yes",
    "quality": "",
    "LAT": 48.8123869,
    "LON": 14.3242762
  },
  "117": {
    "id": 10117,
    "name": "Nemocnice Český Těšín",
    "address": "",
    "city": "Český Těšín",
    "state": "Moravskoslezský Kraj",
    "zip": "737 01",
    "county": "",
    "phone": "",
    "type": "",
    "ownership": "",
    "emergency": "",
    "quality": "",
    "LAT": 49.7449126,
    "LON": 18.6088257
  },
  "118": {
    "id": 10118,
    "name": "Nemocnice Žatec",
    "address": "",
    "city": "Žatec",
    "state": "Ústecký Kraj",
    "zip": "438 01",
    "county": "",
    "phone": "",
    "type": "",
    "ownership": "",
    "emergency": "",
    "quality": "",
    "LAT": 50.3193798,
    "LON": 13.5377738
  },
  "119": {
    "id": 10119,
    "name": "Neurologická klinika 1. lékařské fakulty Univerzity Karlovy a Všeobecné fakultní nemocnice",
    "address": "",
    "city": "Praha",
    "state": "Hlavní Město Praha",
    "zip": "120 00",
    "county": "",
    "phone": "+420 224 961 111",
    "type": "",
    "ownership": "",
    "emergency": "",
    "quality": "",
    "LAT": 50.073681,
    "LON": 14.425183
  },
  "120": {
    "id": 10120,
    "name": "Oblastní nemocnice",
    "address": "",
    "city": "Kladno",
    "state": "Středočeský Kraj",
    "zip": "272 01",
    "county": "",
    "phone": "",
    "type": "",
    "ownership": "",
    "emergency": "Yes",
    "quality": "",
    "LAT": 50.142728,
    "LON": 14.0889581
  },
  "121": {
    "id": 10121,
    "name": "Oblastní nemocnice Náchod",
    "address": "",
    "city": "Náchod",
    "state": "Královéhradecký Kraj",
    "zip": "547 01",
    "county": "",
    "phone": "",
    "type": "",
    "ownership": "",
    "emergency": "",
    "quality": "",
    "LAT": 50.4106109,
    "LON": 16.1654248
  },
  "122": {
    "id": 10122,
    "name": "Oblastní nemocnice Náchod - Nemocnice Jaroměř",
    "address": "",
    "city": "Jaroměř",
    "state": "Královéhradecký Kraj",
    "zip": "551 01",
    "county": "",
    "phone": "",
    "type": "",
    "ownership": "",
    "emergency": "",
    "quality": "",
    "LAT": 50.3586233,
    "LON": 15.9054005
  },
  "123": {
    "id": 10123,
    "name": "Odborný léčebný ústav Jevíčko - Sanatorium",
    "address": "",
    "city": "Jevíčko",
    "state": "Pardubický Kraj",
    "zip": "569 43",
    "county": "",
    "phone": "",
    "type": "",
    "ownership": "",
    "emergency": "No",
    "quality": "",
    "LAT": 49.6339262,
    "LON": 16.6731551
  },
  "124": {
    "id": 10124,
    "name": "Odborný léčebný ústav Paseka o.p.",
    "address": "",
    "city": "Paseka",
    "state": "Olomoucký Kraj",
    "zip": "783 97",
    "county": "",
    "phone": "",
    "type": "",
    "ownership": "",
    "emergency": "No",
    "quality": "",
    "LAT": 49.8086133,
    "LON": 17.2265813
  },
  "125": {
    "id": 10125,
    "name": "Olivova dětská léčebna",
    "address": "",
    "city": "Říčany",
    "state": "Středočeský Kraj",
    "zip": "251 01",
    "county": "",
    "phone": "",
    "type": "",
    "ownership": "",
    "emergency": "",
    "quality": "",
    "LAT": 49.9890298,
    "LON": 14.6909582
  },
  "126": {
    "id": 10126,
    "name": "Orlickoústecká Nemocnice",
    "address": "",
    "city": "Ústí nad Orlicí",
    "state": "Pardubický Kraj",
    "zip": "562 01",
    "county": "",
    "phone": 420466000000,
    "type": "",
    "ownership": "",
    "emergency": "",
    "quality": "",
    "LAT": 49.970984,
    "LON": 16.404499
  },
  "127": {
    "id": 10127,
    "name": "Oční klinika Gemini",
    "address": "",
    "city": "Zlín",
    "state": "Zlínský Kraj",
    "zip": "760 01",
    "county": "",
    "phone": "",
    "type": "",
    "ownership": "",
    "emergency": "",
    "quality": "",
    "LAT": 49.2207177,
    "LON": 17.7065576
  },
  "128": {
    "id": 10128,
    "name": "Panochova nemocnice Turnov",
    "address": "",
    "city": "Turnov",
    "state": "Liberecký Kraj",
    "zip": "511 01",
    "county": "",
    "phone": "",
    "type": "",
    "ownership": "",
    "emergency": "Yes",
    "quality": "",
    "LAT": 50.5890997,
    "LON": 15.1678988
  },
  "129": {
    "id": 10129,
    "name": "Pardubická krajská nemocnice",
    "address": "Kyjevská nan",
    "city": "Pardubice",
    "state": "Pardubický Kraj",
    "zip": "530 03",
    "county": "",
    "phone": "",
    "type": "",
    "ownership": "",
    "emergency": "Yes",
    "quality": "",
    "LAT": 50.0293531,
    "LON": 15.7901868
  },
  "130": {
    "id": 10130,
    "name": "Plicní oddělení",
    "address": "Mathonova 1",
    "city": "Prostějov",
    "state": "Olomoucký Kraj",
    "zip": "796 01",
    "county": "",
    "phone": "",
    "type": "",
    "ownership": "",
    "emergency": "",
    "quality": "",
    "LAT": 49.4750489,
    "LON": 17.0883917
  },
  "131": {
    "id": 10131,
    "name": "Podhorská nemocnice a.s.",
    "address": "",
    "city": "Rýmařov",
    "state": "Moravskoslezský Kraj",
    "zip": "795 01",
    "county": "",
    "phone": "",
    "type": "",
    "ownership": "",
    "emergency": "",
    "quality": "",
    "LAT": 49.93212,
    "LON": 17.2616785
  },
  "132": {
    "id": 10132,
    "name": "Podřipská nemocnice s poliklinikou",
    "address": "",
    "city": "Roudnice nad Labem",
    "state": "Ústecký Kraj",
    "zip": "413 01",
    "county": "",
    "phone": "",
    "type": "",
    "ownership": "",
    "emergency": "",
    "quality": "",
    "LAT": 50.4233391,
    "LON": 14.2473415
  },
  "133": {
    "id": 10133,
    "name": "Pohotovost",
    "address": "Mathonova 1",
    "city": "Prostějov",
    "state": "Olomoucký Kraj",
    "zip": "796 01",
    "county": "",
    "phone": "",
    "type": "",
    "ownership": "",
    "emergency": "",
    "quality": "",
    "LAT": 49.4753138,
    "LON": 17.0866427
  },
  "134": {
    "id": 10134,
    "name": "Poliklinika Kaplice",
    "address": "",
    "city": "Kaplice",
    "state": "Jihočeský Kraj",
    "zip": "382 41",
    "county": "",
    "phone": "",
    "type": "",
    "ownership": "",
    "emergency": "",
    "quality": "",
    "LAT": 48.739665,
    "LON": 14.4875536
  },
  "135": {
    "id": 10135,
    "name": "Poliklinika Modřany",
    "address": "",
    "city": "Praha",
    "state": "Hlavní Město Praha",
    "zip": "143 00",
    "county": "",
    "phone": "",
    "type": "",
    "ownership": "",
    "emergency": "",
    "quality": "",
    "LAT": 50.0060555,
    "LON": 14.4142642
  },
  "136": {
    "id": 10136,
    "name": "Poliklinika Moravské Budějovice",
    "address": "",
    "city": "Moravské Budějovice",
    "state": "",
    "zip": "676 02",
    "county": "",
    "phone": "",
    "type": "",
    "ownership": "",
    "emergency": "Yes",
    "quality": "",
    "LAT": 49.0529552,
    "LON": 15.8070632
  },
  "137": {
    "id": 10137,
    "name": "Poliklinika Moravské Budějovice - budova 2",
    "address": "",
    "city": "Moravské Budějovice",
    "state": "",
    "zip": "676 02",
    "county": "",
    "phone": "",
    "type": "",
    "ownership": "",
    "emergency": "Yes",
    "quality": "",
    "LAT": 49.0529624,
    "LON": 15.8070255
  },
  "138": {
    "id": 10138,
    "name": "Poliklinika Plzeň",
    "address": "",
    "city": "Plzeň",
    "state": "Plzeňský Kraj",
    "zip": "301 00",
    "county": "",
    "phone": "",
    "type": "",
    "ownership": "",
    "emergency": "",
    "quality": "",
    "LAT": 49.745732,
    "LON": 13.3928704
  },
  "139": {
    "id": 10139,
    "name": "Poliklinika Therapon",
    "address": "",
    "city": "Kopřivnice",
    "state": "Moravskoslezský Kraj",
    "zip": "742 21",
    "county": "",
    "phone": "",
    "type": "",
    "ownership": "",
    "emergency": "",
    "quality": "",
    "LAT": 49.595616,
    "LON": 18.1456901
  },
  "140": {
    "id": 10140,
    "name": "Poliklinika Vltavínská",
    "address": "Vltavínská 1289",
    "city": "Třebíč",
    "state": "",
    "zip": "674 01",
    "county": "",
    "phone": "",
    "type": "",
    "ownership": "",
    "emergency": "No",
    "quality": "",
    "LAT": 49.2038502,
    "LON": 15.8786388
  },
  "141": {
    "id": 10141,
    "name": "Porodnice Náchod",
    "address": "",
    "city": "Náchod",
    "state": "Královéhradecký Kraj",
    "zip": "547 01",
    "county": "",
    "phone": "",
    "type": "",
    "ownership": "",
    "emergency": "",
    "quality": "",
    "LAT": 50.4062794,
    "LON": 16.1657876
  },
  "142": {
    "id": 10142,
    "name": "Porodnice Obilní trh",
    "address": "",
    "city": "Brno",
    "state": "Jihomoravský Kraj",
    "zip": "602 00",
    "county": "",
    "phone": "",
    "type": "",
    "ownership": "",
    "emergency": "",
    "quality": "",
    "LAT": 49.1986284,
    "LON": 16.5970307
  },
  "143": {
    "id": 10143,
    "name": "Psychiatrická klinika",
    "address": "",
    "city": "Praha",
    "state": "Hlavní Město Praha",
    "zip": "120 00",
    "county": "",
    "phone": "",
    "type": "",
    "ownership": "",
    "emergency": "",
    "quality": "",
    "LAT": 50.0717664,
    "LON": 14.4255199
  },
  "144": {
    "id": 10144,
    "name": "Psychiatrická léčebna Petrohrad",
    "address": "",
    "city": "Petrohrad",
    "state": "Ústecký Kraj",
    "zip": "439 85",
    "county": "",
    "phone": "",
    "type": "",
    "ownership": "",
    "emergency": "",
    "quality": "",
    "LAT": 50.1262653,
    "LON": 13.4422607
  },
  "145": {
    "id": 10145,
    "name": "Psychiatrická nemocnice",
    "address": "",
    "city": "Havlíčkův Brod",
    "state": "",
    "zip": "580 01",
    "county": "",
    "phone": "",
    "type": "",
    "ownership": "",
    "emergency": "",
    "quality": "",
    "LAT": 49.6107005,
    "LON": 15.5676334
  },
  "147": {
    "id": 10147,
    "name": "Psychiatrická nemocnice Bohnice",
    "address": "",
    "city": "Praha",
    "state": "Hlavní Město Praha",
    "zip": "182 00",
    "county": "",
    "phone": "",
    "type": "",
    "ownership": "",
    "emergency": "No",
    "quality": "",
    "LAT": 50.1355084,
    "LON": 14.4160612
  },
  "148": {
    "id": 10148,
    "name": "Psychiatrická nemocnice Brno",
    "address": "",
    "city": "Brno",
    "state": "Jihomoravský Kraj",
    "zip": "618 00",
    "county": "",
    "phone": "+420 548 123 111",
    "type": "",
    "ownership": "",
    "emergency": "",
    "quality": "",
    "LAT": 49.1821881,
    "LON": 16.641981
  },
  "149": {
    "id": 10149,
    "name": "Psychiatrická nemocnice Jihlava",
    "address": "Brněnská 455/54",
    "city": "Jihlava",
    "state": "",
    "zip": "586 01",
    "county": "",
    "phone": 567552123,
    "type": "",
    "ownership": "",
    "emergency": "",
    "quality": "",
    "LAT": 49.397124,
    "LON": 15.6039814
  },
  "150": {
    "id": 10150,
    "name": "Psychiatrická nemocnice Kosmonosy",
    "address": "",
    "city": "Kosmonosy",
    "state": "Středočeský Kraj",
    "zip": "293 06",
    "county": "",
    "phone": "",
    "type": "",
    "ownership": "",
    "emergency": "",
    "quality": "",
    "LAT": 50.4427059,
    "LON": 14.9267844
  },
  "151": {
    "id": 10151,
    "name": "Psychiatrická nemocnice Kosmonosy, pracoviště Sadská",
    "address": "Lázeňská 515",
    "city": "Sadská",
    "state": "Středočeský Kraj",
    "zip": "289 12",
    "county": "",
    "phone": 420326000000,
    "type": "",
    "ownership": "",
    "emergency": "",
    "quality": "",
    "LAT": 50.1524449,
    "LON": 14.9821772
  },
  "152": {
    "id": 10152,
    "name": "RZS Vlčice",
    "address": "nan 66",
    "city": "Blovice",
    "state": "Plzeňský Kraj",
    "zip": "336 01",
    "county": "",
    "phone": "",
    "type": "",
    "ownership": "",
    "emergency": "",
    "quality": "",
    "LAT": 49.5696161,
    "LON": 13.5431575
  },
  "153": {
    "id": 10153,
    "name": "Rehabilitační Nemocnice Beroun",
    "address": "",
    "city": "Beroun",
    "state": "Středočeský Kraj",
    "zip": "266 01",
    "county": "",
    "phone": "",
    "type": "",
    "ownership": "",
    "emergency": "",
    "quality": "",
    "LAT": 49.9638254,
    "LON": 14.0957245
  },
  "154": {
    "id": 10154,
    "name": "Rehabilitační ústav",
    "address": "",
    "city": "Brandýs nad Orlicí",
    "state": "Pardubický Kraj",
    "zip": "561 12",
    "county": "",
    "phone": "",
    "type": "",
    "ownership": "",
    "emergency": "",
    "quality": "",
    "LAT": 50.0040164,
    "LON": 16.2803815
  },
  "155": {
    "id": 10155,
    "name": "Rehabilitační ústav Hrabyně. Pracoviště Chuchelná",
    "address": "Komenského 14",
    "city": "Chuchelná",
    "state": "Moravskoslezský Kraj",
    "zip": "747 24",
    "county": "",
    "phone": "+420 553 683 300",
    "type": "",
    "ownership": "",
    "emergency": "",
    "quality": "",
    "LAT": 49.988984,
    "LON": 18.1161453
  },
  "156": {
    "id": 10156,
    "name": "Sanatorium Jablunkov",
    "address": "",
    "city": "Jablunkov",
    "state": "Moravskoslezský Kraj",
    "zip": "739 91",
    "county": "",
    "phone": "",
    "type": "",
    "ownership": "",
    "emergency": "",
    "quality": "",
    "LAT": 49.5720389,
    "LON": 18.7574363
  },
  "157": {
    "id": 10157,
    "name": "Sanus",
    "address": "",
    "city": "Hradec Králové",
    "state": "Královéhradecký Kraj",
    "zip": "500 03",
    "county": "",
    "phone": "",
    "type": "",
    "ownership": "",
    "emergency": "No",
    "quality": "",
    "LAT": 50.2037354,
    "LON": 15.8230611
  },
  "158": {
    "id": 10158,
    "name": "Senior centrum Přepychy",
    "address": "",
    "city": "Přepychy",
    "state": "Královéhradecký Kraj",
    "zip": "517 32",
    "county": "",
    "phone": "",
    "type": "",
    "ownership": "",
    "emergency": "",
    "quality": "",
    "LAT": 50.2337121,
    "LON": 16.1073751
  },
  "159": {
    "id": 10159,
    "name": "Slezská nemocnice v Opavě",
    "address": "",
    "city": "Opava",
    "state": "Moravskoslezský Kraj",
    "zip": "746 01",
    "county": "",
    "phone": "",
    "type": "",
    "ownership": "",
    "emergency": "Yes",
    "quality": "",
    "LAT": 49.9359221,
    "LON": 17.881031
  },
  "160": {
    "id": 10160,
    "name": "Stará fakultní nemocnice",
    "address": "",
    "city": "Hradec Králové",
    "state": "Královéhradecký Kraj",
    "zip": "500 03",
    "county": "",
    "phone": "",
    "type": "",
    "ownership": "",
    "emergency": "",
    "quality": "",
    "LAT": 50.2080897,
    "LON": 15.8410567
  },
  "161": {
    "id": 10161,
    "name": "Svitavská nemocnice, a.s.",
    "address": "",
    "city": "Svitavy",
    "state": "Pardubický Kraj",
    "zip": "568 02",
    "county": "",
    "phone": "",
    "type": "",
    "ownership": "",
    "emergency": "",
    "quality": "",
    "LAT": 49.753719,
    "LON": 16.4701314
  },
  "162": {
    "id": 10162,
    "name": "Swiss Medic Clinic",
    "address": "",
    "city": "Planá",
    "state": "Plzeňský Kraj",
    "zip": "348 15",
    "county": "",
    "phone": "",
    "type": "",
    "ownership": "",
    "emergency": "",
    "quality": "",
    "LAT": 49.8697422,
    "LON": 12.7492949
  },
  "163": {
    "id": 10163,
    "name": "Thomayerova nemocnice",
    "address": "",
    "city": "Praha",
    "state": "Hlavní Město Praha",
    "zip": "140 00",
    "county": "",
    "phone": "",
    "type": "",
    "ownership": "",
    "emergency": "",
    "quality": "",
    "LAT": 50.0235183,
    "LON": 14.4609048
  },
  "164": {
    "id": 10164,
    "name": "Trans Hospital (pohotovost)",
    "address": "",
    "city": "Řevnice",
    "state": "Středočeský Kraj",
    "zip": "252 30",
    "county": "",
    "phone": "",
    "type": "",
    "ownership": "",
    "emergency": "",
    "quality": "",
    "LAT": 49.9113888,
    "LON": 14.2384505
  },
  "165": {
    "id": 10165,
    "name": "Uherskohradišťská nemocnice a.s.",
    "address": "",
    "city": "Uherské Hradiště",
    "state": "Zlínský Kraj",
    "zip": "686 06",
    "county": "",
    "phone": "",
    "type": "",
    "ownership": "",
    "emergency": "Yes",
    "quality": "",
    "LAT": 49.064686,
    "LON": 17.4553953
  },
  "166": {
    "id": 10166,
    "name": "Uhličité koupele",
    "address": "",
    "city": "Lázně Libverda",
    "state": "Liberecký Kraj",
    "zip": "463 62",
    "county": "",
    "phone": "",
    "type": "",
    "ownership": "",
    "emergency": "",
    "quality": "",
    "LAT": 50.890348,
    "LON": 15.189614
  },
  "167": {
    "id": 10167,
    "name": "Urologická klinika",
    "address": "",
    "city": "Praha",
    "state": "Hlavní Město Praha",
    "zip": "120 00",
    "county": "",
    "phone": "",
    "type": "",
    "ownership": "",
    "emergency": "",
    "quality": "",
    "LAT": 50.071666,
    "LON": 14.4281118
  },
  "168": {
    "id": 10168,
    "name": "V nemocnici",
    "address": "",
    "city": "Strakonice",
    "state": "Jihočeský Kraj",
    "zip": "386 01",
    "county": "",
    "phone": "",
    "type": "",
    "ownership": "",
    "emergency": "",
    "quality": "",
    "LAT": 49.2666462,
    "LON": 13.9085007
  },
  "169": {
    "id": 10169,
    "name": "Vojenská nemocnice",
    "address": "",
    "city": "Brno",
    "state": "Jihomoravský Kraj",
    "zip": "602 00",
    "county": "",
    "phone": "",
    "type": "",
    "ownership": "",
    "emergency": "",
    "quality": "",
    "LAT": 49.2017089,
    "LON": 16.6313798
  },
  "170": {
    "id": 10170,
    "name": "Vojenská nemocnice - chirurgie",
    "address": "",
    "city": "Olomouc",
    "state": "Olomoucký Kraj",
    "zip": "779 00",
    "county": "",
    "phone": "",
    "type": "",
    "ownership": "",
    "emergency": "Yes",
    "quality": "",
    "LAT": 49.5988889,
    "LON": 17.2711466
  },
  "171": {
    "id": 10171,
    "name": "Vysokomýtská nemocnice",
    "address": "",
    "city": "Vysoké Mýto",
    "state": "Pardubický Kraj",
    "zip": "566 01",
    "county": "",
    "phone": "",
    "type": "",
    "ownership": "",
    "emergency": "",
    "quality": "",
    "LAT": 49.955353,
    "LON": 16.151838
  },
  "172": {
    "id": 10172,
    "name": "Vítkovická nemocnice",
    "address": "",
    "city": "Ostrava",
    "state": "Moravskoslezský Kraj",
    "zip": "702 00",
    "county": "",
    "phone": "",
    "type": "",
    "ownership": "",
    "emergency": "",
    "quality": "",
    "LAT": 49.815264,
    "LON": 18.2681858
  },
  "173": {
    "id": 10173,
    "name": "Zdravotní středisko",
    "address": "",
    "city": "Hrušovany u Brna",
    "state": "Jihomoravský Kraj",
    "zip": "664 62",
    "county": "",
    "phone": "",
    "type": "",
    "ownership": "",
    "emergency": "",
    "quality": "",
    "LAT": 49.035554,
    "LON": 16.5916893
  },
  "174": {
    "id": 10174,
    "name": "Záchranná služba Plzeňského kraje, Výjezdové stanoviště Plzeň sever",
    "address": "",
    "city": "Plzeň",
    "state": "Plzeňský Kraj",
    "zip": "301 00",
    "county": "",
    "phone": "",
    "type": "",
    "ownership": "",
    "emergency": "Yes",
    "quality": "",
    "LAT": 49.7662813,
    "LON": 13.3720388
  },
  "175": {
    "id": 10175,
    "name": "nemocnice Atlas",
    "address": "",
    "city": "Zlín",
    "state": "Zlínský Kraj",
    "zip": "760 01",
    "county": "",
    "phone": "",
    "type": "",
    "ownership": "",
    "emergency": "",
    "quality": "",
    "LAT": 49.2228207,
    "LON": 17.6570752
  },
  "176": {
    "id": 10176,
    "name": "psychiatrická léčebna",
    "address": "",
    "city": "Horní Beřkovice",
    "state": "Ústecký Kraj",
    "zip": "411 85",
    "county": "",
    "phone": "",
    "type": "",
    "ownership": "",
    "emergency": "",
    "quality": "",
    "LAT": 50.3610065,
    "LON": 14.3481838
  },
  "178": {
    "id": 10178,
    "name": "Úrazová nemocnice v Brně",
    "address": "",
    "city": "Brno",
    "state": "Jihomoravský Kraj",
    "zip": "615 00",
    "county": "",
    "phone": "+420 545 538 111",
    "type": "",
    "ownership": "",
    "emergency": "",
    "quality": "",
    "LAT": 49.1979708,
    "LON": 16.615112
  },
  "179": {
    "id": 10179,
    "name": "Ústav chirurgie ruky a plastické chirurgie Vysoké nad Jizerou",
    "address": "",
    "city": "Vysoké nad Jizerou",
    "state": "Liberecký Kraj",
    "zip": "512 11",
    "county": "",
    "phone": 420481000000,
    "type": "",
    "ownership": "",
    "emergency": "Yes",
    "quality": "",
    "LAT": 50.6828414,
    "LON": 15.4031923
  },
  "180": {
    "id": 10180,
    "name": "Ústav hematologie a krevní transfuze",
    "address": "",
    "city": "Praha",
    "state": "Hlavní Město Praha",
    "zip": "120 00",
    "county": "",
    "phone": "",
    "type": "",
    "ownership": "",
    "emergency": "",
    "quality": "",
    "LAT": 50.0753691,
    "LON": 14.4207751
  },
  "181": {
    "id": 10181,
    "name": "Ústav pro péči o matku a dítě Podolí",
    "address": "",
    "city": "Praha",
    "state": "Hlavní Město Praha",
    "zip": "140 00",
    "county": "",
    "phone": "",
    "type": "",
    "ownership": "",
    "emergency": "",
    "quality": "",
    "LAT": 50.0615624,
    "LON": 14.4195431
  },
  "182": {
    "id": 10182,
    "name": "Ústav sociální péče Ráby",
    "address": "",
    "city": "Ráby",
    "state": "Pardubický Kraj",
    "zip": "533 52",
    "county": "",
    "phone": "",
    "type": "",
    "ownership": "",
    "emergency": "",
    "quality": "",
    "LAT": 50.0712578,
    "LON": 15.8035883
  },
  "183": {
    "id": 10183,
    "name": "Územní zdravotnická záchranná služba Karlovarského kraje",
    "address": "Závodní 390/98C",
    "city": "Karlovy Vary",
    "state": "Karlovarský Kraj",
    "zip": "360 01",
    "county": "",
    "phone": "",
    "type": "",
    "ownership": "",
    "emergency": "Yes",
    "quality": "",
    "LAT": 50.2210586,
    "LON": 12.825288
  },
  "184": {
    "id": 10184,
    "name": "Šumperská nemocnice",
    "address": "",
    "city": "Šumperk",
    "state": "Olomoucký Kraj",
    "zip": "787 01",
    "county": "",
    "phone": "",
    "type": "",
    "ownership": "",
    "emergency": "",
    "quality": "",
    "LAT": 49.9571827,
    "LON": 16.9621371
  },
  "185": {
    "id": 10185,
    "name": "Beskydské rehabilitační centrum",
    "address": "",
    "city": "Čeladná",
    "state": "Moravskoslezský Kraj",
    "zip": "739 12",
    "county": "",
    "phone": "",
    "type": "",
    "ownership": "",
    "emergency": "",
    "quality": "",
    "LAT": 49.539716,
    "LON": 18.3030871
  },
  "186": {
    "id": 10186,
    "name": "Dětská ambulance",
    "address": "U Zdravotního střediska 1644",
    "city": "Dubňany",
    "state": "Jihomoravský Kraj",
    "zip": "696 03",
    "county": "",
    "phone": "",
    "type": "",
    "ownership": "",
    "emergency": "",
    "quality": "",
    "LAT": 48.9166089,
    "LON": 17.0998021
  },
  "187": {
    "id": 10187,
    "name": "Dětský lékař",
    "address": "Záhuní 1034",
    "city": "Frenštát pod Radhoštěm",
    "state": "Moravskoslezský Kraj",
    "zip": "744 01",
    "county": "",
    "phone": "",
    "type": "",
    "ownership": "",
    "emergency": "",
    "quality": "",
    "LAT": 49.5458367,
    "LON": 18.2100338
  },
  "188": {
    "id": 10188,
    "name": "Dům zdraví",
    "address": "",
    "city": "Velké Meziříčí",
    "state": "",
    "zip": "594 01",
    "county": "",
    "phone": "",
    "type": "",
    "ownership": "",
    "emergency": "",
    "quality": "",
    "LAT": 49.3560284,
    "LON": 16.0152295
  },
  "190": {
    "id": 10190,
    "name": "Klinika oční a estetické chirurgie",
    "address": "",
    "city": "Zlín",
    "state": "Zlínský Kraj",
    "zip": "760 01",
    "county": "",
    "phone": "",
    "type": "",
    "ownership": "",
    "emergency": "",
    "quality": "",
    "LAT": 49.2220399,
    "LON": 17.6800623
  },
  "191": {
    "id": 10191,
    "name": "Klášter voršilek",
    "address": "",
    "city": "Liberec",
    "state": "Liberecký Kraj",
    "zip": "460 01",
    "county": "",
    "phone": "",
    "type": "",
    "ownership": "",
    "emergency": "",
    "quality": "",
    "LAT": 50.7685603,
    "LON": 15.0664775
  },
  "192": {
    "id": 10192,
    "name": "Krevní centrum",
    "address": "",
    "city": "Frýdek-Místek",
    "state": "Moravskoslezský Kraj",
    "zip": "738 01",
    "county": "",
    "phone": "",
    "type": "",
    "ownership": "",
    "emergency": "",
    "quality": "",
    "LAT": 49.6835826,
    "LON": 18.3554738
  },
  "193": {
    "id": 10193,
    "name": "LIMA, spol. s r.o.",
    "address": "",
    "city": "Praha",
    "state": "Hlavní Město Praha",
    "zip": "140 00",
    "county": "",
    "phone": "+420 241 401 514",
    "type": "",
    "ownership": "",
    "emergency": "",
    "quality": "",
    "LAT": 50.0513182,
    "LON": 14.4344507
  },
  "194": {
    "id": 10194,
    "name": "Logopedická ambulance, s.r.o.",
    "address": "Za Nádražím 223",
    "city": "Český Krumlov",
    "state": "Jihočeský Kraj",
    "zip": "381 01",
    "county": "",
    "phone": "",
    "type": "",
    "ownership": "",
    "emergency": "",
    "quality": "",
    "LAT": 48.8212648,
    "LON": 14.3196483
  },
  "195": {
    "id": 10195,
    "name": "Lékařská péče",
    "address": "Třída Josefa II. 78",
    "city": "Pec pod Sněžkou",
    "state": "Královéhradecký Kraj",
    "zip": "542 21",
    "county": "",
    "phone": "",
    "type": "",
    "ownership": "",
    "emergency": "",
    "quality": "",
    "LAT": 50.6591424,
    "LON": 15.8189588
  },
  "196": {
    "id": 10196,
    "name": "Lékařský dům Hlinky",
    "address": "",
    "city": "Brno",
    "state": "Jihomoravský Kraj",
    "zip": "603 00",
    "county": "",
    "phone": "",
    "type": "",
    "ownership": "",
    "emergency": "",
    "quality": "",
    "LAT": 49.1912044,
    "LON": 16.5783408
  },
  "197": {
    "id": 10197,
    "name": "MUDr. Ivana Šmejcová",
    "address": "",
    "city": "Železnice",
    "state": "Královéhradecký Kraj",
    "zip": "507 13",
    "county": "",
    "phone": "",
    "type": "",
    "ownership": "",
    "emergency": "",
    "quality": "",
    "LAT": 50.4733931,
    "LON": 15.3843678
  },
  "198": {
    "id": 10198,
    "name": "MUDr. Lenka Šepsová",
    "address": "",
    "city": "Nový Bor",
    "state": "Liberecký Kraj",
    "zip": "473 01",
    "county": "",
    "phone": "",
    "type": "",
    "ownership": "",
    "emergency": "",
    "quality": "",
    "LAT": 50.7581245,
    "LON": 14.5514388
  },
  "199": {
    "id": 10199,
    "name": "Odborný léčebný ústav Metylovice, Moravskoslezské sanatorium",
    "address": "",
    "city": "Metylovice",
    "state": "Moravskoslezský Kraj",
    "zip": "739 49",
    "county": "",
    "phone": "",
    "type": "",
    "ownership": "",
    "emergency": "",
    "quality": "",
    "LAT": 49.6085462,
    "LON": 18.3390222
  },
  "200": {
    "id": 10200,
    "name": "Poliklinika",
    "address": "",
    "city": "Praha",
    "state": "Hlavní Město Praha",
    "zip": "149 00",
    "county": "",
    "phone": "",
    "type": "",
    "ownership": "",
    "emergency": "",
    "quality": "",
    "LAT": 50.0258051,
    "LON": 14.5176136
  },
  "203": {
    "id": 10203,
    "name": "Poliklinika Blovice",
    "address": "Palackého 259",
    "city": "Blovice",
    "state": "Plzeňský Kraj",
    "zip": "336 01",
    "county": "",
    "phone": "",
    "type": "",
    "ownership": "",
    "emergency": "",
    "quality": "",
    "LAT": 49.582381,
    "LON": 13.5360448
  },
  "204": {
    "id": 10204,
    "name": "Poliklinika Horníkova",
    "address": "",
    "city": "Brno",
    "state": "Jihomoravský Kraj",
    "zip": "628 00",
    "county": "",
    "phone": "",
    "type": "",
    "ownership": "",
    "emergency": "",
    "quality": "",
    "LAT": 49.2133465,
    "LON": 16.6817273
  },
  "205": {
    "id": 10205,
    "name": "Poliklinika I",
    "address": "",
    "city": "Domažlice",
    "state": "Plzeňský Kraj",
    "zip": "344 01",
    "county": "",
    "phone": "",
    "type": "",
    "ownership": "",
    "emergency": "",
    "quality": "",
    "LAT": 49.4399601,
    "LON": 12.9267737
  },
  "206": {
    "id": 10206,
    "name": "Poliklinika II",
    "address": "",
    "city": "Domažlice",
    "state": "Plzeňský Kraj",
    "zip": "344 01",
    "county": "",
    "phone": "",
    "type": "",
    "ownership": "",
    "emergency": "",
    "quality": "",
    "LAT": 49.4409052,
    "LON": 12.9238931
  },
  "207": {
    "id": 10207,
    "name": "Poliklinika Kralupy nad Vltavou ALTES s.r.o.",
    "address": "Nerudova 686/18",
    "city": "Kralupy nad Vltavou",
    "state": "Středočeský Kraj",
    "zip": "278 01",
    "county": "",
    "phone": "",
    "type": "",
    "ownership": "",
    "emergency": "",
    "quality": "",
    "LAT": 50.2391171,
    "LON": 14.3075333
  },
  "208": {
    "id": 10208,
    "name": "Poliklinika Medivita",
    "address": "",
    "city": "Brno",
    "state": "Jihomoravský Kraj",
    "zip": "602 00",
    "county": "",
    "phone": "",
    "type": "",
    "ownership": "",
    "emergency": "",
    "quality": "",
    "LAT": 49.2360183,
    "LON": 16.5833135
  },
  "209": {
    "id": 10209,
    "name": "Poliklinika Nový Bor",
    "address": "",
    "city": "Nový Bor",
    "state": "Liberecký Kraj",
    "zip": "473 01",
    "county": "",
    "phone": "",
    "type": "",
    "ownership": "",
    "emergency": "",
    "quality": "",
    "LAT": 50.7598337,
    "LON": 14.5539342
  },
  "210": {
    "id": 10210,
    "name": "Poliklinika Planá",
    "address": "",
    "city": "Planá",
    "state": "Plzeňský Kraj",
    "zip": "348 15",
    "county": "",
    "phone": "",
    "type": "",
    "ownership": "",
    "emergency": "",
    "quality": "",
    "LAT": 49.8678315,
    "LON": 12.7466733
  },
  "211": {
    "id": 10211,
    "name": "Poliklinika Týn nad Vltavou",
    "address": "Sakařova 755",
    "city": "Týn nad Vltavou",
    "state": "Jihočeský Kraj",
    "zip": "375 01",
    "county": "",
    "phone": "",
    "type": "",
    "ownership": "",
    "emergency": "",
    "quality": "",
    "LAT": 49.2260341,
    "LON": 14.4171935
  },
  "212": {
    "id": 10212,
    "name": "Poliklinika Zahradníkova",
    "address": "",
    "city": "Brno",
    "state": "Jihomoravský Kraj",
    "zip": "602 00",
    "county": "",
    "phone": "",
    "type": "",
    "ownership": "",
    "emergency": "",
    "quality": "",
    "LAT": 49.2060979,
    "LON": 16.594515
  },
  "213": {
    "id": 10213,
    "name": "Praktický Lékař Sedláková Vlasta MUDr.",
    "address": "",
    "city": "Hrob",
    "state": "Ústecký Kraj",
    "zip": "417 04",
    "county": "",
    "phone": "",
    "type": "",
    "ownership": "",
    "emergency": "",
    "quality": "",
    "LAT": 50.6586071,
    "LON": 13.7241565
  },
  "214": {
    "id": 10214,
    "name": "Praktický lékař",
    "address": "",
    "city": "Mokrá-Horákov",
    "state": "Jihomoravský Kraj",
    "zip": "664 04",
    "county": "",
    "phone": "",
    "type": "",
    "ownership": "",
    "emergency": "",
    "quality": "",
    "LAT": 49.2199934,
    "LON": 16.7517069
  },
  "215": {
    "id": 10215,
    "name": "ProMedica, spol. s r.o.",
    "address": "",
    "city": "Prostějov",
    "state": "Olomoucký Kraj",
    "zip": "796 01",
    "county": "",
    "phone": "",
    "type": "",
    "ownership": "",
    "emergency": "",
    "quality": "",
    "LAT": 49.4813951,
    "LON": 17.1127563
  },
  "216": {
    "id": 10216,
    "name": "Rehabilitace",
    "address": "",
    "city": "Horní Bříza",
    "state": "Plzeňský Kraj",
    "zip": "330 12",
    "county": "",
    "phone": "",
    "type": "",
    "ownership": "",
    "emergency": "",
    "quality": "",
    "LAT": 49.8492677,
    "LON": 13.3731445
  },
  "217": {
    "id": 10217,
    "name": "Sette medici s.r.o.",
    "address": "",
    "city": "Frýdek-Místek",
    "state": "Moravskoslezský Kraj",
    "zip": "738 01",
    "county": "",
    "phone": "",
    "type": "",
    "ownership": "",
    "emergency": "",
    "quality": "",
    "LAT": 49.6883545,
    "LON": 18.3564525
  },
  "218": {
    "id": 10218,
    "name": "Stomatologická poliklinika",
    "address": "",
    "city": "Nový Jičín",
    "state": "Moravskoslezský Kraj",
    "zip": "741 01",
    "county": "",
    "phone": "",
    "type": "",
    "ownership": "",
    "emergency": "",
    "quality": "",
    "LAT": 49.5973184,
    "LON": 18.0119633
  },
  "219": {
    "id": 10219,
    "name": "UNIMED",
    "address": "",
    "city": "Jeseník",
    "state": "Olomoucký Kraj",
    "zip": "790 01",
    "county": "",
    "phone": "+420 584 413 101",
    "type": "",
    "ownership": "",
    "emergency": "",
    "quality": "",
    "LAT": 50.2289503,
    "LON": 17.1985897
  },
  "220": {
    "id": 10220,
    "name": "Zdavotní středisko Mirošov",
    "address": "náměstí Míru 55",
    "city": "Mirošov",
    "state": "Plzeňský Kraj",
    "zip": "338 43",
    "county": "",
    "phone": "",
    "type": "",
    "ownership": "",
    "emergency": "",
    "quality": "",
    "LAT": 49.6876088,
    "LON": 13.6579355
  },
  "221": {
    "id": 10221,
    "name": "Zdravotnická společnost na Pražské třídě, spol. s r.o.",
    "address": "",
    "city": "České Budějovice",
    "state": "Jihočeský Kraj",
    "zip": "370 01",
    "county": "",
    "phone": "",
    "type": "",
    "ownership": "",
    "emergency": "",
    "quality": "",
    "LAT": 48.9843134,
    "LON": 14.471091
  },
  "222": {
    "id": 10222,
    "name": "Zdravotnické zařízení Troilova",
    "address": "",
    "city": "Praha",
    "state": "Hlavní Město Praha",
    "zip": "101 00",
    "county": "",
    "phone": "",
    "type": "",
    "ownership": "",
    "emergency": "",
    "quality": "",
    "LAT": 50.0839964,
    "LON": 14.5026289
  },
  "239": {
    "id": 10239,
    "name": "Zdravotní středisko - Studenec",
    "address": "",
    "city": "Studenec",
    "state": "Liberecký Kraj",
    "zip": "512 33",
    "county": "",
    "phone": "",
    "type": "",
    "ownership": "",
    "emergency": "",
    "quality": "",
    "LAT": 50.5660851,
    "LON": 15.5446658
  },
  "240": {
    "id": 10240,
    "name": "Zdravotní středisko Deštná",
    "address": "",
    "city": "Deštná",
    "state": "Jihočeský Kraj",
    "zip": "378 25",
    "county": "",
    "phone": "",
    "type": "",
    "ownership": "",
    "emergency": "",
    "quality": "",
    "LAT": 49.2658673,
    "LON": 14.9220802
  },
  "241": {
    "id": 10241,
    "name": "Zdravotní středisko Vesec",
    "address": "",
    "city": "Liberec",
    "state": "Liberecký Kraj",
    "zip": "460 01",
    "county": "",
    "phone": "",
    "type": "",
    "ownership": "",
    "emergency": "",
    "quality": "",
    "LAT": 50.7385912,
    "LON": 15.0617891
  },
  "242": {
    "id": 10242,
    "name": "Záchranná služba",
    "address": "",
    "city": "Klatovy",
    "state": "Plzeňský Kraj",
    "zip": "339 01",
    "county": "",
    "phone": "",
    "type": "",
    "ownership": "",
    "emergency": "ambulance_station",
    "quality": "",
    "LAT": 49.4027625,
    "LON": 13.2909202
  },
  "243": {
    "id": 10243,
    "name": "poliklinika Vajgarská",
    "address": "",
    "city": "Praha",
    "state": "Hlavní Město Praha",
    "zip": "198 00",
    "county": "",
    "phone": "",
    "type": "",
    "ownership": "",
    "emergency": "",
    "quality": "",
    "LAT": 50.1014794,
    "LON": 14.5529687
  },
  "244": {
    "id": 10244,
    "name": "soukromý praktický lékař MUDr. Jiří Bartoš",
    "address": "",
    "city": "Moravská Nová Ves",
    "state": "Jihomoravský Kraj",
    "zip": "691 55",
    "county": "",
    "phone": "",
    "type": "",
    "ownership": "",
    "emergency": "No",
    "quality": "",
    "LAT": 48.8031299,
    "LON": 17.0156768
  }
}