{
  "0": {
    "id": 10000,
    "name": "МБАЛ-Дулово\" ЕООД (Болница)",
    "address": "ул. \"Розова долина\" 37",
    "city": "Дулово",
    "state": "Силистра",
    "zip": 7650,
    "county": "",
    "phone": "+359 855 3029;+359 855 3200;+359 864 23200",
    "type": "",
    "ownership": "",
    "emergency": "",
    "quality": "",
    "LAT": 43.8220369,
    "LON": 27.1474586
  },
  "1": {
    "id": 10001,
    "name": "16 ДКЦ",
    "address": "",
    "city": "София",
    "state": "",
    "zip": 1849,
    "county": "",
    "phone": "",
    "type": "",
    "ownership": "",
    "emergency": "Yes",
    "quality": "",
    "LAT": 42.7378805,
    "LON": 23.5080853
  },
  "2": {
    "id": 10002,
    "name": "2 ДКЦ",
    "address": "бул. 25-ти Септември 68",
    "city": "Добрич",
    "state": "Добрич",
    "zip": 9300,
    "county": "",
    "phone": "",
    "type": "",
    "ownership": "",
    "emergency": "",
    "quality": "",
    "LAT": 43.5780139,
    "LON": 27.8286141
  },
  "3": {
    "id": 10003,
    "name": "20-ти ДКЦ",
    "address": "Ген. Стефан Тошев 15-17",
    "city": "София",
    "state": "",
    "zip": 1606,
    "county": "",
    "phone": "",
    "type": "",
    "ownership": "",
    "emergency": "",
    "quality": "",
    "LAT": 42.6727834,
    "LON": 23.2827146
  },
  "4": {
    "id": 10004,
    "name": "23-ти ДКЦ",
    "address": "Клисура 20",
    "city": "София",
    "state": "",
    "zip": 1517,
    "county": "",
    "phone": "",
    "type": "",
    "ownership": "",
    "emergency": "",
    "quality": "",
    "LAT": 42.7068985,
    "LON": 23.3533343
  },
  "5": {
    "id": 10005,
    "name": "25 ДКЦ",
    "address": "Свето Преображение 20",
    "city": "София",
    "state": "",
    "zip": 1729,
    "county": "",
    "phone": "",
    "type": "",
    "ownership": "",
    "emergency": "",
    "quality": "",
    "LAT": 42.6403198,
    "LON": 23.3821525
  },
  "6": {
    "id": 10006,
    "name": "29-ти ДКЦ",
    "address": "Георги Измирлиев 8",
    "city": "София",
    "state": "",
    "zip": 1408,
    "county": "",
    "phone": "",
    "type": "",
    "ownership": "",
    "emergency": "",
    "quality": "",
    "LAT": 42.6647272,
    "LON": 23.2962786
  },
  "7": {
    "id": 10007,
    "name": "2ра поликлиника",
    "address": "",
    "city": "Стара Загора",
    "state": "Стара Загора",
    "zip": 6000,
    "county": "",
    "phone": "",
    "type": "",
    "ownership": "",
    "emergency": "No",
    "quality": "",
    "LAT": 42.4305161,
    "LON": 25.6263868
  },
  "8": {
    "id": 10008,
    "name": "3 ДКЦ",
    "address": "",
    "city": "Пловдив",
    "state": "Пловдив",
    "zip": 4000,
    "county": "",
    "phone": "",
    "type": "",
    "ownership": "",
    "emergency": "",
    "quality": "",
    "LAT": 42.1691595,
    "LON": 24.7458565
  },
  "9": {
    "id": 10009,
    "name": "4 ДКЦ",
    "address": "",
    "city": "Пловдив",
    "state": "Пловдив",
    "zip": 4001,
    "county": "",
    "phone": "",
    "type": "",
    "ownership": "",
    "emergency": "",
    "quality": "",
    "LAT": 42.13047,
    "LON": 24.7143654
  },
  "10": {
    "id": 10010,
    "name": "5-то ДКЦ",
    "address": "",
    "city": "Пловдив",
    "state": "Пловдив",
    "zip": 4023,
    "county": "",
    "phone": "",
    "type": "",
    "ownership": "",
    "emergency": "",
    "quality": "",
    "LAT": 42.1321695,
    "LON": 24.7932408
  },
  "11": {
    "id": 10011,
    "name": "7-ми ДКЦ",
    "address": "",
    "city": "София",
    "state": "",
    "zip": 1220,
    "county": "",
    "phone": "",
    "type": "",
    "ownership": "",
    "emergency": "No",
    "quality": "",
    "LAT": 42.7125595,
    "LON": 23.3154139
  },
  "12": {
    "id": 10012,
    "name": "AГО Хасково",
    "address": "Единство 737.1.7",
    "city": "Хасково",
    "state": "Хасково",
    "zip": 6300,
    "county": "",
    "phone": "",
    "type": "",
    "ownership": "",
    "emergency": "No",
    "quality": "",
    "LAT": 41.9372059,
    "LON": 25.5653265
  },
  "13": {
    "id": 10013,
    "name": "City Clinic",
    "address": "",
    "city": "София",
    "state": "",
    "zip": 1421,
    "county": "",
    "phone": "",
    "type": "",
    "ownership": "",
    "emergency": "",
    "quality": "",
    "LAT": 42.6402491,
    "LON": 23.3180721
  },
  "14": {
    "id": 10014,
    "name": "Medical Center",
    "address": "",
    "city": "Несебър",
    "state": "Бургас",
    "zip": 8256,
    "county": "",
    "phone": "",
    "type": "",
    "ownership": "",
    "emergency": "",
    "quality": "",
    "LAT": 42.7114026,
    "LON": 27.759946
  },
  "15": {
    "id": 10015,
    "name": "Medline",
    "address": "",
    "city": "Пловдив",
    "state": "Пловдив",
    "zip": 4000,
    "county": "",
    "phone": "",
    "type": "",
    "ownership": "",
    "emergency": "",
    "quality": "",
    "LAT": 42.1386642,
    "LON": 24.739922
  },
  "16": {
    "id": 10016,
    "name": "MБАЛНП “Св. Наум”",
    "address": "Д-р Любен Русев 1",
    "city": "София",
    "state": "",
    "zip": 1113,
    "county": "",
    "phone": "+359 (2) 9702 300",
    "type": "",
    "ownership": "",
    "emergency": "",
    "quality": "",
    "LAT": 42.6668882,
    "LON": 23.3610856
  },
  "17": {
    "id": 10017,
    "name": "Red Cross Bulgaria",
    "address": "",
    "city": "Пловдив",
    "state": "Пловдив",
    "zip": 4000,
    "county": "",
    "phone": "",
    "type": "",
    "ownership": "",
    "emergency": "",
    "quality": "",
    "LAT": 42.1480596,
    "LON": 24.760916
  },
  "18": {
    "id": 10018,
    "name": "Trakia",
    "address": "",
    "city": "Стара Загора",
    "state": "Стара Загора",
    "zip": 6004,
    "county": "",
    "phone": "",
    "type": "",
    "ownership": "",
    "emergency": "Yes",
    "quality": "",
    "LAT": 42.4356099,
    "LON": 25.6114744
  },
  "19": {
    "id": 10019,
    "name": "АГ \"Весела",
    "address": "",
    "city": "Пловдив",
    "state": "Пловдив",
    "zip": 4000,
    "county": "",
    "phone": "",
    "type": "",
    "ownership": "",
    "emergency": "",
    "quality": "",
    "LAT": 42.1539677,
    "LON": 24.7561235
  },
  "20": {
    "id": 10020,
    "name": "АГ болница",
    "address": "",
    "city": "Варна",
    "state": "Варна",
    "zip": 9002,
    "county": "",
    "phone": "",
    "type": "",
    "ownership": "",
    "emergency": "",
    "quality": "",
    "LAT": 43.215811,
    "LON": 27.9140688
  },
  "21": {
    "id": 10021,
    "name": "Авис Медика",
    "address": "",
    "city": "Плевен",
    "state": "Плевен",
    "zip": 5800,
    "county": "",
    "phone": "",
    "type": "",
    "ownership": "",
    "emergency": "",
    "quality": "",
    "LAT": 43.3857566,
    "LON": 24.6333808
  },
  "23": {
    "id": 10023,
    "name": "Аджибадем Сити Клиник МБАЛ Токуда",
    "address": "бул. Никола Й. Вапцаров 51Б",
    "city": "София",
    "state": "",
    "zip": 1421,
    "county": "",
    "phone": "",
    "type": "",
    "ownership": "",
    "emergency": "Yes",
    "quality": "",
    "LAT": 42.6655256,
    "LON": 23.3238888
  },
  "24": {
    "id": 10024,
    "name": "Акушеро-гинекология",
    "address": "",
    "city": "Стара Загора",
    "state": "Стара Загора",
    "zip": 6000,
    "county": "",
    "phone": "",
    "type": "",
    "ownership": "",
    "emergency": "",
    "quality": "",
    "LAT": 42.4286066,
    "LON": 25.6269363
  },
  "25": {
    "id": 10025,
    "name": "Аптека",
    "address": "",
    "city": "Аксаково",
    "state": "Варна",
    "zip": 9154,
    "county": "",
    "phone": "",
    "type": "",
    "ownership": "",
    "emergency": "",
    "quality": "",
    "LAT": 43.2573388,
    "LON": 27.8161891
  },
  "26": {
    "id": 10026,
    "name": "Атанас Дафовски",
    "address": "",
    "city": "Кърджали",
    "state": "Кърджали",
    "zip": 6600,
    "county": "",
    "phone": "",
    "type": "",
    "ownership": "",
    "emergency": "",
    "quality": "",
    "LAT": 41.6461731,
    "LON": 25.3735196
  },
  "27": {
    "id": 10027,
    "name": "Балнео лечебница",
    "address": "",
    "city": "Стрелча",
    "state": "Пазарджик",
    "zip": 4530,
    "county": "",
    "phone": "",
    "type": "",
    "ownership": "",
    "emergency": "",
    "quality": "",
    "LAT": 42.5051211,
    "LON": 24.3237579
  },
  "29": {
    "id": 10029,
    "name": "Болница",
    "address": "",
    "city": "Царево",
    "state": "Бургас",
    "zip": 8260,
    "county": "",
    "phone": 59052023,
    "type": "",
    "ownership": "",
    "emergency": "",
    "quality": "",
    "LAT": 42.1666739,
    "LON": 27.8444058
  },
  "30": {
    "id": 10030,
    "name": "Болница \"Люлин",
    "address": "",
    "city": "София",
    "state": "",
    "zip": 1360,
    "county": "",
    "phone": "",
    "type": "",
    "ownership": "",
    "emergency": "",
    "quality": "",
    "LAT": 42.7082584,
    "LON": 23.2491306
  },
  "31": {
    "id": 10031,
    "name": "Болница \"Петромар\" АД",
    "address": "",
    "city": "Казанлък",
    "state": "Стара Загора",
    "zip": 6144,
    "county": "",
    "phone": "",
    "type": "",
    "ownership": "",
    "emergency": "",
    "quality": "",
    "LAT": 42.6918356,
    "LON": 25.3181659
  },
  "32": {
    "id": 10032,
    "name": "Болница \"Райна Княгиня",
    "address": "",
    "city": "София",
    "state": "",
    "zip": 1616,
    "county": "",
    "phone": "",
    "type": "",
    "ownership": "",
    "emergency": "",
    "quality": "",
    "LAT": 42.6641096,
    "LON": 23.2509919
  },
  "33": {
    "id": 10033,
    "name": "Болница Вита",
    "address": "Филип Кутев 10",
    "city": "София",
    "state": "",
    "zip": 1421,
    "county": "",
    "phone": "",
    "type": "",
    "ownership": "",
    "emergency": "",
    "quality": "",
    "LAT": 42.6568201,
    "LON": 23.3200211
  },
  "34": {
    "id": 10034,
    "name": "Болница Кубрат",
    "address": "",
    "city": "Кубрат",
    "state": "Разград",
    "zip": 7300,
    "county": "",
    "phone": "",
    "type": "",
    "ownership": "",
    "emergency": "Yes",
    "quality": "",
    "LAT": 43.7914042,
    "LON": 26.5006795
  },
  "35": {
    "id": 10035,
    "name": "Болница Лозенец",
    "address": "Козяк nan",
    "city": "София",
    "state": "",
    "zip": 1407,
    "county": "",
    "phone": "",
    "type": "",
    "ownership": "",
    "emergency": "",
    "quality": "",
    "LAT": 42.6658904,
    "LON": 23.3109057
  },
  "36": {
    "id": 10036,
    "name": "Болница Рахила Ангелова",
    "address": "",
    "city": "Перник",
    "state": "Перник",
    "zip": 2300,
    "county": "",
    "phone": "",
    "type": "",
    "ownership": "",
    "emergency": "Yes",
    "quality": "",
    "LAT": 42.6124109,
    "LON": 23.0362656
  },
  "37": {
    "id": 10037,
    "name": "Болница Слънчев Бряг",
    "address": "",
    "city": "Несебър",
    "state": "Бургас",
    "zip": 8230,
    "county": "",
    "phone": "",
    "type": "",
    "ownership": "",
    "emergency": "",
    "quality": "",
    "LAT": 42.6679611,
    "LON": 27.706838
  },
  "38": {
    "id": 10038,
    "name": "Болница за долекуване, продължително лечение и рехабилитация",
    "address": "",
    "city": "София",
    "state": "",
    "zip": 1000,
    "county": "",
    "phone": "",
    "type": "",
    "ownership": "",
    "emergency": "",
    "quality": "",
    "LAT": 42.7031026,
    "LON": 23.1447434
  },
  "39": {
    "id": 10039,
    "name": "ВМА МБАЛ Пловдив (Военна болница)",
    "address": "",
    "city": "Пловдив",
    "state": "Пловдив",
    "zip": 4017,
    "county": "",
    "phone": "",
    "type": "",
    "ownership": "",
    "emergency": "",
    "quality": "",
    "LAT": 42.1373027,
    "LON": 24.7562809
  },
  "40": {
    "id": 10040,
    "name": "Ветеринарна клиника",
    "address": "",
    "city": "Аксаково",
    "state": "Варна",
    "zip": 9154,
    "county": "",
    "phone": "",
    "type": "",
    "ownership": "",
    "emergency": "",
    "quality": "",
    "LAT": 43.25741,
    "LON": 27.8236052
  },
  "41": {
    "id": 10041,
    "name": "Ветеринарна лечебница",
    "address": "",
    "city": "Чирпан",
    "state": "Стара Загора",
    "zip": 6249,
    "county": "",
    "phone": "",
    "type": "",
    "ownership": "",
    "emergency": "",
    "quality": "",
    "LAT": 42.2589705,
    "LON": 25.3296981
  },
  "42": {
    "id": 10042,
    "name": "Вита Мед",
    "address": "",
    "city": "Карлово",
    "state": "Пловдив",
    "zip": 4300,
    "county": "",
    "phone": "",
    "type": "",
    "ownership": "",
    "emergency": "",
    "quality": "",
    "LAT": 42.6427216,
    "LON": 24.8048457
  },
  "43": {
    "id": 10043,
    "name": "Витоша СБАЛ по ортопедия и травматология",
    "address": "",
    "city": "София",
    "state": "",
    "zip": 1421,
    "county": "",
    "phone": "",
    "type": "",
    "ownership": "",
    "emergency": "",
    "quality": "",
    "LAT": 42.642294,
    "LON": 23.334063
  },
  "44": {
    "id": 10044,
    "name": "Военна болница",
    "address": "",
    "city": "Плевен",
    "state": "Плевен",
    "zip": 5800,
    "county": "",
    "phone": "",
    "type": "",
    "ownership": "",
    "emergency": "",
    "quality": "",
    "LAT": 43.4149579,
    "LON": 24.6299359
  },
  "46": {
    "id": 10046,
    "name": "Военно-морска болница",
    "address": "",
    "city": "Варна",
    "state": "Варна",
    "zip": 9010,
    "county": "",
    "phone": "",
    "type": "",
    "ownership": "",
    "emergency": "Yes",
    "quality": "",
    "LAT": 43.2271136,
    "LON": 27.924712
  },
  "47": {
    "id": 10047,
    "name": "Втора Градска Поликлиника",
    "address": "",
    "city": "Плевен",
    "state": "Плевен",
    "zip": 5800,
    "county": "",
    "phone": "",
    "type": "",
    "ownership": "",
    "emergency": "",
    "quality": "",
    "LAT": 43.4066061,
    "LON": 24.6205129
  },
  "48": {
    "id": 10048,
    "name": "Втора Многопрофилна Болница за Активно Лечение",
    "address": "бул. Христо Ботев 120",
    "city": "София",
    "state": "",
    "zip": 1220,
    "county": "",
    "phone": "+359 2 931 4024",
    "type": "",
    "ownership": "",
    "emergency": "No",
    "quality": "",
    "LAT": 42.706607,
    "LON": 23.3179169
  },
  "49": {
    "id": 10049,
    "name": "ДКЦ",
    "address": "Ул. Ген. Скобелев 34",
    "city": "Казанлък",
    "state": "Стара Загора",
    "zip": 6100,
    "county": "",
    "phone": "",
    "type": "",
    "ownership": "",
    "emergency": "",
    "quality": "",
    "LAT": 42.6217336,
    "LON": 25.3877237
  },
  "50": {
    "id": 10050,
    "name": "ДКЦ \"Д-р Николай Тошев",
    "address": "",
    "city": "Чирпан",
    "state": "Стара Загора",
    "zip": 6200,
    "county": "",
    "phone": "",
    "type": "",
    "ownership": "",
    "emergency": "",
    "quality": "",
    "LAT": 42.2002817,
    "LON": 25.327816
  },
  "51": {
    "id": 10051,
    "name": "ДКЦ 1",
    "address": "",
    "city": "Плевен",
    "state": "Плевен",
    "zip": 5800,
    "county": "",
    "phone": "",
    "type": "",
    "ownership": "",
    "emergency": "",
    "quality": "",
    "LAT": 43.4163833,
    "LON": 24.6098698
  },
  "52": {
    "id": 10052,
    "name": "ДКЦ 2",
    "address": "",
    "city": "Сливен",
    "state": "Сливен",
    "zip": 8800,
    "county": "",
    "phone": "",
    "type": "",
    "ownership": "",
    "emergency": "",
    "quality": "",
    "LAT": 42.6791919,
    "LON": 26.3109433
  },
  "54": {
    "id": 10054,
    "name": "ДКЦ 2 Св.Иван Рилски",
    "address": "",
    "city": "Варна",
    "state": "Варна",
    "zip": 9003,
    "county": "",
    "phone": "",
    "type": "",
    "ownership": "",
    "emergency": "",
    "quality": "",
    "LAT": 43.1815763,
    "LON": 27.8955097
  },
  "55": {
    "id": 10055,
    "name": "ДКЦ 3",
    "address": "",
    "city": "Варна",
    "state": "Варна",
    "zip": 9023,
    "county": "",
    "phone": "",
    "type": "",
    "ownership": "",
    "emergency": "",
    "quality": "",
    "LAT": 43.2480133,
    "LON": 27.8468726
  },
  "57": {
    "id": 10057,
    "name": "ДКЦ 30",
    "address": "",
    "city": "София",
    "state": "",
    "zip": 1231,
    "county": "",
    "phone": "",
    "type": "",
    "ownership": "",
    "emergency": "",
    "quality": "",
    "LAT": 42.7440613,
    "LON": 23.2763136
  },
  "58": {
    "id": 10058,
    "name": "ДКЦ 4 - Варна",
    "address": "",
    "city": "Варна",
    "state": "Варна",
    "zip": 9002,
    "county": "",
    "phone": "",
    "type": "",
    "ownership": "",
    "emergency": "",
    "quality": "",
    "LAT": 43.2148978,
    "LON": 27.9171614
  },
  "59": {
    "id": 10059,
    "name": "ДКЦ 5 Св. Екатерина",
    "address": "",
    "city": "Варна",
    "state": "Варна",
    "zip": 9002,
    "county": "",
    "phone": "",
    "type": "",
    "ownership": "",
    "emergency": "",
    "quality": "",
    "LAT": 43.2088927,
    "LON": 27.894981
  },
  "60": {
    "id": 10060,
    "name": "ДКЦ 6",
    "address": "",
    "city": "Пловдив",
    "state": "Пловдив",
    "zip": 4000,
    "county": "",
    "phone": "",
    "type": "",
    "ownership": "",
    "emergency": "",
    "quality": "",
    "LAT": 42.139921,
    "LON": 24.7405961
  },
  "61": {
    "id": 10061,
    "name": "ДМСГД-Благоевград",
    "address": "",
    "city": "Благоевград",
    "state": "Благоевград",
    "zip": 2700,
    "county": "",
    "phone": "",
    "type": "",
    "ownership": "",
    "emergency": "",
    "quality": "",
    "LAT": 42.0257756,
    "LON": 23.0919877
  },
  "64": {
    "id": 10064,
    "name": "Детска специализирана болница за белодробни заболявания Царица Йоана",
    "address": "",
    "city": "Трявна",
    "state": "Габрово",
    "zip": 5350,
    "county": "",
    "phone": "",
    "type": "",
    "ownership": "",
    "emergency": "",
    "quality": "",
    "LAT": 42.8670631,
    "LON": 25.4763448
  },
  "65": {
    "id": 10065,
    "name": "Детско отделение",
    "address": "ул.Гео Милев nan",
    "city": "Сливен",
    "state": "Сливен",
    "zip": 8804,
    "county": "",
    "phone": "",
    "type": "",
    "ownership": "",
    "emergency": "",
    "quality": "",
    "LAT": 42.6765224,
    "LON": 26.324072
  },
  "66": {
    "id": 10066,
    "name": "Детско-юношеска психиатрична клиника",
    "address": "",
    "city": "София",
    "state": "",
    "zip": 1616,
    "county": "",
    "phone": "",
    "type": "",
    "ownership": "",
    "emergency": "",
    "quality": "",
    "LAT": 42.6595557,
    "LON": 23.2548243
  },
  "67": {
    "id": 10067,
    "name": "Диспансер за белодробни заболявания",
    "address": "Mануш Войвода 11A",
    "city": "Варна",
    "state": "Варна",
    "zip": 9002,
    "county": "",
    "phone": "",
    "type": "",
    "ownership": "",
    "emergency": "",
    "quality": "",
    "LAT": 43.2095695,
    "LON": 27.8901418
  },
  "68": {
    "id": 10068,
    "name": "Диспансер за психични заболявания със стационар",
    "address": "Хаджи Христо Попгеоргиев 12",
    "city": "Смолян",
    "state": "Смолян",
    "zip": 4700,
    "county": "",
    "phone": "+359301643 66",
    "type": "",
    "ownership": "",
    "emergency": "",
    "quality": "",
    "LAT": 41.5721802,
    "LON": 24.7857486
  },
  "69": {
    "id": 10069,
    "name": "Дом за медико-социални грижи за деца",
    "address": "",
    "city": "Плевен",
    "state": "Плевен",
    "zip": 5800,
    "county": "",
    "phone": "",
    "type": "",
    "ownership": "",
    "emergency": "",
    "quality": "",
    "LAT": 43.4026194,
    "LON": 24.6297866
  },
  "70": {
    "id": 10070,
    "name": "Държавна психиатрична болниза \"Д-р Георги Кисьов",
    "address": "",
    "city": "Раднево",
    "state": "Стара Загора",
    "zip": 6275,
    "county": "",
    "phone": "",
    "type": "",
    "ownership": "",
    "emergency": "",
    "quality": "",
    "LAT": 42.2873226,
    "LON": 25.9226854
  },
  "71": {
    "id": 10071,
    "name": "Държавна психиатрична болница",
    "address": "",
    "city": "Балчик",
    "state": "Добрич",
    "zip": 9600,
    "county": "",
    "phone": "",
    "type": "",
    "ownership": "",
    "emergency": "",
    "quality": "",
    "LAT": 43.4741738,
    "LON": 28.0181944
  },
  "72": {
    "id": 10072,
    "name": "Държавна психиатрична болница \"Св. Иван Рилски",
    "address": "ул. Христо Ботев 140",
    "city": "София",
    "state": "",
    "zip": 1000,
    "county": "",
    "phone": "",
    "type": "",
    "ownership": "",
    "emergency": "No",
    "quality": "",
    "LAT": 42.8282335,
    "LON": 23.3691942
  },
  "73": {
    "id": 10073,
    "name": "Държавна психиатрична болница за лечение на наркомании и алкохолизъм",
    "address": "",
    "city": "София",
    "state": "",
    "zip": 1000,
    "county": "",
    "phone": "",
    "type": "",
    "ownership": "",
    "emergency": "",
    "quality": "",
    "LAT": 42.6743189,
    "LON": 23.1863342
  },
  "74": {
    "id": 10074,
    "name": "Ева",
    "address": "",
    "city": "Сливен",
    "state": "Сливен",
    "zip": 8804,
    "county": "",
    "phone": "",
    "type": "",
    "ownership": "",
    "emergency": "No",
    "quality": "",
    "LAT": 42.6924395,
    "LON": 26.3434973
  },
  "75": {
    "id": 10075,
    "name": "Ескулап",
    "address": "",
    "city": "Пазарджик",
    "state": "Пазарджик",
    "zip": 4400,
    "county": "",
    "phone": "",
    "type": "",
    "ownership": "",
    "emergency": "No",
    "quality": "",
    "LAT": 42.1987229,
    "LON": 24.3307886
  },
  "76": {
    "id": 10076,
    "name": "Здравен център \"ОЛИМП",
    "address": "",
    "city": "Своге",
    "state": "София",
    "zip": 2260,
    "county": "",
    "phone": "",
    "type": "",
    "ownership": "",
    "emergency": "",
    "quality": "",
    "LAT": 42.9614019,
    "LON": 23.3450215
  },
  "77": {
    "id": 10077,
    "name": "Здравна служба",
    "address": "",
    "city": "Варна",
    "state": "Варна",
    "zip": 9140,
    "county": "",
    "phone": "",
    "type": "",
    "ownership": "",
    "emergency": "",
    "quality": "",
    "LAT": 43.2164498,
    "LON": 27.8181833
  },
  "79": {
    "id": 10079,
    "name": "Изоставена болница(Бивша болница за туберкулоза)",
    "address": "",
    "city": "Сливен",
    "state": "Сливен",
    "zip": 8802,
    "county": "",
    "phone": "",
    "type": "",
    "ownership": "",
    "emergency": "",
    "quality": "",
    "LAT": 42.6813993,
    "LON": 26.330623
  },
  "80": {
    "id": 10080,
    "name": "КОЖЕН ДИСПАНСЕР",
    "address": "",
    "city": "Сливен",
    "state": "Сливен",
    "zip": 8804,
    "county": "",
    "phone": "",
    "type": "",
    "ownership": "",
    "emergency": "",
    "quality": "",
    "LAT": 42.6747252,
    "LON": 26.3264341
  },
  "81": {
    "id": 10081,
    "name": "КУРОРТНА ПОЛИКЛ.",
    "address": "",
    "city": "Велинград",
    "state": "Пазарджик",
    "zip": 4600,
    "county": "",
    "phone": "",
    "type": "",
    "ownership": "",
    "emergency": "",
    "quality": "",
    "LAT": 42.029937,
    "LON": 23.9938604
  },
  "82": {
    "id": 10082,
    "name": "Кардиологичен център",
    "address": "ул. Криволак 11",
    "city": "Сливен",
    "state": "Сливен",
    "zip": 8804,
    "county": "",
    "phone": "",
    "type": "",
    "ownership": "",
    "emergency": "",
    "quality": "",
    "LAT": 42.6764657,
    "LON": 26.3237824
  },
  "83": {
    "id": 10083,
    "name": "Клиника по Ортопедия и Травматология",
    "address": "бул. Русе 89",
    "city": "Плевен",
    "state": "Плевен",
    "zip": 5800,
    "county": "",
    "phone": "",
    "type": "",
    "ownership": "",
    "emergency": "",
    "quality": "",
    "LAT": 43.4119488,
    "LON": 24.6321641
  },
  "84": {
    "id": 10084,
    "name": "Комплексен онкологичен център-Бургас ЕООД",
    "address": "",
    "city": "Бургас",
    "state": "Бургас",
    "zip": 8000,
    "county": "",
    "phone": "",
    "type": "",
    "ownership": "",
    "emergency": "",
    "quality": "",
    "LAT": 42.50123,
    "LON": 27.4750003
  },
  "85": {
    "id": 10085,
    "name": "Курортна поликлиника",
    "address": "ул. \"Никола Вапцаров\" 2",
    "city": "Варна",
    "state": "Варна",
    "zip": 9010,
    "county": "",
    "phone": "",
    "type": "",
    "ownership": "",
    "emergency": "",
    "quality": "",
    "LAT": 43.2129431,
    "LON": 27.9349711
  },
  "86": {
    "id": 10086,
    "name": "Лайф Хоспитал",
    "address": "",
    "city": "Бургас",
    "state": "Бургас",
    "zip": 8008,
    "county": "",
    "phone": "",
    "type": "",
    "ownership": "",
    "emergency": "",
    "quality": "",
    "LAT": 42.5275944,
    "LON": 27.4679489
  },
  "87": {
    "id": 10087,
    "name": "МБАЛ",
    "address": "",
    "city": "Гълъбово",
    "state": "Стара Загора",
    "zip": 6280,
    "county": "",
    "phone": "",
    "type": "",
    "ownership": "",
    "emergency": "",
    "quality": "",
    "LAT": 42.1412139,
    "LON": 25.8586284
  },
  "96": {
    "id": 10096,
    "name": "МБАЛ \"Д-р Братан Шукеров",
    "address": "",
    "city": "Смолян",
    "state": "Смолян",
    "zip": 4700,
    "county": "",
    "phone": "",
    "type": "",
    "ownership": "",
    "emergency": "",
    "quality": "",
    "LAT": 41.5740166,
    "LON": 24.7179878
  },
  "97": {
    "id": 10097,
    "name": "МБАЛ \"Д-р Иван Селимински\" Сливен",
    "address": "",
    "city": "Сливен",
    "state": "Сливен",
    "zip": 8804,
    "county": "",
    "phone": "",
    "type": "",
    "ownership": "",
    "emergency": "Yes",
    "quality": "",
    "LAT": 42.6754058,
    "LON": 26.3244332
  },
  "98": {
    "id": 10098,
    "name": "МБАЛ \"Доверие",
    "address": "",
    "city": "София",
    "state": "",
    "zip": 1632,
    "county": "",
    "phone": "",
    "type": "",
    "ownership": "",
    "emergency": "",
    "quality": "",
    "LAT": 42.6851386,
    "LON": 23.2464802
  },
  "99": {
    "id": 10099,
    "name": "МБАЛ \"Доктро Киро Попов",
    "address": "",
    "city": "Карлово",
    "state": "Пловдив",
    "zip": 4300,
    "county": "",
    "phone": "",
    "type": "",
    "ownership": "",
    "emergency": "",
    "quality": "",
    "LAT": 42.6450578,
    "LON": 24.799091
  },
  "100": {
    "id": 10100,
    "name": "МБАЛ \"Проф.д-р Цончев",
    "address": "",
    "city": "Котел",
    "state": "Сливен",
    "zip": 8970,
    "county": "",
    "phone": "",
    "type": "",
    "ownership": "",
    "emergency": "",
    "quality": "",
    "LAT": 42.883211,
    "LON": 26.4489459
  },
  "101": {
    "id": 10101,
    "name": "МБАЛ \"СВ. ИВАН РИЛСКИ\" - РАЗГРАД АД",
    "address": "",
    "city": "Разград",
    "state": "Разград",
    "zip": 7200,
    "county": "",
    "phone": "",
    "type": "",
    "ownership": "",
    "emergency": "Yes",
    "quality": "",
    "LAT": 43.5293766,
    "LON": 26.535444
  },
  "102": {
    "id": 10102,
    "name": "МБАЛ \"Св. Марина",
    "address": "",
    "city": "Плевен",
    "state": "Плевен",
    "zip": 5800,
    "county": "",
    "phone": "",
    "type": "",
    "ownership": "",
    "emergency": "",
    "quality": "",
    "LAT": 43.4408617,
    "LON": 24.5915198
  },
  "103": {
    "id": 10103,
    "name": "МБАЛ \"Св. Николай Чудотворец",
    "address": "Улица Каблешков 2",
    "city": "Лом",
    "state": "Монтана",
    "zip": 3600,
    "county": "",
    "phone": "",
    "type": "",
    "ownership": "",
    "emergency": "",
    "quality": "",
    "LAT": 43.828061,
    "LON": 23.2314199
  },
  "104": {
    "id": 10104,
    "name": "МБАЛ \"Света Екатерина",
    "address": "",
    "city": "Димитровград",
    "state": "Хасково",
    "zip": 6400,
    "county": "",
    "phone": "",
    "type": "",
    "ownership": "",
    "emergency": "",
    "quality": "",
    "LAT": 42.0519734,
    "LON": 25.5876437
  },
  "106": {
    "id": 10106,
    "name": "МБАЛ \"Света София",
    "address": "бул. България 104",
    "city": "София",
    "state": "",
    "zip": 1616,
    "county": "",
    "phone": "",
    "type": "",
    "ownership": "",
    "emergency": "",
    "quality": "",
    "LAT": 42.6598916,
    "LON": 23.2844253
  },
  "107": {
    "id": 10107,
    "name": "МБАЛ \"Свети Иван Рилски",
    "address": "",
    "city": "Елхово",
    "state": "Ямбол",
    "zip": 8700,
    "county": "",
    "phone": "",
    "type": "",
    "ownership": "",
    "emergency": "",
    "quality": "",
    "LAT": 42.1774474,
    "LON": 26.5807519
  },
  "108": {
    "id": 10108,
    "name": "МБАЛ \"Уни Хоспитал",
    "address": "Георги Бенковски 100",
    "city": "Панагюрище",
    "state": "Пазарджик",
    "zip": 4500,
    "county": "",
    "phone": "+359 (357) 88 581",
    "type": "",
    "ownership": "",
    "emergency": "",
    "quality": "",
    "LAT": 42.4925838,
    "LON": 24.1864516
  },
  "109": {
    "id": 10109,
    "name": "МБАЛ \"Царица Йоанна",
    "address": "",
    "city": "София",
    "state": "",
    "zip": 1527,
    "county": "",
    "phone": "",
    "type": "",
    "ownership": "",
    "emergency": "",
    "quality": "",
    "LAT": 42.7010571,
    "LON": 23.3372624
  },
  "110": {
    "id": 10110,
    "name": "МБАЛ - Чирпан",
    "address": "",
    "city": "Чирпан",
    "state": "Стара Загора",
    "zip": 6200,
    "county": "",
    "phone": "",
    "type": "",
    "ownership": "",
    "emergency": "",
    "quality": "",
    "LAT": 42.2037501,
    "LON": 25.3423049
  },
  "111": {
    "id": 10111,
    "name": "МБАЛ Central",
    "address": "",
    "city": "Пловдив",
    "state": "Пловдив",
    "zip": 4000,
    "county": "",
    "phone": "",
    "type": "",
    "ownership": "",
    "emergency": "",
    "quality": "",
    "LAT": 42.1384007,
    "LON": 24.739566
  },
  "112": {
    "id": 10112,
    "name": "МБАЛ Асеновград",
    "address": "",
    "city": "Асеновград",
    "state": "Пловдив",
    "zip": 4230,
    "county": "",
    "phone": "",
    "type": "",
    "ownership": "",
    "emergency": "",
    "quality": "",
    "LAT": 42.0166244,
    "LON": 24.8796103
  },
  "113": {
    "id": 10113,
    "name": "МБАЛ Бургас",
    "address": "",
    "city": "Бургас",
    "state": "Бургас",
    "zip": 8018,
    "county": "",
    "phone": "",
    "type": "",
    "ownership": "",
    "emergency": "",
    "quality": "",
    "LAT": 42.5124648,
    "LON": 27.4668899
  },
  "114": {
    "id": 10114,
    "name": "МБАЛ Бургасмед",
    "address": "",
    "city": "Бургас",
    "state": "Бургас",
    "zip": 8009,
    "county": "",
    "phone": "",
    "type": "",
    "ownership": "",
    "emergency": "Yes",
    "quality": "",
    "LAT": 42.4635694,
    "LON": 27.420153
  },
  "115": {
    "id": 10115,
    "name": "МБАЛ Бяла Слатина",
    "address": "",
    "city": "Бяла Слатина",
    "state": "Враца",
    "zip": 3201,
    "county": "",
    "phone": "",
    "type": "",
    "ownership": "",
    "emergency": "Yes",
    "quality": "",
    "LAT": 43.4784942,
    "LON": 23.9286685
  },
  "116": {
    "id": 10116,
    "name": "МБАЛ Д-р Димитър Моллов",
    "address": "",
    "city": "Елена",
    "state": "Велико Търново",
    "zip": 5070,
    "county": "",
    "phone": "",
    "type": "",
    "ownership": "",
    "emergency": "",
    "quality": "",
    "LAT": 42.9335361,
    "LON": 25.8757185
  },
  "117": {
    "id": 10117,
    "name": "МБАЛ Д-р Маджуров",
    "address": "",
    "city": "Бургас",
    "state": "Бургас",
    "zip": 8018,
    "county": "",
    "phone": "",
    "type": "",
    "ownership": "",
    "emergency": "",
    "quality": "",
    "LAT": 42.5183654,
    "LON": 27.4653335
  },
  "118": {
    "id": 10118,
    "name": "МБАЛ Доктор Никола Василиев",
    "address": "пл. \"17 януари\" 1",
    "city": "Кюстендил",
    "state": "Кюстендил",
    "zip": 2500,
    "county": "",
    "phone": "",
    "type": "",
    "ownership": "",
    "emergency": "",
    "quality": "",
    "LAT": 42.2804807,
    "LON": 22.6999253
  },
  "119": {
    "id": 10119,
    "name": "МБАЛ Исперих",
    "address": "",
    "city": "Исперих",
    "state": "Разград",
    "zip": 7400,
    "county": "",
    "phone": "",
    "type": "",
    "ownership": "",
    "emergency": "",
    "quality": "",
    "LAT": 43.7129681,
    "LON": 26.8393309
  },
  "120": {
    "id": 10120,
    "name": "МБАЛ Каварна",
    "address": "ул. Васил Левски 36",
    "city": "Каварна",
    "state": "Добрич",
    "zip": 9650,
    "county": "",
    "phone": "",
    "type": "",
    "ownership": "",
    "emergency": "",
    "quality": "",
    "LAT": 43.4257546,
    "LON": 28.3381256
  },
  "121": {
    "id": 10121,
    "name": "МБАЛ Карнобат",
    "address": "",
    "city": "Карнобат",
    "state": "Бургас",
    "zip": 8400,
    "county": "",
    "phone": "",
    "type": "",
    "ownership": "",
    "emergency": "",
    "quality": "",
    "LAT": 42.6502385,
    "LON": 26.9945433
  },
  "122": {
    "id": 10122,
    "name": "МБАЛ Кнежа",
    "address": "Улица Марин Боев 4",
    "city": "Кнежа",
    "state": "Плевен",
    "zip": 5835,
    "county": "",
    "phone": "",
    "type": "",
    "ownership": "",
    "emergency": "",
    "quality": "",
    "LAT": 43.4865973,
    "LON": 24.078266
  },
  "123": {
    "id": 10123,
    "name": "МБАЛ Левски",
    "address": "",
    "city": "Левски",
    "state": "Плевен",
    "zip": 5900,
    "county": "",
    "phone": "",
    "type": "",
    "ownership": "",
    "emergency": "",
    "quality": "",
    "LAT": 43.3667891,
    "LON": 25.1331542
  },
  "124": {
    "id": 10124,
    "name": "МБАЛ Луковит",
    "address": "",
    "city": "Луковит",
    "state": "Ловеч",
    "zip": 5770,
    "county": "",
    "phone": "",
    "type": "",
    "ownership": "",
    "emergency": "",
    "quality": "",
    "LAT": 43.2125558,
    "LON": 24.1596108
  },
  "125": {
    "id": 10125,
    "name": "МБАЛ Мездра",
    "address": "Улица Янко Сакъзов 33",
    "city": "Мездра",
    "state": "Враца",
    "zip": 3100,
    "county": "",
    "phone": "",
    "type": "",
    "ownership": "",
    "emergency": "",
    "quality": "",
    "LAT": 43.147305,
    "LON": 23.7097807
  },
  "126": {
    "id": 10126,
    "name": "МБАЛ Надежда",
    "address": "",
    "city": "София",
    "state": "",
    "zip": 1330,
    "county": "",
    "phone": "",
    "type": "",
    "ownership": "",
    "emergency": "",
    "quality": "",
    "LAT": 42.688523,
    "LON": 23.2740112
  },
  "127": {
    "id": 10127,
    "name": "МБАЛ Оряхово",
    "address": "Улица Арх. Цолов 98",
    "city": "Оряхово",
    "state": "Враца",
    "zip": 3300,
    "county": "",
    "phone": "",
    "type": "",
    "ownership": "",
    "emergency": "",
    "quality": "",
    "LAT": 43.7314943,
    "LON": 23.9452521
  },
  "128": {
    "id": 10128,
    "name": "МБАЛ Пирдоп",
    "address": "",
    "city": "Пирдоп",
    "state": "София",
    "zip": 2070,
    "county": "",
    "phone": "",
    "type": "",
    "ownership": "",
    "emergency": "",
    "quality": "",
    "LAT": 42.7028422,
    "LON": 24.1691689
  },
  "129": {
    "id": 10129,
    "name": "МБАЛ Поморие",
    "address": "",
    "city": "Поморие",
    "state": "Бургас",
    "zip": 8201,
    "county": "",
    "phone": "",
    "type": "",
    "ownership": "",
    "emergency": "",
    "quality": "",
    "LAT": 42.5635441,
    "LON": 27.6384825
  },
  "130": {
    "id": 10130,
    "name": "МБАЛ Рокфелер",
    "address": "",
    "city": "Петрич",
    "state": "Благоевград",
    "zip": 2850,
    "county": "",
    "phone": "",
    "type": "",
    "ownership": "",
    "emergency": "Yes",
    "quality": "",
    "LAT": 41.3981825,
    "LON": 23.2069226
  },
  "131": {
    "id": 10131,
    "name": "МБАЛ Св. Иван Рилски",
    "address": "",
    "city": "Стара Загора",
    "state": "Стара Загора",
    "zip": 6001,
    "county": "",
    "phone": "",
    "type": "",
    "ownership": "",
    "emergency": "",
    "quality": "",
    "LAT": 42.4234572,
    "LON": 25.6354232
  },
  "132": {
    "id": 10132,
    "name": "МБАЛ Св. Пантелеймон",
    "address": "Панйот Хитов 30",
    "city": "Ямбол",
    "state": "Ямбол",
    "zip": 8600,
    "county": "",
    "phone": "",
    "type": "",
    "ownership": "",
    "emergency": "Yes",
    "quality": "",
    "LAT": 42.4875285,
    "LON": 26.5147807
  },
  "133": {
    "id": 10133,
    "name": "МБАЛ Света Марина",
    "address": "",
    "city": "Варна",
    "state": "Варна",
    "zip": 9010,
    "county": "",
    "phone": "",
    "type": "",
    "ownership": "",
    "emergency": "",
    "quality": "",
    "LAT": 43.2258763,
    "LON": 27.9335944
  },
  "134": {
    "id": 10134,
    "name": "МБАЛ Свети Георги",
    "address": "",
    "city": "Пловдив",
    "state": "Пловдив",
    "zip": 4000,
    "county": "",
    "phone": "",
    "type": "",
    "ownership": "",
    "emergency": "",
    "quality": "",
    "LAT": 42.1397087,
    "LON": 24.7364568
  },
  "135": {
    "id": 10135,
    "name": "МБАЛ Свети Мина",
    "address": "",
    "city": "Пловдив",
    "state": "Пловдив",
    "zip": 4000,
    "county": "",
    "phone": "",
    "type": "",
    "ownership": "",
    "emergency": "No",
    "quality": "",
    "LAT": 42.1363392,
    "LON": 24.7430412
  },
  "136": {
    "id": 10136,
    "name": "МБАЛ Хасково",
    "address": "",
    "city": "Хасково",
    "state": "Хасково",
    "zip": 6300,
    "county": "",
    "phone": "",
    "type": "",
    "ownership": "",
    "emergency": "",
    "quality": "",
    "LAT": 41.9319522,
    "LON": 25.5663018
  },
  "137": {
    "id": 10137,
    "name": "МБАЛ Червен бряг",
    "address": "",
    "city": "Червен бряг",
    "state": "Плевен",
    "zip": 5980,
    "county": "",
    "phone": "",
    "type": "",
    "ownership": "",
    "emergency": "",
    "quality": "",
    "LAT": 43.2733278,
    "LON": 24.0848629
  },
  "138": {
    "id": 10138,
    "name": "МБАЛ д-р Димитър Чакмаков",
    "address": "",
    "city": "Раднево",
    "state": "Стара Загора",
    "zip": 6275,
    "county": "",
    "phone": "",
    "type": "",
    "ownership": "",
    "emergency": "",
    "quality": "",
    "LAT": 42.2927025,
    "LON": 25.9443754
  },
  "139": {
    "id": 10139,
    "name": "МБАЛ проф. д-р. Асен Шопов",
    "address": "",
    "city": "Златоград",
    "state": "Смолян",
    "zip": 4980,
    "county": "",
    "phone": "",
    "type": "",
    "ownership": "",
    "emergency": "",
    "quality": "",
    "LAT": 41.3786431,
    "LON": 25.095769
  },
  "140": {
    "id": 10140,
    "name": "МБАЛ проф.Димитър Ранев",
    "address": "",
    "city": "Пещера",
    "state": "Пазарджик",
    "zip": 4550,
    "county": "",
    "phone": "",
    "type": "",
    "ownership": "",
    "emergency": "",
    "quality": "",
    "LAT": 42.0392062,
    "LON": 24.3110654
  },
  "141": {
    "id": 10141,
    "name": "МБАЛ „Проф.д-р Ал.Герчев” Етрополе",
    "address": "",
    "city": "Етрополе",
    "state": "София",
    "zip": 2180,
    "county": "",
    "phone": "",
    "type": "",
    "ownership": "",
    "emergency": "",
    "quality": "",
    "LAT": 42.8401779,
    "LON": 23.9992791
  },
  "142": {
    "id": 10142,
    "name": "МБАЛ „Христо Ботев",
    "address": "bul. 2-ri Yuni 66",
    "city": "Враца",
    "state": "Враца",
    "zip": 3001,
    "county": "",
    "phone": 35992923039,
    "type": "",
    "ownership": "",
    "emergency": "Yes",
    "quality": "",
    "LAT": 43.1984838,
    "LON": 23.559393
  },
  "143": {
    "id": 10143,
    "name": "МБАЛ-Монтана „Д-р Стамен Илиев",
    "address": "",
    "city": "Монтана",
    "state": "Монтана",
    "zip": 3403,
    "county": "",
    "phone": "",
    "type": "",
    "ownership": "",
    "emergency": "",
    "quality": "",
    "LAT": 43.4020405,
    "LON": 23.2327936
  },
  "144": {
    "id": 10144,
    "name": "МБАЛ-Шумен",
    "address": "Васил Априлов 63",
    "city": "Шумен",
    "state": "Шумен",
    "zip": 9701,
    "county": "",
    "phone": "054 855 755",
    "type": "",
    "ownership": "",
    "emergency": "Yes",
    "quality": "",
    "LAT": 43.2777016,
    "LON": 26.9166915
  },
  "145": {
    "id": 10145,
    "name": "МИ на МВР - Филиал",
    "address": "",
    "city": "София",
    "state": "",
    "zip": 1320,
    "county": "",
    "phone": "",
    "type": "",
    "ownership": "",
    "emergency": "",
    "quality": "",
    "LAT": 42.7099554,
    "LON": 23.1525917
  },
  "146": {
    "id": 10146,
    "name": "МОБАЛ \"д-р Стефан Черкезов\" (база №1)",
    "address": "Улица Ниш 1",
    "city": "Велико Търново",
    "state": "Велико Търново",
    "zip": 5002,
    "county": "",
    "phone": "",
    "type": "",
    "ownership": "",
    "emergency": "Yes",
    "quality": "",
    "LAT": 43.0747129,
    "LON": 25.6151125
  },
  "147": {
    "id": 10147,
    "name": "МЦ",
    "address": "",
    "city": "София",
    "state": "",
    "zip": 1641,
    "county": "",
    "phone": "",
    "type": "",
    "ownership": "",
    "emergency": "",
    "quality": "",
    "LAT": 42.6280451,
    "LON": 23.1989633
  },
  "148": {
    "id": 10148,
    "name": "МЦ 1",
    "address": "",
    "city": "София",
    "state": "",
    "zip": 1320,
    "county": "",
    "phone": "",
    "type": "",
    "ownership": "",
    "emergency": "",
    "quality": "",
    "LAT": 42.7067077,
    "LON": 23.1411535
  },
  "149": {
    "id": 10149,
    "name": "МЦ Санита",
    "address": "",
    "city": "Варна",
    "state": "Варна",
    "zip": 9020,
    "county": "",
    "phone": "",
    "type": "",
    "ownership": "",
    "emergency": "",
    "quality": "",
    "LAT": 43.2295752,
    "LON": 27.883899
  },
  "150": {
    "id": 10150,
    "name": "МЦ-1",
    "address": "",
    "city": "Костинброд",
    "state": "София",
    "zip": 2230,
    "county": "",
    "phone": "",
    "type": "",
    "ownership": "",
    "emergency": "",
    "quality": "",
    "LAT": 42.8127278,
    "LON": 23.2147267
  },
  "151": {
    "id": 10151,
    "name": "Медико-социален комплекс \"Св. Лука",
    "address": "",
    "city": "Суворово",
    "state": "Варна",
    "zip": 9171,
    "county": "",
    "phone": "",
    "type": "",
    "ownership": "",
    "emergency": "",
    "quality": "",
    "LAT": 43.3139532,
    "LON": 27.6655407
  },
  "152": {
    "id": 10152,
    "name": "Медицинки център Медикус",
    "address": "",
    "city": "Сливен",
    "state": "Сливен",
    "zip": 8804,
    "county": "",
    "phone": "",
    "type": "",
    "ownership": "",
    "emergency": "No",
    "quality": "",
    "LAT": 42.6815963,
    "LON": 26.3233052
  },
  "153": {
    "id": 10153,
    "name": "Медицински институт на МВР",
    "address": "бул. Ген. Скобелев 79",
    "city": "София",
    "state": "",
    "zip": 1606,
    "county": "",
    "phone": "+359 2 9821300",
    "type": "",
    "ownership": "",
    "emergency": "",
    "quality": "",
    "LAT": 42.6926039,
    "LON": 23.3087315
  },
  "154": {
    "id": 10154,
    "name": "Медицински комплекс \"Майчин дом\" - Варна",
    "address": "",
    "city": "Варна",
    "state": "Варна",
    "zip": 9002,
    "county": "",
    "phone": "",
    "type": "",
    "ownership": "",
    "emergency": "",
    "quality": "",
    "LAT": 43.2199703,
    "LON": 27.9261699
  },
  "155": {
    "id": 10155,
    "name": "Медицински комплекс Младост",
    "address": "",
    "city": "Варна",
    "state": "Варна",
    "zip": 9020,
    "county": "",
    "phone": "",
    "type": "",
    "ownership": "",
    "emergency": "",
    "quality": "",
    "LAT": 43.2313739,
    "LON": 27.8789974
  },
  "156": {
    "id": 10156,
    "name": "Медицински университет",
    "address": "",
    "city": "Пловдив",
    "state": "Пловдив",
    "zip": 4000,
    "county": "",
    "phone": "",
    "type": "",
    "ownership": "",
    "emergency": "",
    "quality": "",
    "LAT": 42.1406051,
    "LON": 24.7352158
  },
  "157": {
    "id": 10157,
    "name": "Медицински център",
    "address": "",
    "city": "Драгоман",
    "state": "София",
    "zip": 2210,
    "county": "",
    "phone": "",
    "type": "",
    "ownership": "",
    "emergency": "",
    "quality": "",
    "LAT": 42.9183658,
    "LON": 22.9277802
  },
  "168": {
    "id": 10168,
    "name": "Медицински център \"Здраве - 2000",
    "address": "",
    "city": "Стара Загора",
    "state": "Стара Загора",
    "zip": 6000,
    "county": "",
    "phone": "",
    "type": "",
    "ownership": "",
    "emergency": "",
    "quality": "",
    "LAT": 42.4378523,
    "LON": 25.6279188
  },
  "169": {
    "id": 10169,
    "name": "Медицински център \"Св. Иван Рилски",
    "address": "Трансмариска 69",
    "city": "Тутракан",
    "state": "Силистра",
    "zip": 7600,
    "county": "",
    "phone": "+359 866 60560",
    "type": "",
    "ownership": "",
    "emergency": "",
    "quality": "",
    "LAT": 44.0456233,
    "LON": 26.600234
  },
  "170": {
    "id": 10170,
    "name": "Медицински център \"Св. Лука",
    "address": "",
    "city": "Стара Загора",
    "state": "Стара Загора",
    "zip": 6001,
    "county": "",
    "phone": "",
    "type": "",
    "ownership": "",
    "emergency": "No",
    "quality": "",
    "LAT": 42.4287488,
    "LON": 25.6387644
  },
  "171": {
    "id": 10171,
    "name": "Медицински център Чирпан",
    "address": "",
    "city": "Чирпан",
    "state": "Стара Загора",
    "zip": 6200,
    "county": "",
    "phone": "",
    "type": "",
    "ownership": "",
    "emergency": "",
    "quality": "",
    "LAT": 42.1983047,
    "LON": 25.3288484
  },
  "172": {
    "id": 10172,
    "name": "Медицински център и Община",
    "address": "",
    "city": "София",
    "state": "",
    "zip": 1849,
    "county": "",
    "phone": "",
    "type": "",
    "ownership": "",
    "emergency": "",
    "quality": "",
    "LAT": 42.7866197,
    "LON": 23.5191998
  },
  "173": {
    "id": 10173,
    "name": "Многопрофилна болница за АЛ",
    "address": "",
    "city": "Раковски",
    "state": "Пловдив",
    "zip": 4150,
    "county": "",
    "phone": "",
    "type": "",
    "ownership": "",
    "emergency": "",
    "quality": "",
    "LAT": 42.2888042,
    "LON": 24.9542706
  },
  "174": {
    "id": 10174,
    "name": "Многопрофилна болница за активно лечение (МБАЛ)",
    "address": "Трансмариска 81",
    "city": "Тутракан",
    "state": "Силистра",
    "zip": 7600,
    "county": "",
    "phone": "+359 866 60078",
    "type": "",
    "ownership": "",
    "emergency": "",
    "quality": "",
    "LAT": 44.0445844,
    "LON": 26.5962863
  },
  "175": {
    "id": 10175,
    "name": "НКБ - отделение по кардиологична рехабилитация",
    "address": "",
    "city": "София",
    "state": "",
    "zip": 1320,
    "county": "",
    "phone": "",
    "type": "",
    "ownership": "",
    "emergency": "",
    "quality": "",
    "LAT": 42.7080762,
    "LON": 23.1485442
  },
  "176": {
    "id": 10176,
    "name": "НМТБ-клинична лаборатория, имунология и хормони",
    "address": "",
    "city": "София",
    "state": "",
    "zip": 1220,
    "county": "",
    "phone": "",
    "type": "",
    "ownership": "",
    "emergency": "",
    "quality": "",
    "LAT": 42.7128791,
    "LON": 23.3176821
  },
  "177": {
    "id": 10177,
    "name": "НМТБ-микробиологична лаборатория",
    "address": "",
    "city": "София",
    "state": "",
    "zip": 1000,
    "county": "",
    "phone": "",
    "type": "",
    "ownership": "",
    "emergency": "",
    "quality": "",
    "LAT": 42.7131232,
    "LON": 23.3180024
  },
  "178": {
    "id": 10178,
    "name": "Национален център по хематология и трансфузиология",
    "address": "Братя Миладинови 112",
    "city": "София",
    "state": "",
    "zip": 1220,
    "county": "",
    "phone": "",
    "type": "",
    "ownership": "",
    "emergency": "",
    "quality": "",
    "LAT": 42.7093188,
    "LON": 23.3196212
  },
  "179": {
    "id": 10179,
    "name": "Национална кардиологична болница",
    "address": "Коньовица 65",
    "city": "София",
    "state": "",
    "zip": 1309,
    "county": "",
    "phone": "",
    "type": "",
    "ownership": "",
    "emergency": "Yes",
    "quality": "",
    "LAT": 42.7064019,
    "LON": 23.2858018
  },
  "180": {
    "id": 10180,
    "name": "Национална многопрофилна транспортна болница Цар Борис III",
    "address": "",
    "city": "София",
    "state": "",
    "zip": 1220,
    "county": "",
    "phone": "",
    "type": "",
    "ownership": "",
    "emergency": "",
    "quality": "",
    "LAT": 42.7131684,
    "LON": 23.3172779
  },
  "181": {
    "id": 10181,
    "name": "Национална специализирана болница за активно лечение по онкология",
    "address": "Пловдивско поле 6",
    "city": "София",
    "state": "",
    "zip": 1797,
    "county": "",
    "phone": "",
    "type": "",
    "ownership": "",
    "emergency": "",
    "quality": "",
    "LAT": 42.6617301,
    "LON": 23.3594485
  },
  "182": {
    "id": 10182,
    "name": "Областен диспансер за Психични заболявания",
    "address": "",
    "city": "Пловдив",
    "state": "Пловдив",
    "zip": 4000,
    "county": "",
    "phone": "",
    "type": "",
    "ownership": "",
    "emergency": "",
    "quality": "",
    "LAT": 42.1366564,
    "LON": 24.7104656
  },
  "183": {
    "id": 10183,
    "name": "Областен диспансер за кожно-венерически заболявания",
    "address": "",
    "city": "Пловдив",
    "state": "Пловдив",
    "zip": 4004,
    "county": "",
    "phone": "",
    "type": "",
    "ownership": "",
    "emergency": "",
    "quality": "",
    "LAT": 42.1305757,
    "LON": 24.7460625
  },
  "184": {
    "id": 10184,
    "name": "Областен диспансер за психични заболявания Проф. д-р Иван Темков",
    "address": "",
    "city": "Бургас",
    "state": "Бургас",
    "zip": 8001,
    "county": "",
    "phone": "",
    "type": "",
    "ownership": "",
    "emergency": "",
    "quality": "",
    "LAT": 42.5141169,
    "LON": 27.474304
  },
  "185": {
    "id": 10185,
    "name": "Областен психо-диспансер",
    "address": "",
    "city": "София",
    "state": "",
    "zip": 1220,
    "county": "",
    "phone": "",
    "type": "",
    "ownership": "",
    "emergency": "",
    "quality": "",
    "LAT": 42.7064241,
    "LON": 23.3326195
  },
  "186": {
    "id": 10186,
    "name": "Общинска Поликлиника Кюстендил",
    "address": "",
    "city": "Кюстендил",
    "state": "Кюстендил",
    "zip": 2500,
    "county": "",
    "phone": "",
    "type": "",
    "ownership": "",
    "emergency": "",
    "quality": "",
    "LAT": 42.2811936,
    "LON": 22.6919979
  },
  "187": {
    "id": 10187,
    "name": "Окръжна болница \"Проф. Стоян Киркович",
    "address": "",
    "city": "Стара Загора",
    "state": "Стара Загора",
    "zip": 6003,
    "county": "",
    "phone": "",
    "type": "",
    "ownership": "",
    "emergency": "Yes",
    "quality": "",
    "LAT": 42.4259093,
    "LON": 25.6135716
  },
  "188": {
    "id": 10188,
    "name": "Онкологичен диспансер",
    "address": "",
    "city": "София",
    "state": "",
    "zip": 1729,
    "county": "",
    "phone": "",
    "type": "",
    "ownership": "",
    "emergency": "",
    "quality": "",
    "LAT": 42.6562476,
    "LON": 23.3716961
  },
  "189": {
    "id": 10189,
    "name": "Отделение УМБАЛ \"Света Марина",
    "address": "",
    "city": "Долни Чифлик",
    "state": "Варна",
    "zip": 9112,
    "county": "",
    "phone": "",
    "type": "",
    "ownership": "",
    "emergency": "",
    "quality": "",
    "LAT": 42.9620074,
    "LON": 27.8815197
  },
  "190": {
    "id": 10190,
    "name": "Очна болница",
    "address": "",
    "city": "Варна",
    "state": "Варна",
    "zip": 9002,
    "county": "",
    "phone": "",
    "type": "",
    "ownership": "",
    "emergency": "",
    "quality": "",
    "LAT": 43.2165383,
    "LON": 27.9133678
  },
  "191": {
    "id": 10191,
    "name": "Пета МБАЛ София",
    "address": "бул. ген. Николай Г. Столетов 67А",
    "city": "София",
    "state": "",
    "zip": 1220,
    "county": "",
    "phone": "",
    "type": "",
    "ownership": "",
    "emergency": "Yes",
    "quality": "",
    "LAT": 42.7130855,
    "LON": 23.3109504
  },
  "192": {
    "id": 10192,
    "name": "Поликлиника",
    "address": "",
    "city": "Вълчедръм",
    "state": "Монтана",
    "zip": 3650,
    "county": "",
    "phone": "",
    "type": "",
    "ownership": "",
    "emergency": "",
    "quality": "",
    "LAT": 43.6963178,
    "LON": 23.4370065
  },
  "194": {
    "id": 10194,
    "name": "Правителствен санаториум",
    "address": "",
    "city": "София",
    "state": "",
    "zip": 1000,
    "county": "",
    "phone": "",
    "type": "",
    "ownership": "",
    "emergency": "No",
    "quality": "",
    "LAT": 42.6365308,
    "LON": 23.180096
  },
  "195": {
    "id": 10195,
    "name": "Психиатрична болница Карлуково",
    "address": "",
    "city": "Луковит",
    "state": "Ловеч",
    "zip": 5770,
    "county": "",
    "phone": "",
    "type": "",
    "ownership": "",
    "emergency": "",
    "quality": "",
    "LAT": 43.1794199,
    "LON": 24.0653025
  },
  "196": {
    "id": 10196,
    "name": "Психиатрична клиника",
    "address": "Огражден 2",
    "city": "Плевен",
    "state": "Плевен",
    "zip": 5800,
    "county": "",
    "phone": "",
    "type": "",
    "ownership": "",
    "emergency": "No",
    "quality": "",
    "LAT": 43.4168127,
    "LON": 24.5972186
  },
  "197": {
    "id": 10197,
    "name": "Първа САГБАЛ \"Света София",
    "address": "Михалаки Ташев 2",
    "city": "София",
    "state": "",
    "zip": 1330,
    "county": "",
    "phone": "",
    "type": "",
    "ownership": "",
    "emergency": "",
    "quality": "",
    "LAT": 42.6992655,
    "LON": 23.2880145
  },
  "198": {
    "id": 10198,
    "name": "Първичен здравен център Балик",
    "address": "",
    "city": "Добрич",
    "state": "Добрич",
    "zip": 9300,
    "county": "",
    "phone": "",
    "type": "",
    "ownership": "",
    "emergency": "",
    "quality": "",
    "LAT": 43.5763241,
    "LON": 27.8498463
  },
  "199": {
    "id": 10199,
    "name": "Районна болница Д-р Теодоси Витанов",
    "address": "",
    "city": "Трявна",
    "state": "Габрово",
    "zip": 5350,
    "county": "",
    "phone": "",
    "type": "",
    "ownership": "",
    "emergency": "",
    "quality": "",
    "LAT": 42.8676571,
    "LON": 25.4855026
  },
  "200": {
    "id": 10200,
    "name": "Регионален психодиспансер",
    "address": "",
    "city": "Русе",
    "state": "Русе",
    "zip": 7003,
    "county": "",
    "phone": "",
    "type": "",
    "ownership": "",
    "emergency": "",
    "quality": "",
    "LAT": 43.8662713,
    "LON": 25.9872499
  },
  "201": {
    "id": 10201,
    "name": "Регионална ветиранаро медицинска служба",
    "address": "",
    "city": "Смолян",
    "state": "Смолян",
    "zip": 4700,
    "county": "",
    "phone": "",
    "type": "",
    "ownership": "",
    "emergency": "",
    "quality": "",
    "LAT": 41.5706551,
    "LON": 24.7561304
  },
  "202": {
    "id": 10202,
    "name": "Рехабилитационна болница Ясен",
    "address": "",
    "city": "София",
    "state": "",
    "zip": 1320,
    "county": "",
    "phone": "",
    "type": "",
    "ownership": "",
    "emergency": "",
    "quality": "",
    "LAT": 42.7100493,
    "LON": 23.1499298
  },
  "203": {
    "id": 10203,
    "name": "САГБАЛ Св. Лазар",
    "address": "",
    "city": "София",
    "state": "",
    "zip": 1113,
    "county": "",
    "phone": "",
    "type": "",
    "ownership": "",
    "emergency": "",
    "quality": "",
    "LAT": 42.6592567,
    "LON": 23.3365026
  },
  "204": {
    "id": 10204,
    "name": "СБ",
    "address": "",
    "city": "София",
    "state": "",
    "zip": 1320,
    "county": "",
    "phone": "",
    "type": "",
    "ownership": "",
    "emergency": "",
    "quality": "",
    "LAT": 42.7089618,
    "LON": 23.1495881
  },
  "205": {
    "id": 10205,
    "name": "СБАЛ АГ „Селена“",
    "address": "",
    "city": "Пловдив",
    "state": "Пловдив",
    "zip": 4000,
    "county": "",
    "phone": "",
    "type": "",
    "ownership": "",
    "emergency": "",
    "quality": "",
    "LAT": 42.1349529,
    "LON": 24.7091242
  },
  "206": {
    "id": 10206,
    "name": "СБАЛ Св.Панталеймон",
    "address": "",
    "city": "Плевен",
    "state": "Плевен",
    "zip": 5800,
    "county": "",
    "phone": "",
    "type": "",
    "ownership": "",
    "emergency": "",
    "quality": "",
    "LAT": 43.4021072,
    "LON": 24.6424674
  },
  "208": {
    "id": 10208,
    "name": "СБАЛ на детски болести",
    "address": "",
    "city": "София",
    "state": "",
    "zip": 1320,
    "county": "",
    "phone": "",
    "type": "",
    "ownership": "",
    "emergency": "",
    "quality": "",
    "LAT": 42.710356,
    "LON": 23.151594
  },
  "209": {
    "id": 10209,
    "name": "СБАЛ по Белодробни Болести- Габрово",
    "address": "Д-р Кирил Въгленов 1",
    "city": "Габрово",
    "state": "Габрово",
    "zip": 5302,
    "county": "",
    "phone": "",
    "type": "",
    "ownership": "",
    "emergency": "No",
    "quality": "",
    "LAT": 42.8442885,
    "LON": 25.3146476
  },
  "210": {
    "id": 10210,
    "name": "СБАЛ по детски болести",
    "address": "бул. Акад. Иван Евстратиев Гешов 11",
    "city": "София",
    "state": "",
    "zip": 1000,
    "county": "",
    "phone": "+359 2 8154 211",
    "type": "",
    "ownership": "",
    "emergency": "",
    "quality": "",
    "LAT": 42.6840196,
    "LON": 23.3016798
  },
  "211": {
    "id": 10211,
    "name": "СБАЛ по ендокринология \"Акад. Ив. Пенчев",
    "address": "",
    "city": "София",
    "state": "",
    "zip": 1606,
    "county": "",
    "phone": "",
    "type": "",
    "ownership": "",
    "emergency": "",
    "quality": "",
    "LAT": 42.696676,
    "LON": 23.3144572
  },
  "213": {
    "id": 10213,
    "name": "СБАЛ по инф. и паразитни болести \"Проф. Ив. Киров",
    "address": "",
    "city": "София",
    "state": "",
    "zip": 1000,
    "county": "",
    "phone": "",
    "type": "",
    "ownership": "",
    "emergency": "",
    "quality": "",
    "LAT": 42.6812445,
    "LON": 23.3023366
  },
  "214": {
    "id": 10214,
    "name": "СБАЛВБ Бест Клиник",
    "address": "Бачо Киро 47",
    "city": "София",
    "state": "",
    "zip": 1527,
    "county": "",
    "phone": "",
    "type": "",
    "ownership": "",
    "emergency": "",
    "quality": "",
    "LAT": 42.7025714,
    "LON": 23.3258014
  },
  "215": {
    "id": 10215,
    "name": "СБАЛХ-Кърджали",
    "address": "",
    "city": "Кърджали",
    "state": "Кърджали",
    "zip": 6600,
    "county": "",
    "phone": "",
    "type": "",
    "ownership": "",
    "emergency": "",
    "quality": "",
    "LAT": 41.6452051,
    "LON": 25.3722039
  },
  "216": {
    "id": 10216,
    "name": "СБВБДПЛ",
    "address": "",
    "city": "София",
    "state": "",
    "zip": 1000,
    "county": "",
    "phone": "",
    "type": "",
    "ownership": "",
    "emergency": "",
    "quality": "",
    "LAT": 42.6130401,
    "LON": 23.3145609
  },
  "217": {
    "id": 10217,
    "name": "СБДПЛР Бухово",
    "address": "",
    "city": "София",
    "state": "",
    "zip": 1830,
    "county": "",
    "phone": "",
    "type": "",
    "ownership": "",
    "emergency": "",
    "quality": "",
    "LAT": 42.7616727,
    "LON": 23.5602631
  },
  "218": {
    "id": 10218,
    "name": "СБДПЛР Сливница",
    "address": "",
    "city": "Сливница",
    "state": "София",
    "zip": 2200,
    "county": "",
    "phone": "",
    "type": "",
    "ownership": "",
    "emergency": "",
    "quality": "",
    "LAT": 42.8541487,
    "LON": 23.0324809
  },
  "219": {
    "id": 10219,
    "name": "СБЗ \"Тузлата",
    "address": "",
    "city": "Балчик",
    "state": "Добрич",
    "zip": 9600,
    "county": "",
    "phone": "",
    "type": "",
    "ownership": "",
    "emergency": "No",
    "quality": "",
    "LAT": 43.4004197,
    "LON": 28.2255423
  },
  "220": {
    "id": 10220,
    "name": "СДПЛР",
    "address": "",
    "city": "София",
    "state": "",
    "zip": 1000,
    "county": "",
    "phone": "",
    "type": "",
    "ownership": "",
    "emergency": "",
    "quality": "",
    "LAT": 42.5810048,
    "LON": 23.4267325
  },
  "221": {
    "id": 10221,
    "name": "СХБАЛ Красимира",
    "address": "Балша 5",
    "city": "София",
    "state": "",
    "zip": 1408,
    "county": "",
    "phone": "",
    "type": "",
    "ownership": "",
    "emergency": "",
    "quality": "",
    "LAT": 42.6804785,
    "LON": 23.3096557
  },
  "222": {
    "id": 10222,
    "name": "Санаториум \"Свети Мина",
    "address": "",
    "city": "Вършец",
    "state": "Монтана",
    "zip": 3540,
    "county": "",
    "phone": "",
    "type": "",
    "ownership": "",
    "emergency": "",
    "quality": "",
    "LAT": 43.1876607,
    "LON": 23.2839046
  },
  "223": {
    "id": 10223,
    "name": "Санаториум за белодробни заболявания",
    "address": "",
    "city": "Роман",
    "state": "Враца",
    "zip": 3130,
    "county": "",
    "phone": "",
    "type": "",
    "ownership": "",
    "emergency": "",
    "quality": "",
    "LAT": 43.159164,
    "LON": 23.9232771
  },
  "224": {
    "id": 10224,
    "name": "Св. Иван Рилски",
    "address": "",
    "city": "Пловдив",
    "state": "Пловдив",
    "zip": 4000,
    "county": "",
    "phone": "",
    "type": "",
    "ownership": "",
    "emergency": "Yes",
    "quality": "",
    "LAT": 42.1679799,
    "LON": 24.7480042
  },
  "225": {
    "id": 10225,
    "name": "Св. Пантелеймон",
    "address": "",
    "city": "Пловдив",
    "state": "Пловдив",
    "zip": 4004,
    "county": "",
    "phone": "",
    "type": "",
    "ownership": "",
    "emergency": "",
    "quality": "",
    "LAT": 42.1217432,
    "LON": 24.7494757
  },
  "226": {
    "id": 10226,
    "name": "Св. Спас",
    "address": "",
    "city": "София",
    "state": "",
    "zip": 1000,
    "county": "",
    "phone": "",
    "type": "",
    "ownership": "",
    "emergency": "",
    "quality": "",
    "LAT": 42.7961121,
    "LON": 23.451249
  },
  "227": {
    "id": 10227,
    "name": "Света Анна",
    "address": "",
    "city": "Сливен",
    "state": "Сливен",
    "zip": 8804,
    "county": "",
    "phone": "",
    "type": "",
    "ownership": "",
    "emergency": "No",
    "quality": "",
    "LAT": 42.6926328,
    "LON": 26.3439321
  },
  "228": {
    "id": 10228,
    "name": "Серумен институт",
    "address": "",
    "city": "София",
    "state": "",
    "zip": 1000,
    "county": "",
    "phone": "",
    "type": "",
    "ownership": "",
    "emergency": "No",
    "quality": "",
    "LAT": 42.6762836,
    "LON": 23.1919238
  },
  "229": {
    "id": 10229,
    "name": "Сити Мед",
    "address": "бул. Липник nan",
    "city": "Русе",
    "state": "Русе",
    "zip": 7001,
    "county": "",
    "phone": "",
    "type": "",
    "ownership": "",
    "emergency": "No",
    "quality": "",
    "LAT": 43.8528077,
    "LON": 25.9916916
  },
  "230": {
    "id": 10230,
    "name": "Скин системс",
    "address": "",
    "city": "Елин Пелин",
    "state": "София",
    "zip": 2115,
    "county": "",
    "phone": "",
    "type": "",
    "ownership": "",
    "emergency": "",
    "quality": "",
    "LAT": 42.6324499,
    "LON": 23.688803
  },
  "231": {
    "id": 10231,
    "name": "Софиямед",
    "address": "бул. Д-р Г. М. Димитров 16",
    "city": "София",
    "state": "",
    "zip": 1113,
    "county": "",
    "phone": "+359 2 465 0000",
    "type": "",
    "ownership": "",
    "emergency": "Yes",
    "quality": "",
    "LAT": 42.6669745,
    "LON": 23.3647206
  },
  "232": {
    "id": 10232,
    "name": "Специализирана Болница за рехабилитация - Бургаски минерални бани",
    "address": "",
    "city": "Бургас",
    "state": "Бургас",
    "zip": 8127,
    "county": "",
    "phone": "",
    "type": "",
    "ownership": "",
    "emergency": "",
    "quality": "",
    "LAT": 42.6109492,
    "LON": 27.3915787
  },
  "233": {
    "id": 10233,
    "name": "Специализирана болница за активно лечение на белодробни болести - Троян",
    "address": "ул. Васил Левски 253",
    "city": "Троян",
    "state": "Ловеч",
    "zip": 5600,
    "county": "",
    "phone": "",
    "type": "",
    "ownership": "",
    "emergency": "",
    "quality": "",
    "LAT": 42.8986626,
    "LON": 24.7094294
  },
  "234": {
    "id": 10234,
    "name": "Специализирана болница за активно лечение на пневмо-фтизиатрични заболявания - Враца ЕООД",
    "address": "",
    "city": "Враца",
    "state": "Враца",
    "zip": 3000,
    "county": "",
    "phone": "",
    "type": "",
    "ownership": "",
    "emergency": "",
    "quality": "",
    "LAT": 43.197821,
    "LON": 23.5626659
  },
  "235": {
    "id": 10235,
    "name": "Специализирана болница за белодробни заболявания",
    "address": "",
    "city": "Мъглиж",
    "state": "Стара Загора",
    "zip": 6185,
    "county": "",
    "phone": "",
    "type": "",
    "ownership": "",
    "emergency": "",
    "quality": "",
    "LAT": 42.6794734,
    "LON": 25.5882881
  },
  "236": {
    "id": 10236,
    "name": "Специализирана болница за лечение на пневмо-фтизиатрични заболявания",
    "address": "",
    "city": "Бургас",
    "state": "Бургас",
    "zip": 8000,
    "county": "",
    "phone": "",
    "type": "",
    "ownership": "",
    "emergency": "",
    "quality": "",
    "LAT": 42.5007235,
    "LON": 27.4769221
  },
  "237": {
    "id": 10237,
    "name": "Специализирана болница за пневмо - фтизиатрични заболявания \"Д-р Трейман",
    "address": "",
    "city": "Велико Търново",
    "state": "Велико Търново",
    "zip": 5000,
    "county": "",
    "phone": "",
    "type": "",
    "ownership": "",
    "emergency": "",
    "quality": "",
    "LAT": 43.0737735,
    "LON": 25.6436691
  },
  "238": {
    "id": 10238,
    "name": "Специализирана болница за рехабилитация",
    "address": "",
    "city": "Котел",
    "state": "Сливен",
    "zip": 8970,
    "county": "",
    "phone": "",
    "type": "",
    "ownership": "",
    "emergency": "",
    "quality": "",
    "LAT": 42.891696,
    "LON": 26.4371048
  },
  "240": {
    "id": 10240,
    "name": "Специализирана болница за рехабилитация Здраве",
    "address": "",
    "city": "София",
    "state": "",
    "zip": 1320,
    "county": "",
    "phone": "",
    "type": "",
    "ownership": "",
    "emergency": "",
    "quality": "",
    "LAT": 42.7103459,
    "LON": 23.1469167
  },
  "241": {
    "id": 10241,
    "name": "Специализирана болница за рехабилитация Мари",
    "address": "Кипарис nan",
    "city": "Несебър",
    "state": "Бургас",
    "zip": 8230,
    "county": "",
    "phone": "",
    "type": "",
    "ownership": "",
    "emergency": "",
    "quality": "",
    "LAT": 42.6534097,
    "LON": 27.6926245
  },
  "242": {
    "id": 10242,
    "name": "Спешен медицински център",
    "address": "Васил Левски 10А",
    "city": "Болярово",
    "state": "Ямбол",
    "zip": 8720,
    "county": "",
    "phone": "",
    "type": "",
    "ownership": "",
    "emergency": "Yes",
    "quality": "",
    "LAT": 42.150127,
    "LON": 26.8114369
  },
  "243": {
    "id": 10243,
    "name": "Спешна медицинска помощ",
    "address": "",
    "city": "Пловдив",
    "state": "Пловдив",
    "zip": 4000,
    "county": "",
    "phone": "",
    "type": "",
    "ownership": "",
    "emergency": "",
    "quality": "",
    "LAT": 42.1383021,
    "LON": 24.7371062
  },
  "244": {
    "id": 10244,
    "name": "Спешна помощ",
    "address": "",
    "city": "Роман",
    "state": "Враца",
    "zip": 3130,
    "county": "",
    "phone": "",
    "type": "",
    "ownership": "",
    "emergency": "",
    "quality": "",
    "LAT": 43.1599116,
    "LON": 23.9218854
  },
  "245": {
    "id": 10245,
    "name": "Стар АГ Комплекс-Русе",
    "address": "ул. Николаевска nan",
    "city": "Русе",
    "state": "Русе",
    "zip": 7001,
    "county": "",
    "phone": "",
    "type": "",
    "ownership": "",
    "emergency": "",
    "quality": "",
    "LAT": 43.8356134,
    "LON": 25.953208
  },
  "246": {
    "id": 10246,
    "name": "Стоматологична поликлиника",
    "address": "",
    "city": "Добрич",
    "state": "Добрич",
    "zip": 9300,
    "county": "",
    "phone": "",
    "type": "",
    "ownership": "",
    "emergency": "",
    "quality": "",
    "LAT": 43.5714858,
    "LON": 27.8317405
  },
  "247": {
    "id": 10247,
    "name": "Стоматология",
    "address": "бул. Русе 1",
    "city": "Плевен",
    "state": "Плевен",
    "zip": 5800,
    "county": "",
    "phone": "",
    "type": "",
    "ownership": "",
    "emergency": "",
    "quality": "",
    "LAT": 43.4117789,
    "LON": 24.6220464
  },
  "248": {
    "id": 10248,
    "name": "Транспортен медицински институт",
    "address": "",
    "city": "София",
    "state": "",
    "zip": 1220,
    "county": "",
    "phone": "",
    "type": "",
    "ownership": "",
    "emergency": "",
    "quality": "",
    "LAT": 42.7131965,
    "LON": 23.3163686
  },
  "249": {
    "id": 10249,
    "name": "Транспортна болница",
    "address": "",
    "city": "Варна",
    "state": "Варна",
    "zip": 9002,
    "county": "",
    "phone": "",
    "type": "",
    "ownership": "",
    "emergency": "",
    "quality": "",
    "LAT": 43.1979399,
    "LON": 27.9130704
  },
  "250": {
    "id": 10250,
    "name": "УБ \"Майчин дом",
    "address": "",
    "city": "София",
    "state": "",
    "zip": 1000,
    "county": "",
    "phone": "",
    "type": "",
    "ownership": "",
    "emergency": "",
    "quality": "",
    "LAT": 42.683208,
    "LON": 23.3111531
  },
  "251": {
    "id": 10251,
    "name": "УМБАЛ \"Александровска",
    "address": "",
    "city": "София",
    "state": "",
    "zip": 1408,
    "county": "",
    "phone": "",
    "type": "",
    "ownership": "",
    "emergency": "",
    "quality": "",
    "LAT": 42.6818692,
    "LON": 23.3086383
  },
  "252": {
    "id": 10252,
    "name": "УМБАЛ \"Георги Странски",
    "address": "",
    "city": "Плевен",
    "state": "Плевен",
    "zip": 5803,
    "county": "",
    "phone": "",
    "type": "",
    "ownership": "",
    "emergency": "",
    "quality": "",
    "LAT": 43.4150624,
    "LON": 24.6296583
  },
  "254": {
    "id": 10254,
    "name": "УМБАЛ \"КАНЕВ\"-Русе",
    "address": "",
    "city": "Русе",
    "state": "Русе",
    "zip": 7002,
    "county": "",
    "phone": "",
    "type": "",
    "ownership": "",
    "emergency": "Yes",
    "quality": "",
    "LAT": 43.8567889,
    "LON": 25.961452
  },
  "255": {
    "id": 10255,
    "name": "УМБАЛ \"Св. Георги\" - Инфекциозна клиника",
    "address": "",
    "city": "Пловдив",
    "state": "Пловдив",
    "zip": 4000,
    "county": "",
    "phone": "",
    "type": "",
    "ownership": "",
    "emergency": "",
    "quality": "",
    "LAT": 42.1377194,
    "LON": 24.7152793
  },
  "256": {
    "id": 10256,
    "name": "УМБАЛ \"Св. Георги\" - Клиника по неврология",
    "address": "",
    "city": "Пловдив",
    "state": "Пловдив",
    "zip": 4000,
    "county": "",
    "phone": "",
    "type": "",
    "ownership": "",
    "emergency": "",
    "quality": "",
    "LAT": 42.136004,
    "LON": 24.7108546
  },
  "257": {
    "id": 10257,
    "name": "УМБАЛ Св. Анна",
    "address": "",
    "city": "София",
    "state": "",
    "zip": 1784,
    "county": "",
    "phone": "",
    "type": "",
    "ownership": "",
    "emergency": "Yes",
    "quality": "",
    "LAT": 42.6618231,
    "LON": 23.3708836
  },
  "258": {
    "id": 10258,
    "name": "УМБАЛ „Св. Георги“",
    "address": "бул. Пещерско шосе 66",
    "city": "Пловдив",
    "state": "Пловдив",
    "zip": 4002,
    "county": "",
    "phone": "",
    "type": "",
    "ownership": "",
    "emergency": "Yes",
    "quality": "",
    "LAT": 42.1389678,
    "LON": 24.7095088
  },
  "259": {
    "id": 10259,
    "name": "Университетска детска клиника по белодробни болести",
    "address": "",
    "city": "София",
    "state": "",
    "zip": 1616,
    "county": "",
    "phone": "",
    "type": "",
    "ownership": "",
    "emergency": "",
    "quality": "",
    "LAT": 42.6694308,
    "LON": 23.2533691
  },
  "260": {
    "id": 10260,
    "name": "Университетска многопрофилна болница за активно лечение и спешна медицина \"Н. И. Пирогов",
    "address": "",
    "city": "София",
    "state": "",
    "zip": 1606,
    "county": "",
    "phone": "+359 2 9154 411",
    "type": "",
    "ownership": "",
    "emergency": "Yes",
    "quality": "",
    "LAT": 42.6913578,
    "LON": 23.3090829
  },
  "261": {
    "id": 10261,
    "name": "Хайфу център",
    "address": "",
    "city": "Плевен",
    "state": "Плевен",
    "zip": 5800,
    "county": "",
    "phone": "",
    "type": "",
    "ownership": "",
    "emergency": "",
    "quality": "",
    "LAT": 43.4419042,
    "LON": 24.590195
  },
  "262": {
    "id": 10262,
    "name": "Хигия",
    "address": "",
    "city": "Пазарджик",
    "state": "Пазарджик",
    "zip": 4400,
    "county": "",
    "phone": "",
    "type": "",
    "ownership": "",
    "emergency": "No",
    "quality": "",
    "LAT": 42.189865,
    "LON": 24.3328015
  },
  "263": {
    "id": 10263,
    "name": "Хоспис Филаретова ЕООД",
    "address": "",
    "city": "Варна",
    "state": "Варна",
    "zip": "",
    "county": "",
    "phone": "",
    "type": "",
    "ownership": "",
    "emergency": "",
    "quality": "",
    "LAT": 43.1687478,
    "LON": 27.9213612
  },
  "264": {
    "id": 10264,
    "name": "Царица Йоанна",
    "address": "ул. Булаир nan",
    "city": "Сливен",
    "state": "Сливен",
    "zip": 8800,
    "county": "",
    "phone": "",
    "type": "",
    "ownership": "",
    "emergency": "No",
    "quality": "",
    "LAT": 42.683735,
    "LON": 26.3067703
  },
  "265": {
    "id": 10265,
    "name": "Център за кожно-венерически заболявания - Бургас",
    "address": "Оборище 89",
    "city": "Бургас",
    "state": "Бургас",
    "zip": 8000,
    "county": "",
    "phone": "",
    "type": "",
    "ownership": "",
    "emergency": "",
    "quality": "",
    "LAT": 42.5003425,
    "LON": 27.4746454
  },
  "266": {
    "id": 10266,
    "name": "Частна МБАЛ \"НИА МЕД",
    "address": "",
    "city": "Стара Загора",
    "state": "Стара Загора",
    "zip": 6003,
    "county": "",
    "phone": "",
    "type": "",
    "ownership": "",
    "emergency": "",
    "quality": "",
    "LAT": 42.4250319,
    "LON": 25.6174232
  },
  "267": {
    "id": 10267,
    "name": "Частна болница \"Ритъм",
    "address": "",
    "city": "Стара Загора",
    "state": "Стара Загора",
    "zip": 6000,
    "county": "",
    "phone": "",
    "type": "",
    "ownership": "",
    "emergency": "",
    "quality": "",
    "LAT": 42.4237954,
    "LON": 25.6279229
  },
  "268": {
    "id": 10268,
    "name": "Частна хирургична болница Света Богородица",
    "address": "",
    "city": "София",
    "state": "",
    "zip": 1527,
    "county": "",
    "phone": "",
    "type": "",
    "ownership": "",
    "emergency": "",
    "quality": "",
    "LAT": 42.6989049,
    "LON": 23.3437349
  },
  "269": {
    "id": 10269,
    "name": "Шеста обединена районна болница",
    "address": "",
    "city": "София",
    "state": "",
    "zip": 1632,
    "county": "",
    "phone": "",
    "type": "",
    "ownership": "",
    "emergency": "",
    "quality": "",
    "LAT": 42.6829208,
    "LON": 23.2538745
  },
  "270": {
    "id": 10270,
    "name": "здравна служба",
    "address": "Васил Левски 1",
    "city": "Бяла Слатина",
    "state": "Враца",
    "zip": 3243,
    "county": "",
    "phone": "",
    "type": "",
    "ownership": "",
    "emergency": "",
    "quality": "",
    "LAT": 43.3425253,
    "LON": 23.8470798
  },
  "271": {
    "id": 10271,
    "name": "лекарски кабинет",
    "address": "",
    "city": "Елин Пелин",
    "state": "София",
    "zip": 2115,
    "county": "",
    "phone": "",
    "type": "",
    "ownership": "",
    "emergency": "",
    "quality": "",
    "LAT": 42.6323043,
    "LON": 23.6851123
  },
  "272": {
    "id": 10272,
    "name": "￼Комплексен онкологичен център - Шумен",
    "address": "Васил Априлов 611",
    "city": "Шумен",
    "state": "Шумен",
    "zip": 9701,
    "county": "",
    "phone": "",
    "type": "",
    "ownership": "",
    "emergency": "",
    "quality": "",
    "LAT": 43.2768324,
    "LON": 26.9181582
  },
  "274": {
    "id": 10274,
    "name": "Д-р Кадева",
    "address": "Стефан Караджа 1.0",
    "city": "Банско",
    "state": "Благоевград",
    "zip": 2770,
    "county": "",
    "phone": "",
    "type": "",
    "ownership": "",
    "emergency": "",
    "quality": "",
    "LAT": 41.8407849,
    "LON": 23.4818133
  },
  "275": {
    "id": 10275,
    "name": "Д-р Русков",
    "address": "Цар Симеон 8.0",
    "city": "Банско",
    "state": "Благоевград",
    "zip": 2770,
    "county": "",
    "phone": "",
    "type": "",
    "ownership": "",
    "emergency": "",
    "quality": "",
    "LAT": 41.8424738,
    "LON": 23.4831915
  },
  "276": {
    "id": 10276,
    "name": "ДКЦ \"Сано",
    "address": "",
    "city": "Стара Загора",
    "state": "Стара Загора",
    "zip": 6000,
    "county": "",
    "phone": "",
    "type": "",
    "ownership": "",
    "emergency": "",
    "quality": "",
    "LAT": 42.4311039,
    "LON": 25.6330486
  },
  "277": {
    "id": 10277,
    "name": "Здравна Служба",
    "address": "ул Борис Ганев nan",
    "city": "Никопол",
    "state": "Плевен",
    "zip": 5954,
    "county": "",
    "phone": "",
    "type": "",
    "ownership": "",
    "emergency": "",
    "quality": "",
    "LAT": 43.6026639,
    "LON": 24.9966499
  },
  "297": {
    "id": 10297,
    "name": "МБАЛ Д-р Тота Венкова",
    "address": "",
    "city": "Габрово",
    "state": "Габрово",
    "zip": 5300,
    "county": "",
    "phone": "",
    "type": "",
    "ownership": "",
    "emergency": "Yes",
    "quality": "",
    "LAT": 42.8704334,
    "LON": 25.3059614
  },
  "300": {
    "id": 10300,
    "name": "ПСС база Офелиите",
    "address": "",
    "city": "София",
    "state": "",
    "zip": 1000,
    "county": "",
    "phone": "",
    "type": "",
    "ownership": "",
    "emergency": "",
    "quality": "",
    "LAT": 42.5978597,
    "LON": 23.235292
  },
  "301": {
    "id": 10301,
    "name": "Частна многопрофилна болница",
    "address": "Ул. Д-р Христо Баев 13.0",
    "city": "Казанлък",
    "state": "Стара Загора",
    "zip": 6100,
    "county": "",
    "phone": "",
    "type": "",
    "ownership": "",
    "emergency": "",
    "quality": "",
    "LAT": 42.6207001,
    "LON": 25.3921341
  },
  "302": {
    "id": 10302,
    "name": "д-р Галина Горанова",
    "address": "",
    "city": "Добрич",
    "state": "Добрич",
    "zip": 9300,
    "county": "",
    "phone": "",
    "type": "",
    "ownership": "",
    "emergency": "",
    "quality": "",
    "LAT": 43.5734395,
    "LON": 27.829206
  }
}