{
  "0": {
    "id": 10000,
    "name": "13 - LFI-Gebäude",
    "address": "Kerpener Straße 62",
    "city": "Köln",
    "state": "Nordrhein-westfalen",
    "zip": 50937,
    "county": "",
    "phone": "",
    "type": "",
    "ownership": "",
    "emergency": "",
    "quality": "",
    "LAT": 50.9244879,
    "LON": 6.9166819
  },
  "1": {
    "id": 10001,
    "name": "ACURA Kliniken Albstadt GmbH",
    "address": "Robert-Koch-Straße 26",
    "city": "Albstadt",
    "state": "Baden-württemberg",
    "zip": 72461,
    "county": "",
    "phone": "",
    "type": "",
    "ownership": "",
    "emergency": "",
    "quality": "",
    "LAT": 48.2374484,
    "LON": 9.0335627
  },
  "2": {
    "id": 10002,
    "name": "AGAPLESION Bethesda Klinik Ulm",
    "address": "",
    "city": "Ulm",
    "state": "Baden-württemberg",
    "zip": 89073,
    "county": "",
    "phone": "",
    "type": "",
    "ownership": "",
    "emergency": "",
    "quality": "",
    "LAT": 48.4019156,
    "LON": 10.0072453
  },
  "3": {
    "id": 10003,
    "name": "AHG Klinik",
    "address": "Ferndorfstraße 14",
    "city": "",
    "state": "Nordrhein-westfalen",
    "zip": "",
    "county": "",
    "phone": "",
    "type": "",
    "ownership": "",
    "emergency": "",
    "quality": "",
    "LAT": 50.9986983,
    "LON": 8.1151191
  },
  "4": {
    "id": 10004,
    "name": "AHG Klinik Hardberg",
    "address": "",
    "city": "",
    "state": "Hessen",
    "zip": "",
    "county": "",
    "phone": "",
    "type": "",
    "ownership": "",
    "emergency": "No",
    "quality": "",
    "LAT": 49.8314615,
    "LON": 9.0152812
  },
  "5": {
    "id": 10005,
    "name": "AHG Klinik Römhild",
    "address": "",
    "city": "Römhild",
    "state": "Thüringen",
    "zip": 98630,
    "county": "",
    "phone": "",
    "type": "",
    "ownership": "",
    "emergency": "",
    "quality": "",
    "LAT": 50.3897749,
    "LON": 10.5642372
  },
  "6": {
    "id": 10006,
    "name": "AHG Klinik und Moorbad",
    "address": "Gesundbrunnenstraße 33",
    "city": "Bad Freienwalde (Oder)",
    "state": "Brandenburg",
    "zip": 16259,
    "county": "",
    "phone": "",
    "type": "",
    "ownership": "",
    "emergency": "No",
    "quality": "",
    "LAT": 52.7737526,
    "LON": 14.0211734
  },
  "7": {
    "id": 10007,
    "name": "AMEOS Innere Kliniken",
    "address": "Am Gradierwerk 3",
    "city": "Schönebeck (Elbe)",
    "state": "Sachsen-anhalt",
    "zip": 39218,
    "county": "",
    "phone": "",
    "type": "",
    "ownership": "",
    "emergency": "",
    "quality": "",
    "LAT": 51.9964337,
    "LON": 11.7158944
  },
  "8": {
    "id": 10008,
    "name": "AMEOS Klinikum",
    "address": "Tiroler Ring 621-623",
    "city": "Kiel",
    "state": "Schleswig-holstein",
    "zip": 24146,
    "county": "",
    "phone": "+49 431 780530",
    "type": "",
    "ownership": "",
    "emergency": "No",
    "quality": "",
    "LAT": 54.2966377,
    "LON": 10.1850872
  },
  "10": {
    "id": 10010,
    "name": "AMEOS Klinikum Alfeld",
    "address": "Landrat-Beushausen-Straße 26",
    "city": "Alfeld (Leine)",
    "state": "Niedersachsen",
    "zip": 31061,
    "county": "",
    "phone": "",
    "type": "",
    "ownership": "",
    "emergency": "Yes",
    "quality": "",
    "LAT": 51.9941487,
    "LON": 9.8336998
  },
  "11": {
    "id": 10011,
    "name": "AMEOS Klinikum Heiligenhafen",
    "address": "Friedrich-Ebert-Straße 100",
    "city": "Heiligenhafen",
    "state": "Schleswig-holstein",
    "zip": 23774,
    "county": "",
    "phone": "",
    "type": "",
    "ownership": "",
    "emergency": "",
    "quality": "",
    "LAT": 54.3729246,
    "LON": 10.963551
  },
  "12": {
    "id": 10012,
    "name": "AMEOS Klinikum Inntal",
    "address": "Jakob-Weindler-Straße 1",
    "city": "Simbach am Inn",
    "state": "Bayern",
    "zip": 84359,
    "county": "",
    "phone": "",
    "type": "",
    "ownership": "",
    "emergency": "",
    "quality": "",
    "LAT": 48.262761,
    "LON": 13.0146051
  },
  "13": {
    "id": 10013,
    "name": "AMEOS Klinikum Kaiserstuhl",
    "address": "Brunngasse 1",
    "city": "Vogtsburg im Kaiserstuhl",
    "state": "Baden-württemberg",
    "zip": 79235,
    "county": "",
    "phone": "",
    "type": "",
    "ownership": "",
    "emergency": "No",
    "quality": "",
    "LAT": 48.1049675,
    "LON": 7.6309155
  },
  "14": {
    "id": 10014,
    "name": "AMEOS Klinikum Mitte Bremerhaven",
    "address": "Wiener Straße 1",
    "city": "Bremerhaven",
    "state": "Bremen",
    "zip": 27568,
    "county": "",
    "phone": "+49 471 4805 0",
    "type": "",
    "ownership": "",
    "emergency": "",
    "quality": "",
    "LAT": 53.5521666,
    "LON": 8.576482
  },
  "15": {
    "id": 10015,
    "name": "AMEOS Klinikum Neustadt",
    "address": "Wiesenhof nan",
    "city": "Neustadt in Holstein",
    "state": "Schleswig-holstein",
    "zip": 23730,
    "county": "",
    "phone": "+49 4561 6110",
    "type": "",
    "ownership": "",
    "emergency": "",
    "quality": "",
    "LAT": 54.1075131,
    "LON": 10.7927989
  },
  "16": {
    "id": 10016,
    "name": "AMEOS Klinikum Preetz",
    "address": "Am Krankenhaus 5a",
    "city": "Preetz",
    "state": "Schleswig-holstein",
    "zip": 24211,
    "county": "",
    "phone": "",
    "type": "",
    "ownership": "",
    "emergency": "",
    "quality": "",
    "LAT": 54.2389886,
    "LON": 10.2761173
  },
  "17": {
    "id": 10017,
    "name": "AMEOS Klinikum Schönebeck",
    "address": "",
    "city": "Schönebeck (Elbe)",
    "state": "Sachsen-anhalt",
    "zip": 39218,
    "county": "",
    "phone": "",
    "type": "",
    "ownership": "",
    "emergency": "",
    "quality": "",
    "LAT": 52.0130586,
    "LON": 11.7400112
  },
  "18": {
    "id": 10018,
    "name": "AMEOS Klinikum Seepark Geestland",
    "address": "Langener Straße 66",
    "city": "Geestland",
    "state": "Niedersachsen",
    "zip": 27607,
    "county": "",
    "phone": "+49 4743 893 0",
    "type": "",
    "ownership": "",
    "emergency": "",
    "quality": "",
    "LAT": 53.6166664,
    "LON": 8.6279875
  },
  "19": {
    "id": 10019,
    "name": "AMEOS Klinikum St. Salvator Halberstadt",
    "address": "Gleimstraße 5",
    "city": "Halberstadt",
    "state": "Sachsen-anhalt",
    "zip": 38820,
    "county": "",
    "phone": "",
    "type": "",
    "ownership": "",
    "emergency": "Yes",
    "quality": "",
    "LAT": 51.9009511,
    "LON": 11.0533717
  },
  "20": {
    "id": 10020,
    "name": "AMEOS Klinikum ehem. Sana-Klinkum",
    "address": "Kiefholzstraße 27",
    "city": "Haldensleben",
    "state": "Sachsen-anhalt",
    "zip": 39340,
    "county": "",
    "phone": "",
    "type": "",
    "ownership": "",
    "emergency": "",
    "quality": "",
    "LAT": 52.2861988,
    "LON": 11.3784845
  },
  "21": {
    "id": 10021,
    "name": "ASB Rettungshundestaffel Hattingen",
    "address": "",
    "city": "Hattingen",
    "state": "Nordrhein-westfalen",
    "zip": 45527,
    "county": "",
    "phone": "",
    "type": "",
    "ownership": "",
    "emergency": "No",
    "quality": "",
    "LAT": 51.4134547,
    "LON": 7.2003187
  },
  "22": {
    "id": 10022,
    "name": "ASKLEPIOS Klinik Schaufling",
    "address": "Hausstein 2",
    "city": "Schaufling",
    "state": "Bayern",
    "zip": 94571,
    "county": "",
    "phone": "+49 9904 770",
    "type": "",
    "ownership": "",
    "emergency": "",
    "quality": "",
    "LAT": 48.8623668,
    "LON": 13.0649632
  },
  "23": {
    "id": 10023,
    "name": "ATOS Klinik",
    "address": "Bismarckstraße 9-15",
    "city": "Heidelberg",
    "state": "Baden-württemberg",
    "zip": 69115,
    "county": "",
    "phone": "+49 6221 983-0",
    "type": "",
    "ownership": "",
    "emergency": "",
    "quality": "",
    "LAT": 49.4101697,
    "LON": 8.6917653
  },
  "24": {
    "id": 10024,
    "name": "ATOS-Klinik",
    "address": "Effnerstraße 38",
    "city": "München",
    "state": "Bayern",
    "zip": 81925,
    "county": "",
    "phone": "",
    "type": "",
    "ownership": "",
    "emergency": "No",
    "quality": "",
    "LAT": 48.1545022,
    "LON": 11.6165521
  },
  "25": {
    "id": 10025,
    "name": "AWO Krankenhaus Calbe",
    "address": "",
    "city": "Calbe (Saale)",
    "state": "Sachsen-anhalt",
    "zip": 39240,
    "county": "",
    "phone": "",
    "type": "",
    "ownership": "",
    "emergency": "",
    "quality": "",
    "LAT": 51.9034601,
    "LON": 11.7672402
  },
  "26": {
    "id": 10026,
    "name": "AWO Psychiatriezentrum",
    "address": "Vor dem Kaiserdom 10",
    "city": "Königslutter am Elm",
    "state": "Niedersachsen",
    "zip": 38154,
    "county": "",
    "phone": "",
    "type": "",
    "ownership": "",
    "emergency": "",
    "quality": "",
    "LAT": 52.2468005,
    "LON": 10.8108312
  },
  "27": {
    "id": 10027,
    "name": "Aatalklinik",
    "address": "",
    "city": "Bad Wünnenberg",
    "state": "Nordrhein-westfalen",
    "zip": 33181,
    "county": "",
    "phone": "",
    "type": "",
    "ownership": "",
    "emergency": "No",
    "quality": "",
    "LAT": 51.5177884,
    "LON": 8.7005009
  },
  "28": {
    "id": 10028,
    "name": "Abtseeklinik",
    "address": "",
    "city": "Laufen",
    "state": "Bayern",
    "zip": 83410,
    "county": "",
    "phone": "",
    "type": "",
    "ownership": "",
    "emergency": "",
    "quality": "",
    "LAT": 47.9145093,
    "LON": 12.907351
  },
  "29": {
    "id": 10029,
    "name": "Achenbach Krankenhaus",
    "address": "Köpenicker Straße 29",
    "city": "Königs Wusterhausen",
    "state": "Brandenburg",
    "zip": 15711,
    "county": "",
    "phone": "",
    "type": "",
    "ownership": "",
    "emergency": "",
    "quality": "",
    "LAT": 52.3020087,
    "LON": 13.6266279
  },
  "30": {
    "id": 10030,
    "name": "Achertalklinik für Psychiatrie und Psychotherapie",
    "address": "Markgraf-Bernhard-Straße 2",
    "city": "Ottenhöfen im Schwarzwald",
    "state": "Baden-württemberg",
    "zip": 77883,
    "county": "",
    "phone": "",
    "type": "",
    "ownership": "",
    "emergency": "",
    "quality": "",
    "LAT": 48.565932,
    "LON": 8.1551233
  },
  "31": {
    "id": 10031,
    "name": "Agaplesion Allgemeines Krankenhaus Hagen",
    "address": "",
    "city": "Hagen",
    "state": "Nordrhein-westfalen",
    "zip": 58095,
    "county": "",
    "phone": "+49 2331 201 0",
    "type": "",
    "ownership": "",
    "emergency": "",
    "quality": "",
    "LAT": 51.3547053,
    "LON": 7.4654817
  },
  "32": {
    "id": 10032,
    "name": "Agaplesion Diakonieklinikum Rotenburg",
    "address": "Elise-Averdieck-Straße 17",
    "city": "Rotenburg (Wümme)",
    "state": "Niedersachsen",
    "zip": 27356,
    "county": "",
    "phone": "",
    "type": "",
    "ownership": "",
    "emergency": "Yes",
    "quality": "",
    "LAT": 53.1057597,
    "LON": 9.4115161
  },
  "33": {
    "id": 10033,
    "name": "Agaplesion Evangelisches Klinikum Schaumburg gGmbH",
    "address": "Zum Schaumburger Klinikum 1",
    "city": "Obernkirchen",
    "state": "Niedersachsen",
    "zip": 31683,
    "county": "",
    "phone": "+49 5724 95800",
    "type": "",
    "ownership": "",
    "emergency": "Yes",
    "quality": "",
    "LAT": 52.2657349,
    "LON": 9.1030571
  },
  "34": {
    "id": 10034,
    "name": "Agaplesion Neu-Bethlehem",
    "address": "Humboldtallee 8",
    "city": "Göttingen",
    "state": "Niedersachsen",
    "zip": 37073,
    "county": "",
    "phone": "",
    "type": "",
    "ownership": "",
    "emergency": "",
    "quality": "",
    "LAT": 51.5403849,
    "LON": 9.9427453
  },
  "35": {
    "id": 10035,
    "name": "Agaplesion evangelisches Krankenhaus Holzminden",
    "address": "Forster Weg 34",
    "city": "Holzminden",
    "state": "Niedersachsen",
    "zip": 37603,
    "county": "",
    "phone": "+49 5531 7050",
    "type": "",
    "ownership": "",
    "emergency": "Yes",
    "quality": "",
    "LAT": 51.8350038,
    "LON": 9.4554437
  },
  "36": {
    "id": 10036,
    "name": "Aggertalklinik Engelskirchen",
    "address": "",
    "city": "Engelskirchen",
    "state": "Nordrhein-westfalen",
    "zip": 51766,
    "county": "",
    "phone": "",
    "type": "",
    "ownership": "",
    "emergency": "",
    "quality": "",
    "LAT": 50.9873842,
    "LON": 7.3828234
  },
  "37": {
    "id": 10037,
    "name": "Albert-Schweitzer-Therapeutikum Holzminden",
    "address": "Pipping 5",
    "city": "Holzminden",
    "state": "Niedersachsen",
    "zip": 37603,
    "county": "",
    "phone": "",
    "type": "",
    "ownership": "",
    "emergency": "No",
    "quality": "",
    "LAT": 51.8247852,
    "LON": 9.4832008
  },
  "38": {
    "id": 10038,
    "name": "Albertinen-HausZentrum für Geriatrie und Gerontologie",
    "address": "",
    "city": "Hamburg",
    "state": "Hamburg",
    "zip": 22457,
    "county": "",
    "phone": "",
    "type": "",
    "ownership": "",
    "emergency": "",
    "quality": "",
    "LAT": 53.6282975,
    "LON": 9.9247635
  },
  "39": {
    "id": 10039,
    "name": "Albklinik Münsingen",
    "address": "",
    "city": "Münsingen",
    "state": "Baden-württemberg",
    "zip": 72525,
    "county": "",
    "phone": "",
    "type": "",
    "ownership": "",
    "emergency": "Yes",
    "quality": "",
    "LAT": 48.404206,
    "LON": 9.4903384
  },
  "40": {
    "id": 10040,
    "name": "Alexianer Krankenhaus",
    "address": "",
    "city": "Aachen",
    "state": "Nordrhein-westfalen",
    "zip": 52062,
    "county": "",
    "phone": "",
    "type": "",
    "ownership": "",
    "emergency": "No",
    "quality": "",
    "LAT": 50.7715719,
    "LON": 6.0812264
  },
  "41": {
    "id": 10041,
    "name": "Alexianer Krankenhaus, Tagesklinik",
    "address": "Mörgensstraße 17",
    "city": "Aachen",
    "state": "Nordrhein-westfalen",
    "zip": 52062,
    "county": "",
    "phone": "",
    "type": "",
    "ownership": "",
    "emergency": "",
    "quality": "",
    "LAT": 50.7711244,
    "LON": 6.081369
  },
  "42": {
    "id": 10042,
    "name": "Alexianer Münster GmbH",
    "address": "Alexianerweg 9",
    "city": "Münster",
    "state": "Nordrhein-westfalen",
    "zip": 48143,
    "county": "",
    "phone": "",
    "type": "",
    "ownership": "",
    "emergency": "",
    "quality": "",
    "LAT": 51.8774938,
    "LON": 7.563717
  },
  "43": {
    "id": 10043,
    "name": "Alexianer St. Joseph Krankenhaus Berlin-Weißensee",
    "address": "",
    "city": "Berlin",
    "state": "Berlin",
    "zip": 13088,
    "county": "",
    "phone": "",
    "type": "",
    "ownership": "",
    "emergency": "Yes",
    "quality": "",
    "LAT": 52.5515022,
    "LON": 13.4681057
  },
  "44": {
    "id": 10044,
    "name": "Alexianer-Krankenhaus Köln",
    "address": "",
    "city": "Köln",
    "state": "Nordrhein-westfalen",
    "zip": 51149,
    "county": "",
    "phone": "",
    "type": "",
    "ownership": "",
    "emergency": "",
    "quality": "",
    "LAT": 50.8975184,
    "LON": 7.0387132
  },
  "45": {
    "id": 10045,
    "name": "Alfried-Krupp-Krankenhaus",
    "address": "",
    "city": "Essen",
    "state": "Nordrhein-westfalen",
    "zip": 45130,
    "county": "",
    "phone": "",
    "type": "",
    "ownership": "",
    "emergency": "",
    "quality": "",
    "LAT": 51.4242048,
    "LON": 7.0064736
  },
  "46": {
    "id": 10046,
    "name": "Alice-Hospital",
    "address": "",
    "city": "Darmstadt",
    "state": "Hessen",
    "zip": 64283,
    "county": "",
    "phone": "",
    "type": "",
    "ownership": "",
    "emergency": "",
    "quality": "",
    "LAT": 49.8770681,
    "LON": 8.6665289
  },
  "47": {
    "id": 10047,
    "name": "Aller-Weser-Klinik Verden",
    "address": "Eitzer Straße 20",
    "city": "Verden (Aller)",
    "state": "Niedersachsen",
    "zip": 27283,
    "county": "",
    "phone": "",
    "type": "",
    "ownership": "",
    "emergency": "",
    "quality": "",
    "LAT": 52.9131391,
    "LON": 9.2309496
  },
  "48": {
    "id": 10048,
    "name": "Allgemeines Krankenhaus",
    "address": "Krankenhausstraße 2",
    "city": "Bad Segeberg",
    "state": "Schleswig-holstein",
    "zip": 23795,
    "county": "",
    "phone": "",
    "type": "",
    "ownership": "",
    "emergency": "",
    "quality": "",
    "LAT": 53.9419702,
    "LON": 10.3094344
  },
  "49": {
    "id": 10049,
    "name": "Allgemeines Krankenhaus Viersen",
    "address": "Hoserkirchweg 63",
    "city": "Viersen",
    "state": "Nordrhein-westfalen",
    "zip": 41747,
    "county": "",
    "phone": "",
    "type": "",
    "ownership": "",
    "emergency": "",
    "quality": "",
    "LAT": 51.249686,
    "LON": 6.3816752
  },
  "50": {
    "id": 10050,
    "name": "Allgemeinspychatrische Tagesklinik",
    "address": "Allerstraße 1",
    "city": "Dortmund",
    "state": "Nordrhein-westfalen",
    "zip": 44287,
    "county": "",
    "phone": "",
    "type": "",
    "ownership": "",
    "emergency": "",
    "quality": "",
    "LAT": 51.5046925,
    "LON": 7.5479277
  },
  "51": {
    "id": 10051,
    "name": "Altbau Feuerwehrstraße",
    "address": "Humboldtstraße 5",
    "city": "Hannover",
    "state": "Niedersachsen",
    "zip": 30169,
    "county": "",
    "phone": "",
    "type": "",
    "ownership": "",
    "emergency": "",
    "quality": "",
    "LAT": 52.3710635,
    "LON": 9.7257221
  },
  "52": {
    "id": 10052,
    "name": "Altenzentrum Bethesda",
    "address": "",
    "city": "Bad Salzuflen",
    "state": "Nordrhein-westfalen",
    "zip": 32105,
    "county": "",
    "phone": "",
    "type": "",
    "ownership": "",
    "emergency": "",
    "quality": "",
    "LAT": 52.0894959,
    "LON": 8.7455478
  },
  "53": {
    "id": 10053,
    "name": "Alter Marienbau",
    "address": "Böheimstraße 37",
    "city": "Stuttgart",
    "state": "Baden-württemberg",
    "zip": 70178,
    "county": "",
    "phone": "",
    "type": "",
    "ownership": "",
    "emergency": "",
    "quality": "",
    "LAT": 48.7613172,
    "LON": 9.1628345
  },
  "54": {
    "id": 10054,
    "name": "Altmark-Klinikum",
    "address": "Brunnenstraße 1",
    "city": "Salzwedel",
    "state": "Sachsen-anhalt",
    "zip": 29410,
    "county": "",
    "phone": "",
    "type": "",
    "ownership": "",
    "emergency": "",
    "quality": "",
    "LAT": 52.8558422,
    "LON": 11.1454543
  },
  "55": {
    "id": 10055,
    "name": "Altmark-Klinikum Gardelegen",
    "address": "",
    "city": "Gardelegen",
    "state": "Sachsen-anhalt",
    "zip": 39638,
    "county": "",
    "phone": "",
    "type": "",
    "ownership": "",
    "emergency": "",
    "quality": "",
    "LAT": 52.5230508,
    "LON": 11.3819077
  },
  "56": {
    "id": 10056,
    "name": "Altonaer Kinderkrankenhaus",
    "address": "",
    "city": "Hamburg",
    "state": "Hamburg",
    "zip": 22765,
    "county": "",
    "phone": "+49 40 88908-0",
    "type": "",
    "ownership": "",
    "emergency": "Yes",
    "quality": "",
    "LAT": 53.551203,
    "LON": 9.9127621
  },
  "57": {
    "id": 10057,
    "name": "Amalie-Sieveking-Krankenhaus",
    "address": "Haselkamp 33",
    "city": "Hamburg",
    "state": "Hamburg",
    "zip": 22359,
    "county": "",
    "phone": "",
    "type": "",
    "ownership": "",
    "emergency": "Yes",
    "quality": "",
    "LAT": 53.641079,
    "LON": 10.1523153
  },
  "58": {
    "id": 10058,
    "name": "Ambulanz",
    "address": "Humboldtstraße 5",
    "city": "Hannover",
    "state": "Niedersachsen",
    "zip": 30169,
    "county": "",
    "phone": "",
    "type": "",
    "ownership": "",
    "emergency": "",
    "quality": "",
    "LAT": 52.3705849,
    "LON": 9.7246299
  },
  "59": {
    "id": 10059,
    "name": "Ameos Klinikum Anklam",
    "address": "Hospitalstraße 19",
    "city": "Anklam",
    "state": "Mecklenburg-vorpommern",
    "zip": 17389,
    "county": "",
    "phone": "+49 3971 834 0",
    "type": "",
    "ownership": "",
    "emergency": "Yes",
    "quality": "",
    "LAT": 53.8485829,
    "LON": 13.6994424
  },
  "60": {
    "id": 10060,
    "name": "Ameos Klinikum Dr. Heines",
    "address": "Rockwinkeler Landstraße 110",
    "city": "Bremen",
    "state": "Bremen",
    "zip": 28355,
    "county": "",
    "phone": "",
    "type": "",
    "ownership": "",
    "emergency": "",
    "quality": "",
    "LAT": 53.0773621,
    "LON": 8.9412687
  },
  "61": {
    "id": 10061,
    "name": "Ameos-Klinikum",
    "address": "Eislebener Straße 7a",
    "city": "Aschersleben",
    "state": "Sachsen-anhalt",
    "zip": 6449,
    "county": "",
    "phone": "+49 3473 970",
    "type": "",
    "ownership": "",
    "emergency": "",
    "quality": "",
    "LAT": 51.745516,
    "LON": 11.458327
  },
  "62": {
    "id": 10062,
    "name": "Anmeldung",
    "address": "",
    "city": "Freiburg im Breisgau",
    "state": "Baden-württemberg",
    "zip": 79104,
    "county": "",
    "phone": "",
    "type": "",
    "ownership": "",
    "emergency": "",
    "quality": "",
    "LAT": 48.0079003,
    "LON": 7.8574535
  },
  "63": {
    "id": 10063,
    "name": "Annastift",
    "address": "",
    "city": "Hannover",
    "state": "Niedersachsen",
    "zip": 30625,
    "county": "",
    "phone": "",
    "type": "",
    "ownership": "",
    "emergency": "",
    "quality": "",
    "LAT": 52.3692491,
    "LON": 9.8094516
  },
  "64": {
    "id": 10064,
    "name": "Arona Klinik für Altersmedizin",
    "address": "Blumberger Damm 26",
    "city": "Berlin",
    "state": "Berlin",
    "zip": 12683,
    "county": "",
    "phone": "",
    "type": "",
    "ownership": "",
    "emergency": "",
    "quality": "",
    "LAT": 52.5148157,
    "LON": 13.5643894
  },
  "65": {
    "id": 10065,
    "name": "Artemed Fachklinik",
    "address": "",
    "city": "Bad Oeynhausen",
    "state": "Nordrhein-westfalen",
    "zip": 32545,
    "county": "",
    "phone": "",
    "type": "",
    "ownership": "",
    "emergency": "",
    "quality": "",
    "LAT": 52.2042841,
    "LON": 8.8044855
  },
  "66": {
    "id": 10066,
    "name": "Arztgruppe",
    "address": "",
    "city": "Meßstetten",
    "state": "Baden-württemberg",
    "zip": 72469,
    "county": "",
    "phone": "",
    "type": "",
    "ownership": "",
    "emergency": "",
    "quality": "",
    "LAT": 48.187097,
    "LON": 8.9982136
  },
  "67": {
    "id": 10067,
    "name": "Arztpraxi Michael Stegherr",
    "address": "Hauptstraße 56",
    "city": "Holzheim",
    "state": "Bayern",
    "zip": 89438,
    "county": "",
    "phone": "",
    "type": "",
    "ownership": "",
    "emergency": "",
    "quality": "",
    "LAT": 48.5122176,
    "LON": 10.5184662
  },
  "68": {
    "id": 10068,
    "name": "Asklepios Burgseekliniken (Parkklinik)",
    "address": "Burgseestraße 5",
    "city": "Bad Salzungen",
    "state": "Thüringen",
    "zip": 36433,
    "county": "",
    "phone": "",
    "type": "",
    "ownership": "",
    "emergency": "Yes",
    "quality": "",
    "LAT": 50.8078264,
    "LON": 10.2387531
  },
  "69": {
    "id": 10069,
    "name": "Asklepios Fachklinikum Brandenburg",
    "address": "Anton-Saefkow-Allee 2",
    "city": "Brandenburg an der Havel",
    "state": "Brandenburg",
    "zip": 14776,
    "county": "",
    "phone": "+49 3381 780",
    "type": "",
    "ownership": "",
    "emergency": "",
    "quality": "",
    "LAT": 52.4188683,
    "LON": 12.4790432
  },
  "70": {
    "id": 10070,
    "name": "Asklepios Fachklinikum Göttingen",
    "address": "Rosdorfer Weg 70",
    "city": "Göttingen",
    "state": "Niedersachsen",
    "zip": 37073,
    "county": "",
    "phone": "",
    "type": "",
    "ownership": "",
    "emergency": "",
    "quality": "",
    "LAT": 51.5224448,
    "LON": 9.9197306
  },
  "71": {
    "id": 10071,
    "name": "Asklepios Fachklinikum Lübben",
    "address": "Luckauer Straße 17",
    "city": "Lübben (Spreewald)",
    "state": "Brandenburg",
    "zip": 15907,
    "county": "",
    "phone": "+49 3546 290",
    "type": "",
    "ownership": "",
    "emergency": "",
    "quality": "",
    "LAT": 51.9361274,
    "LON": 13.8887415
  },
  "72": {
    "id": 10072,
    "name": "Asklepios Fachklinikum Stadtroda",
    "address": "Bahnhofstraße 1a",
    "city": "Stadtroda",
    "state": "Thüringen",
    "zip": 7646,
    "county": "",
    "phone": "",
    "type": "",
    "ownership": "",
    "emergency": "",
    "quality": "",
    "LAT": 50.8602592,
    "LON": 11.7246536
  },
  "73": {
    "id": 10073,
    "name": "Asklepios Fachklinikum Teupitz",
    "address": "",
    "city": "Teupitz",
    "state": "Brandenburg",
    "zip": 15755,
    "county": "",
    "phone": "",
    "type": "",
    "ownership": "",
    "emergency": "",
    "quality": "",
    "LAT": 52.1305598,
    "LON": 13.6202631
  },
  "74": {
    "id": 10074,
    "name": "Asklepios Fachklinikum Tiefenbrunn",
    "address": "Tiefenbrunn nan",
    "city": "Rosdorf",
    "state": "Niedersachsen",
    "zip": 37124,
    "county": "",
    "phone": "",
    "type": "",
    "ownership": "",
    "emergency": "",
    "quality": "",
    "LAT": 51.4976353,
    "LON": 9.8775047
  },
  "75": {
    "id": 10075,
    "name": "Asklepios Harzklinik Bad Harzburg",
    "address": "Ilsenburger Straße 95",
    "city": "Bad Harzburg",
    "state": "Niedersachsen",
    "zip": 38667,
    "county": "",
    "phone": "",
    "type": "",
    "ownership": "",
    "emergency": "",
    "quality": "",
    "LAT": 51.8861171,
    "LON": 10.5773992
  },
  "76": {
    "id": 10076,
    "name": "Asklepios Harzklinik Clausthal-Zellerfeld",
    "address": "Windmühlenstraße 1",
    "city": "",
    "state": "Niedersachsen",
    "zip": "",
    "county": "",
    "phone": "",
    "type": "",
    "ownership": "",
    "emergency": "",
    "quality": "",
    "LAT": 51.8081658,
    "LON": 10.3334135
  },
  "77": {
    "id": 10077,
    "name": "Asklepios Harzklinik Goslar",
    "address": "Kösliner Straße 12",
    "city": "Goslar",
    "state": "Niedersachsen",
    "zip": 38640,
    "county": "",
    "phone": "",
    "type": "",
    "ownership": "",
    "emergency": "",
    "quality": "",
    "LAT": 51.9296304,
    "LON": 10.4421415
  },
  "78": {
    "id": 10078,
    "name": "Asklepios Klinik",
    "address": "",
    "city": "Bad Abbach",
    "state": "Bayern",
    "zip": 93077,
    "county": "",
    "phone": "",
    "type": "",
    "ownership": "",
    "emergency": "",
    "quality": "",
    "LAT": 48.9333299,
    "LON": 12.038881
  },
  "80": {
    "id": 10080,
    "name": "Asklepios Klinik Altona",
    "address": "Paul-Ehrlich-Straße 1",
    "city": "Hamburg",
    "state": "Hamburg",
    "zip": 22605,
    "county": "",
    "phone": "",
    "type": "",
    "ownership": "",
    "emergency": "Yes",
    "quality": "",
    "LAT": 53.5539937,
    "LON": 9.9038601
  },
  "81": {
    "id": 10081,
    "name": "Asklepios Klinik Barmbek",
    "address": "Rübenkamp 220",
    "city": "Hamburg",
    "state": "Hamburg",
    "zip": 22307,
    "county": "",
    "phone": "+49 40 181882 0",
    "type": "",
    "ownership": "",
    "emergency": "",
    "quality": "",
    "LAT": 53.6075958,
    "LON": 10.0345707
  },
  "82": {
    "id": 10082,
    "name": "Asklepios Klinik Birkenwerder",
    "address": "Hubertusstraße 12-22",
    "city": "Birkenwerder",
    "state": "Brandenburg",
    "zip": 16547,
    "county": "",
    "phone": "+49 3303 5220",
    "type": "",
    "ownership": "",
    "emergency": "",
    "quality": "",
    "LAT": 52.6908789,
    "LON": 13.2973136
  },
  "83": {
    "id": 10083,
    "name": "Asklepios Klinik Harburg",
    "address": "Eißendorfer Pferdeweg 52",
    "city": "Hamburg",
    "state": "Hamburg",
    "zip": 21075,
    "county": "",
    "phone": "",
    "type": "",
    "ownership": "",
    "emergency": "Yes",
    "quality": "",
    "LAT": 53.4588012,
    "LON": 9.9513749
  },
  "84": {
    "id": 10084,
    "name": "Asklepios Klinik Langen",
    "address": "",
    "city": "Langen (Hessen)",
    "state": "Hessen",
    "zip": 63225,
    "county": "",
    "phone": "",
    "type": "",
    "ownership": "",
    "emergency": "Yes",
    "quality": "",
    "LAT": 49.9995557,
    "LON": 8.6834252
  },
  "85": {
    "id": 10085,
    "name": "Asklepios Klinik Lich",
    "address": "",
    "city": "Lich",
    "state": "Hessen",
    "zip": 35423,
    "county": "",
    "phone": "",
    "type": "",
    "ownership": "",
    "emergency": "",
    "quality": "",
    "LAT": 50.5259816,
    "LON": 8.8063788
  },
  "86": {
    "id": 10086,
    "name": "Asklepios Klinik Melsungen",
    "address": "Kasseler Straße 80",
    "city": "Melsungen",
    "state": "Hessen",
    "zip": 34212,
    "county": "",
    "phone": "",
    "type": "",
    "ownership": "",
    "emergency": "Yes",
    "quality": "",
    "LAT": 51.1376577,
    "LON": 9.5399847
  },
  "87": {
    "id": 10087,
    "name": "Asklepios Klinik Nord Heidberg",
    "address": "",
    "city": "Hamburg",
    "state": "Hamburg",
    "zip": 22415,
    "county": "",
    "phone": "+49 40 1818870",
    "type": "",
    "ownership": "",
    "emergency": "Yes",
    "quality": "",
    "LAT": 53.6773475,
    "LON": 10.030166
  },
  "88": {
    "id": 10088,
    "name": "Asklepios Klinik Nord Ochsenzoll",
    "address": "",
    "city": "Hamburg",
    "state": "Hamburg",
    "zip": 22415,
    "county": "",
    "phone": "",
    "type": "",
    "ownership": "",
    "emergency": "",
    "quality": "",
    "LAT": 53.6756023,
    "LON": 10.0060852
  },
  "89": {
    "id": 10089,
    "name": "Asklepios Klinik Pasewalk",
    "address": "Prenzlauer Chaussee 30",
    "city": "Pasewalk",
    "state": "Mecklenburg-vorpommern",
    "zip": 17309,
    "county": "",
    "phone": "+49 3973 230",
    "type": "",
    "ownership": "",
    "emergency": "Yes",
    "quality": "",
    "LAT": 53.4903734,
    "LON": 13.9832746
  },
  "90": {
    "id": 10090,
    "name": "Asklepios Klinik Sankt Augustin",
    "address": "",
    "city": "Sankt Augustin",
    "state": "Nordrhein-westfalen",
    "zip": 53757,
    "county": "",
    "phone": "",
    "type": "",
    "ownership": "",
    "emergency": "",
    "quality": "",
    "LAT": 50.7749165,
    "LON": 7.1800886
  },
  "91": {
    "id": 10091,
    "name": "Asklepios Klinik Seligenstadt",
    "address": "",
    "city": "Seligenstadt",
    "state": "Hessen",
    "zip": 63500,
    "county": "",
    "phone": "",
    "type": "",
    "ownership": "",
    "emergency": "Yes",
    "quality": "",
    "LAT": 50.0420353,
    "LON": 8.9630013
  },
  "92": {
    "id": 10092,
    "name": "Asklepios Klinik St. Georg",
    "address": "Lohmühlenstraße 5",
    "city": "Hamburg",
    "state": "Hamburg",
    "zip": 20099,
    "county": "",
    "phone": "+49 40 181885 0",
    "type": "",
    "ownership": "",
    "emergency": "Yes",
    "quality": "",
    "LAT": 53.5609367,
    "LON": 10.0179546
  },
  "93": {
    "id": 10093,
    "name": "Asklepios Klinik Triberg",
    "address": "Ludwigstraße 1",
    "city": "Triberg im Schwarzwald",
    "state": "Baden-württemberg",
    "zip": 78098,
    "county": "",
    "phone": "+49 7722 9550",
    "type": "",
    "ownership": "",
    "emergency": "",
    "quality": "",
    "LAT": 48.1284163,
    "LON": 8.2311482
  },
  "94": {
    "id": 10094,
    "name": "Asklepios Klinik Wandsbek",
    "address": "Alphonsstraße 14",
    "city": "Hamburg",
    "state": "Hamburg",
    "zip": 22043,
    "county": "",
    "phone": "+49 40 181883-0",
    "type": "",
    "ownership": "",
    "emergency": "Yes",
    "quality": "",
    "LAT": 53.5709778,
    "LON": 10.0901034
  },
  "95": {
    "id": 10095,
    "name": "Asklepios Klinik am Kurpark",
    "address": "Am Kurpark 6-12",
    "city": "Bad Schwartau",
    "state": "Schleswig-holstein",
    "zip": 23611,
    "county": "",
    "phone": "",
    "type": "",
    "ownership": "",
    "emergency": "",
    "quality": "",
    "LAT": 53.9212932,
    "LON": 10.7001866
  },
  "96": {
    "id": 10096,
    "name": "Asklepios Kliniken Schildautal",
    "address": "Karl-Herold-Straße 1",
    "city": "",
    "state": "Niedersachsen",
    "zip": "",
    "county": "",
    "phone": "",
    "type": "",
    "ownership": "",
    "emergency": "",
    "quality": "",
    "LAT": 51.8828744,
    "LON": 10.2146076
  },
  "97": {
    "id": 10097,
    "name": "Asklepios Neurologische Klinik Falkenstein",
    "address": "Asklepiosweg 15",
    "city": "Königstein im Taunus",
    "state": "Hessen",
    "zip": 61462,
    "county": "",
    "phone": "",
    "type": "",
    "ownership": "",
    "emergency": "No",
    "quality": "",
    "LAT": 50.1909439,
    "LON": 8.4838085
  },
  "98": {
    "id": 10098,
    "name": "Asklepios Nordseeklinik",
    "address": "Norderstraße 81",
    "city": "",
    "state": "Schleswig-holstein",
    "zip": "",
    "county": "",
    "phone": "+49 4651 84 0",
    "type": "",
    "ownership": "",
    "emergency": "Yes",
    "quality": "",
    "LAT": 54.9259941,
    "LON": 8.3161293
  },
  "99": {
    "id": 10099,
    "name": "Asklepios Privatklinik",
    "address": "Schützenstraße 17",
    "city": "Bad Tölz",
    "state": "Bayern",
    "zip": 83646,
    "county": "",
    "phone": "",
    "type": "",
    "ownership": "",
    "emergency": "No",
    "quality": "",
    "LAT": 47.7574046,
    "LON": 11.5495031
  },
  "100": {
    "id": 10100,
    "name": "Asklepios Stadtklinik",
    "address": "Schützenstraße 15",
    "city": "Bad Tölz",
    "state": "Bayern",
    "zip": 83646,
    "county": "",
    "phone": "+49 8041 507-01",
    "type": "",
    "ownership": "",
    "emergency": "Yes",
    "quality": "",
    "LAT": 47.7572767,
    "LON": 11.5516352
  },
  "102": {
    "id": 10102,
    "name": "Asklepios Stadtklinik Bad Wildungen",
    "address": "Brunnenallee nan",
    "city": "Bad Wildungen",
    "state": "Hessen",
    "zip": 34537,
    "county": "",
    "phone": "+49 5621 795 0",
    "type": "",
    "ownership": "",
    "emergency": "",
    "quality": "",
    "LAT": 51.1180614,
    "LON": 9.1148564
  },
  "103": {
    "id": 10103,
    "name": "Asklepios Südpfalzklinik Germersheim",
    "address": "",
    "city": "Germersheim",
    "state": "Rheinland-pfalz",
    "zip": 76726,
    "county": "",
    "phone": "+49 7274 504 0",
    "type": "",
    "ownership": "",
    "emergency": "Yes",
    "quality": "",
    "LAT": 49.220226,
    "LON": 8.3650734
  },
  "104": {
    "id": 10104,
    "name": "Asklepios Südpfalzklinik Kandel",
    "address": "",
    "city": "Kandel",
    "state": "Rheinland-pfalz",
    "zip": 76870,
    "county": "",
    "phone": "+49 7275 71-0",
    "type": "",
    "ownership": "",
    "emergency": "",
    "quality": "",
    "LAT": 49.0855913,
    "LON": 8.2000356
  },
  "105": {
    "id": 10105,
    "name": "Asklepios Tagesklinik",
    "address": "Friedländer Weg 55",
    "city": "Göttingen",
    "state": "Niedersachsen",
    "zip": 37073,
    "county": "",
    "phone": "",
    "type": "",
    "ownership": "",
    "emergency": "",
    "quality": "",
    "LAT": 51.5285255,
    "LON": 9.9466762
  },
  "106": {
    "id": 10106,
    "name": "Asklepios Westklinikum Hamburg",
    "address": "Suurheid 20",
    "city": "Hamburg",
    "state": "Hamburg",
    "zip": 22559,
    "county": "",
    "phone": "+49 40 8191 0",
    "type": "",
    "ownership": "",
    "emergency": "",
    "quality": "",
    "LAT": 53.5822195,
    "LON": 9.7729113
  },
  "107": {
    "id": 10107,
    "name": "Asklepios-Klinik Bad Oldesloe",
    "address": "Schützenstraße 55",
    "city": "Bad Oldesloe",
    "state": "Schleswig-holstein",
    "zip": 23843,
    "county": "",
    "phone": "",
    "type": "",
    "ownership": "",
    "emergency": "Yes",
    "quality": "",
    "LAT": 53.8119651,
    "LON": 10.3644108
  },
  "108": {
    "id": 10108,
    "name": "Asklepios-Paulinen-Klinik",
    "address": "Geisenheimer Straße 10",
    "city": "Wiesbaden",
    "state": "Hessen",
    "zip": 65197,
    "county": "",
    "phone": "",
    "type": "",
    "ownership": "",
    "emergency": "Yes",
    "quality": "",
    "LAT": 50.0722682,
    "LON": 8.2259214
  },
  "109": {
    "id": 10109,
    "name": "Augenklinik",
    "address": "",
    "city": "Brilon",
    "state": "Nordrhein-westfalen",
    "zip": 59929,
    "county": "",
    "phone": "",
    "type": "",
    "ownership": "",
    "emergency": "",
    "quality": "",
    "LAT": 51.3843945,
    "LON": 8.5832589
  },
  "111": {
    "id": 10111,
    "name": "Augenklinik Berlin Marzahn",
    "address": "Brebacher Weg 15",
    "city": "Berlin",
    "state": "Berlin",
    "zip": 12683,
    "county": "",
    "phone": "",
    "type": "",
    "ownership": "",
    "emergency": "",
    "quality": "",
    "LAT": 52.5146269,
    "LON": 13.5670486
  },
  "112": {
    "id": 10112,
    "name": "Augenklinik Herzog Carl Theodor",
    "address": "Nymphenburger Straße 43",
    "city": "München",
    "state": "Bayern",
    "zip": 80333,
    "county": "",
    "phone": "",
    "type": "",
    "ownership": "",
    "emergency": "",
    "quality": "",
    "LAT": 48.1483651,
    "LON": 11.5503431
  },
  "113": {
    "id": 10113,
    "name": "Augenklinik Universitätsallee Bremen",
    "address": "Parkallee 301",
    "city": "Bremen",
    "state": "Bremen",
    "zip": 28213,
    "county": "",
    "phone": "",
    "type": "",
    "ownership": "",
    "emergency": "",
    "quality": "",
    "LAT": 53.1049502,
    "LON": 8.841574
  },
  "114": {
    "id": 10114,
    "name": "Augenklinik der Universität München",
    "address": "Mathildenstraße 8",
    "city": "München",
    "state": "Bayern",
    "zip": 80336,
    "county": "",
    "phone": "",
    "type": "",
    "ownership": "",
    "emergency": "",
    "quality": "",
    "LAT": 48.135674,
    "LON": 11.5632237
  },
  "115": {
    "id": 10115,
    "name": "Augenklinik-Ambulanz",
    "address": "",
    "city": "Mannheim",
    "state": "Baden-württemberg",
    "zip": 68167,
    "county": "",
    "phone": "",
    "type": "",
    "ownership": "",
    "emergency": "",
    "quality": "",
    "LAT": 49.4930129,
    "LON": 8.486602
  },
  "116": {
    "id": 10116,
    "name": "Augenklinik;Medizinische Klinik",
    "address": "Beurhausstraße 40",
    "city": "Dortmund",
    "state": "Nordrhein-westfalen",
    "zip": 44137,
    "county": "",
    "phone": "",
    "type": "",
    "ownership": "",
    "emergency": "",
    "quality": "",
    "LAT": 51.5083699,
    "LON": 7.456681
  },
  "117": {
    "id": 10117,
    "name": "August-Bier-Klinik",
    "address": "Diekseepromenade 7-11",
    "city": "Malente",
    "state": "Schleswig-holstein",
    "zip": 23714,
    "county": "",
    "phone": "+49 4523 405 0",
    "type": "",
    "ownership": "",
    "emergency": "No",
    "quality": "",
    "LAT": 54.1648167,
    "LON": 10.5473668
  },
  "118": {
    "id": 10118,
    "name": "Augusta Krankenhaus",
    "address": "Amalienstraße 9",
    "city": "Düsseldorf",
    "state": "Nordrhein-westfalen",
    "zip": 40472,
    "county": "",
    "phone": "+49 211 90430",
    "type": "",
    "ownership": "",
    "emergency": "",
    "quality": "",
    "LAT": 51.2669255,
    "LON": 6.8256134
  },
  "119": {
    "id": 10119,
    "name": "Augusta-Klinik Bochum-Mitte",
    "address": "Bergstraße 26",
    "city": "Bochum",
    "state": "Nordrhein-westfalen",
    "zip": 44787,
    "county": "",
    "phone": "+49 234 517-0",
    "type": "",
    "ownership": "",
    "emergency": "Yes",
    "quality": "",
    "LAT": 51.4858641,
    "LON": 7.2214815
  },
  "120": {
    "id": 10120,
    "name": "Augusta-Kranken-Anstalt Bochum-Linden",
    "address": "",
    "city": "Bochum",
    "state": "Nordrhein-westfalen",
    "zip": 44879,
    "county": "",
    "phone": "",
    "type": "",
    "ownership": "",
    "emergency": "",
    "quality": "",
    "LAT": 51.4233628,
    "LON": 7.1579211
  },
  "121": {
    "id": 10121,
    "name": "Augustahospital Anholt",
    "address": "",
    "city": "Isselburg",
    "state": "Nordrhein-westfalen",
    "zip": 46419,
    "county": "",
    "phone": "",
    "type": "",
    "ownership": "",
    "emergency": "No",
    "quality": "",
    "LAT": 51.8491321,
    "LON": 6.4324034
  },
  "122": {
    "id": 10122,
    "name": "Auguste-Viktoria-Klinik",
    "address": "",
    "city": "Bad Oeynhausen",
    "state": "Nordrhein-westfalen",
    "zip": 32545,
    "county": "",
    "phone": "",
    "type": "",
    "ownership": "",
    "emergency": "",
    "quality": "",
    "LAT": 52.2065095,
    "LON": 8.7860134
  },
  "123": {
    "id": 10123,
    "name": "Auguste-Viktoria-Klinikum",
    "address": "Rubensstraße 125",
    "city": "Berlin",
    "state": "Berlin",
    "zip": 12157,
    "county": "",
    "phone": "+49 30 130200",
    "type": "",
    "ownership": "",
    "emergency": "Yes",
    "quality": "",
    "LAT": 52.459274,
    "LON": 13.348324
  },
  "124": {
    "id": 10124,
    "name": "Aussentreppe",
    "address": "",
    "city": "Stuttgart",
    "state": "Baden-württemberg",
    "zip": 70178,
    "county": "",
    "phone": "",
    "type": "",
    "ownership": "",
    "emergency": "",
    "quality": "",
    "LAT": 48.7583364,
    "LON": 9.1623642
  },
  "125": {
    "id": 10125,
    "name": "BDH-Klinik Hessisch Oldendorf",
    "address": "Greitstraße 18-28",
    "city": "Hessisch Oldendorf",
    "state": "Niedersachsen",
    "zip": 31840,
    "county": "",
    "phone": "+49 5152 781 0",
    "type": "",
    "ownership": "",
    "emergency": "",
    "quality": "",
    "LAT": 52.1746079,
    "LON": 9.2485358
  },
  "126": {
    "id": 10126,
    "name": "BDH-Klinik Vallendar",
    "address": "",
    "city": "Vallendar",
    "state": "Rheinland-pfalz",
    "zip": 56179,
    "county": "",
    "phone": "",
    "type": "",
    "ownership": "",
    "emergency": "",
    "quality": "",
    "LAT": 50.4001838,
    "LON": 7.6112292
  },
  "127": {
    "id": 10127,
    "name": "BG Klinik Ludwigshafen",
    "address": "",
    "city": "Ludwigshafen am Rhein",
    "state": "Rheinland-pfalz",
    "zip": 67059,
    "county": "",
    "phone": "",
    "type": "",
    "ownership": "",
    "emergency": "Yes",
    "quality": "",
    "LAT": 49.4867865,
    "LON": 8.3907591
  },
  "128": {
    "id": 10128,
    "name": "BG Klinikum Bergmannstrost Halle",
    "address": "Merseburger Straße 165",
    "city": "Halle (Saale)",
    "state": "Sachsen-anhalt",
    "zip": 6130,
    "county": "",
    "phone": "",
    "type": "",
    "ownership": "",
    "emergency": "Yes",
    "quality": "",
    "LAT": 51.4611451,
    "LON": 11.9839408
  },
  "129": {
    "id": 10129,
    "name": "BG Klinikum Duisburg",
    "address": "Großenbaumer Allee 260",
    "city": "Duisburg",
    "state": "Nordrhein-westfalen",
    "zip": 47249,
    "county": "",
    "phone": "+49 203 7688-0",
    "type": "",
    "ownership": "",
    "emergency": "Yes",
    "quality": "",
    "LAT": 51.3795897,
    "LON": 6.7817458
  },
  "130": {
    "id": 10130,
    "name": "BG Unfallklinik",
    "address": "Friedberger Landstraße 430",
    "city": "Frankfurt am Main",
    "state": "Hessen",
    "zip": 60389,
    "county": "",
    "phone": "",
    "type": "",
    "ownership": "",
    "emergency": "Yes",
    "quality": "",
    "LAT": 50.1433208,
    "LON": 8.7086977
  },
  "131": {
    "id": 10131,
    "name": "BRK Bereitschaft Großostheim",
    "address": "Wallstädter Weg 16",
    "city": "Großostheim",
    "state": "Bayern",
    "zip": 63762,
    "county": "",
    "phone": "",
    "type": "",
    "ownership": "",
    "emergency": "",
    "quality": "",
    "LAT": 49.9160479,
    "LON": 9.086654
  },
  "132": {
    "id": 10132,
    "name": "Balzerbornkliniken",
    "address": "Balzerbornweg 27",
    "city": "Bad Sooden-Allendorf",
    "state": "Hessen",
    "zip": 37242,
    "county": "",
    "phone": "",
    "type": "",
    "ownership": "",
    "emergency": "",
    "quality": "",
    "LAT": 51.263076,
    "LON": 9.9673599
  },
  "133": {
    "id": 10133,
    "name": "Barbarossa Klinik",
    "address": "Lange Straße 111",
    "city": "Kelbra (Kyffhäuser)",
    "state": "Sachsen-anhalt",
    "zip": 6537,
    "county": "",
    "phone": "",
    "type": "",
    "ownership": "",
    "emergency": "",
    "quality": "",
    "LAT": 51.4309115,
    "LON": 11.0288662
  },
  "134": {
    "id": 10134,
    "name": "Barmherzige Brüder Saffig",
    "address": "",
    "city": "Saffig",
    "state": "Rheinland-pfalz",
    "zip": 56648,
    "county": "",
    "phone": "",
    "type": "",
    "ownership": "",
    "emergency": "No",
    "quality": "",
    "LAT": 50.3773691,
    "LON": 7.4196877
  },
  "135": {
    "id": 10135,
    "name": "Baumholder Army Health Clinic",
    "address": "",
    "city": "Baumholder",
    "state": "Rheinland-pfalz",
    "zip": 55774,
    "county": "",
    "phone": "",
    "type": "",
    "ownership": "",
    "emergency": "Yes",
    "quality": "",
    "LAT": 49.6150147,
    "LON": 7.3276666
  },
  "136": {
    "id": 10136,
    "name": "Benedictus Krankenhaus Feldafing",
    "address": "",
    "city": "Feldafing",
    "state": "Bayern",
    "zip": 82340,
    "county": "",
    "phone": "",
    "type": "",
    "ownership": "",
    "emergency": "",
    "quality": "",
    "LAT": 47.9514315,
    "LON": 11.2986639
  },
  "137": {
    "id": 10137,
    "name": "Benedictus Krankenhaus Tutzing",
    "address": "Bahnhofstraße 5",
    "city": "Tutzing",
    "state": "Bayern",
    "zip": 82327,
    "county": "",
    "phone": 498158230,
    "type": "",
    "ownership": "",
    "emergency": "Yes",
    "quality": "",
    "LAT": 47.9070843,
    "LON": 11.2773086
  },
  "138": {
    "id": 10138,
    "name": "Bereich Bachstraße",
    "address": "",
    "city": "Jena",
    "state": "Thüringen",
    "zip": 7743,
    "county": "",
    "phone": "",
    "type": "",
    "ownership": "",
    "emergency": "",
    "quality": "",
    "LAT": 50.9297313,
    "LON": 11.5762497
  },
  "139": {
    "id": 10139,
    "name": "Bereich Dornburger Straße",
    "address": "",
    "city": "Jena",
    "state": "Thüringen",
    "zip": 7743,
    "county": "",
    "phone": "",
    "type": "",
    "ownership": "",
    "emergency": "",
    "quality": "",
    "LAT": 50.9374977,
    "LON": 11.5883953
  },
  "140": {
    "id": 10140,
    "name": "Bereich Erfurter Straße",
    "address": "",
    "city": "Jena",
    "state": "Thüringen",
    "zip": 7743,
    "county": "",
    "phone": "",
    "type": "",
    "ownership": "",
    "emergency": "",
    "quality": "",
    "LAT": 50.9350952,
    "LON": 11.5638731
  },
  "141": {
    "id": 10141,
    "name": "Bereich Landgrafengebiet",
    "address": "",
    "city": "Jena",
    "state": "Thüringen",
    "zip": 7743,
    "county": "",
    "phone": "",
    "type": "",
    "ownership": "",
    "emergency": "",
    "quality": "",
    "LAT": 50.9335487,
    "LON": 11.578504
  },
  "142": {
    "id": 10142,
    "name": "Bereich Stadtzentrum",
    "address": "",
    "city": "Jena",
    "state": "Thüringen",
    "zip": 7743,
    "county": "",
    "phone": "",
    "type": "",
    "ownership": "",
    "emergency": "",
    "quality": "",
    "LAT": 50.9283432,
    "LON": 11.5837448
  },
  "143": {
    "id": 10143,
    "name": "Berolina Klinik",
    "address": "",
    "city": "Löhne",
    "state": "Nordrhein-westfalen",
    "zip": 32584,
    "county": "",
    "phone": "",
    "type": "",
    "ownership": "",
    "emergency": "",
    "quality": "",
    "LAT": 52.1982384,
    "LON": 8.7839113
  },
  "145": {
    "id": 10145,
    "name": "Berolina Klinik Haus 1",
    "address": "",
    "city": "Löhne",
    "state": "Nordrhein-westfalen",
    "zip": 32584,
    "county": "",
    "phone": "",
    "type": "",
    "ownership": "",
    "emergency": "",
    "quality": "",
    "LAT": 52.1983983,
    "LON": 8.7865856
  },
  "146": {
    "id": 10146,
    "name": "Berolina Klinik Haus 2",
    "address": "",
    "city": "Löhne",
    "state": "Nordrhein-westfalen",
    "zip": 32584,
    "county": "",
    "phone": "",
    "type": "",
    "ownership": "",
    "emergency": "",
    "quality": "",
    "LAT": 52.1985944,
    "LON": 8.7851357
  },
  "147": {
    "id": 10147,
    "name": "Berolina Klinik Haus 3",
    "address": "",
    "city": "Löhne",
    "state": "Nordrhein-westfalen",
    "zip": 32584,
    "county": "",
    "phone": "",
    "type": "",
    "ownership": "",
    "emergency": "",
    "quality": "",
    "LAT": 52.1983536,
    "LON": 8.7844949
  },
  "148": {
    "id": 10148,
    "name": "Bertha-Krankenhaus",
    "address": "Maiblumenstraße 5",
    "city": "Duisburg",
    "state": "Nordrhein-westfalen",
    "zip": 47226,
    "county": "",
    "phone": 492065000000,
    "type": "",
    "ownership": "",
    "emergency": "No",
    "quality": "",
    "LAT": 51.3967167,
    "LON": 6.6993451
  },
  "149": {
    "id": 10149,
    "name": "Berufsgenossenschaftliche Klinikum Hamburg",
    "address": "",
    "city": "Hamburg",
    "state": "Hamburg",
    "zip": 20354,
    "county": "",
    "phone": "",
    "type": "",
    "ownership": "",
    "emergency": "Yes",
    "quality": "",
    "LAT": 53.5053253,
    "LON": 10.1754918
  },
  "150": {
    "id": 10150,
    "name": "Berufsgenossenschaftliche Unfallklinik",
    "address": "",
    "city": "Tübingen",
    "state": "Baden-württemberg",
    "zip": 72076,
    "county": "",
    "phone": "",
    "type": "",
    "ownership": "",
    "emergency": "",
    "quality": "",
    "LAT": 48.5345657,
    "LON": 9.0356055
  },
  "151": {
    "id": 10151,
    "name": "Berufsgenossenschaftliches Universitätsklinikum Bergmannsheil GmbH",
    "address": "Bürkle de la Camp-Platz 1",
    "city": "Bochum",
    "state": "Nordrhein-westfalen",
    "zip": 44789,
    "county": "",
    "phone": "+49 234 302-0",
    "type": "",
    "ownership": "",
    "emergency": "",
    "quality": "",
    "LAT": 51.4696801,
    "LON": 7.2114771
  },
  "152": {
    "id": 10152,
    "name": "Beta Klink",
    "address": "Joseph-Schumpeter-Allee 13,15,17",
    "city": "Bonn",
    "state": "Nordrhein-westfalen",
    "zip": 53113,
    "county": "",
    "phone": "",
    "type": "",
    "ownership": "",
    "emergency": "",
    "quality": "",
    "LAT": 50.7190578,
    "LON": 7.1513438
  },
  "153": {
    "id": 10153,
    "name": "Bethanien-Krankenhaus",
    "address": "Rohrbacher Straße 149",
    "city": "Heidelberg",
    "state": "Baden-württemberg",
    "zip": 69126,
    "county": "",
    "phone": "",
    "type": "",
    "ownership": "",
    "emergency": "",
    "quality": "",
    "LAT": 49.3922528,
    "LON": 8.6903374
  },
  "154": {
    "id": 10154,
    "name": "Bethanienkrankenhaus",
    "address": "",
    "city": "Frankfurt am Main",
    "state": "Hessen",
    "zip": 60385,
    "county": "",
    "phone": "",
    "type": "",
    "ownership": "",
    "emergency": "",
    "quality": "",
    "LAT": 50.128852,
    "LON": 8.7062318
  },
  "155": {
    "id": 10155,
    "name": "Bethesda Krankenhaus",
    "address": "Euelsbruchstraße 39",
    "city": "",
    "state": "Nordrhein-westfalen",
    "zip": "",
    "county": "",
    "phone": "+49 2734 2790",
    "type": "",
    "ownership": "",
    "emergency": "",
    "quality": "",
    "LAT": 50.8994284,
    "LON": 7.8639519
  },
  "156": {
    "id": 10156,
    "name": "Bethesda Krankenhaus Bergedorf",
    "address": "",
    "city": "Hamburg",
    "state": "Hamburg",
    "zip": 21029,
    "county": "",
    "phone": "",
    "type": "",
    "ownership": "",
    "emergency": "Yes",
    "quality": "",
    "LAT": 53.4851697,
    "LON": 10.2378179
  },
  "157": {
    "id": 10157,
    "name": "Bethesda-Krankenhaus",
    "address": "Hainstraße 15-35",
    "city": "Wuppertal",
    "state": "Nordrhein-westfalen",
    "zip": 42275,
    "county": "",
    "phone": "",
    "type": "",
    "ownership": "",
    "emergency": "Yes",
    "quality": "",
    "LAT": 51.2689813,
    "LON": 7.1295141
  },
  "158": {
    "id": 10158,
    "name": "Bethlehem Gesundheitszentrum",
    "address": "Steinfeldstraße 5",
    "city": "Stolberg (Rheinland)",
    "state": "Nordrhein-westfalen",
    "zip": 52222,
    "county": "",
    "phone": "",
    "type": "",
    "ownership": "",
    "emergency": "Yes",
    "quality": "",
    "LAT": 50.7727373,
    "LON": 6.2303564
  },
  "159": {
    "id": 10159,
    "name": "Betriebskindertagesstätte Bergmännchen",
    "address": "Charlottenstraße 72",
    "city": "Potsdam",
    "state": "Brandenburg",
    "zip": 14467,
    "county": "",
    "phone": "",
    "type": "",
    "ownership": "",
    "emergency": "",
    "quality": "",
    "LAT": 52.4022846,
    "LON": 13.0673356
  },
  "160": {
    "id": 10160,
    "name": "Bettenhaus Nord",
    "address": "Humboldtstraße 5",
    "city": "Hannover",
    "state": "Niedersachsen",
    "zip": 30169,
    "county": "",
    "phone": "",
    "type": "",
    "ownership": "",
    "emergency": "",
    "quality": "",
    "LAT": 52.3713576,
    "LON": 9.7250108
  },
  "161": {
    "id": 10161,
    "name": "Bettenhaus Ost",
    "address": "Humboldtstraße 5",
    "city": "Hannover",
    "state": "Niedersachsen",
    "zip": 30169,
    "county": "",
    "phone": "",
    "type": "",
    "ownership": "",
    "emergency": "",
    "quality": "",
    "LAT": 52.3707083,
    "LON": 9.7255153
  },
  "162": {
    "id": 10162,
    "name": "Bettenhaus St. Antonius Hospital",
    "address": "",
    "city": "Kleve",
    "state": "Nordrhein-westfalen",
    "zip": 47533,
    "county": "",
    "phone": "",
    "type": "",
    "ownership": "",
    "emergency": "Yes",
    "quality": "",
    "LAT": 51.7730845,
    "LON": 6.1351993
  },
  "163": {
    "id": 10163,
    "name": "Bettenhaus Süd",
    "address": "Humboldtstraße 5",
    "city": "Hannover",
    "state": "Niedersachsen",
    "zip": 30169,
    "county": "",
    "phone": "",
    "type": "",
    "ownership": "",
    "emergency": "",
    "quality": "",
    "LAT": 52.3703039,
    "LON": 9.7250165
  },
  "164": {
    "id": 10164,
    "name": "Bettenhaus West",
    "address": "Humboldtstraße 5",
    "city": "Hannover",
    "state": "Niedersachsen",
    "zip": 30169,
    "county": "",
    "phone": "",
    "type": "",
    "ownership": "",
    "emergency": "",
    "quality": "",
    "LAT": 52.3706834,
    "LON": 9.7237339
  },
  "165": {
    "id": 10165,
    "name": "Bezirksklinikum Ansbach",
    "address": "Feuchtwanger Straße 38",
    "city": "Ansbach",
    "state": "Bayern",
    "zip": 91522,
    "county": "",
    "phone": "+49 981 46530",
    "type": "",
    "ownership": "",
    "emergency": "",
    "quality": "",
    "LAT": 49.2923824,
    "LON": 10.5463923
  },
  "166": {
    "id": 10166,
    "name": "Bezirksklinikum Mainkofen",
    "address": "nan A3",
    "city": "Deggendorf",
    "state": "Bayern",
    "zip": 94469,
    "county": "",
    "phone": "+49 9931 870",
    "type": "",
    "ownership": "",
    "emergency": "",
    "quality": "",
    "LAT": 48.8092673,
    "LON": 12.8987088
  },
  "167": {
    "id": 10167,
    "name": "Bezirksklinikum Passau",
    "address": "",
    "city": "Passau",
    "state": "Bayern",
    "zip": 94032,
    "county": "",
    "phone": "",
    "type": "",
    "ownership": "",
    "emergency": "",
    "quality": "",
    "LAT": 48.5665395,
    "LON": 13.4465949
  },
  "168": {
    "id": 10168,
    "name": "Bezirksklinikum Wöllershof",
    "address": "Wöllershof 1",
    "city": "Störnstein",
    "state": "Bayern",
    "zip": 92721,
    "county": "",
    "phone": "",
    "type": "",
    "ownership": "",
    "emergency": "",
    "quality": "",
    "LAT": 49.7478858,
    "LON": 12.1829473
  },
  "169": {
    "id": 10169,
    "name": "Bezirkskrankenhaus",
    "address": "Nordring 2",
    "city": "Bayreuth",
    "state": "Bayern",
    "zip": 95444,
    "county": "",
    "phone": "+49 921 2830",
    "type": "",
    "ownership": "",
    "emergency": "",
    "quality": "",
    "LAT": 49.9560246,
    "LON": 11.5664323
  },
  "170": {
    "id": 10170,
    "name": "Bezirkskrankenhaus Augsburg",
    "address": "Dr.-Mack-Straße 1",
    "city": "Augsburg",
    "state": "Bayern",
    "zip": 86156,
    "county": "",
    "phone": "+49 821 4803-0",
    "type": "",
    "ownership": "",
    "emergency": "No",
    "quality": "",
    "LAT": 48.3872283,
    "LON": 10.830702
  },
  "171": {
    "id": 10171,
    "name": "Bezirkskrankenhaus I",
    "address": "",
    "city": "Parsberg",
    "state": "Bayern",
    "zip": 92331,
    "county": "",
    "phone": "",
    "type": "",
    "ownership": "",
    "emergency": "",
    "quality": "",
    "LAT": 49.1556975,
    "LON": 11.7199042
  },
  "172": {
    "id": 10172,
    "name": "Bezirkskrankenhaus II",
    "address": "Pfarrer-Fischer-Straße 8",
    "city": "Parsberg",
    "state": "Bayern",
    "zip": 92331,
    "county": "",
    "phone": "",
    "type": "",
    "ownership": "",
    "emergency": "",
    "quality": "",
    "LAT": 49.1543897,
    "LON": 11.718213
  },
  "173": {
    "id": 10173,
    "name": "Bezirkskrankenhaus Landshut",
    "address": "Prof.-Buchner-Straße 22",
    "city": "Landshut",
    "state": "Bayern",
    "zip": 84034,
    "county": "",
    "phone": "",
    "type": "",
    "ownership": "",
    "emergency": "",
    "quality": "",
    "LAT": 48.5369034,
    "LON": 12.1340016
  },
  "174": {
    "id": 10174,
    "name": "Bezirkskrankenhaus Straubing Forensisch-psychiatrische Klinik",
    "address": "Lerchenhaid 32",
    "city": "Straubing",
    "state": "Bayern",
    "zip": 94315,
    "county": "",
    "phone": "+49 9421 8005 0",
    "type": "",
    "ownership": "",
    "emergency": "No",
    "quality": "",
    "LAT": 48.881204,
    "LON": 12.5316865
  },
  "175": {
    "id": 10175,
    "name": "BfA Kurklinik Lipperland",
    "address": "",
    "city": "Bad Salzuflen",
    "state": "Nordrhein-westfalen",
    "zip": 32105,
    "county": "",
    "phone": "",
    "type": "",
    "ownership": "",
    "emergency": "",
    "quality": "",
    "LAT": 52.0898202,
    "LON": 8.755546
  },
  "176": {
    "id": 10176,
    "name": "BfA-Klinik",
    "address": "",
    "city": "Bad Schmiedeberg",
    "state": "Sachsen-anhalt",
    "zip": 6905,
    "county": "",
    "phone": "",
    "type": "",
    "ownership": "",
    "emergency": "",
    "quality": "",
    "LAT": 51.6770602,
    "LON": 12.7297437
  },
  "177": {
    "id": 10177,
    "name": "Birkle Klinik",
    "address": "Obere Sankt-Leonhard-Straße 55",
    "city": "Überlingen",
    "state": "Baden-württemberg",
    "zip": 88662,
    "county": "",
    "phone": 4975518030,
    "type": "",
    "ownership": "",
    "emergency": "",
    "quality": "",
    "LAT": 47.7662515,
    "LON": 9.1816137
  },
  "178": {
    "id": 10178,
    "name": "Blutspende/ Transfusionsmedizin",
    "address": "Schillerstraße 8a",
    "city": "Erlangen",
    "state": "Bayern",
    "zip": 91054,
    "county": "",
    "phone": "",
    "type": "",
    "ownership": "",
    "emergency": "",
    "quality": "",
    "LAT": 49.5992662,
    "LON": 11.0162241
  },
  "179": {
    "id": 10179,
    "name": "Boddenklinik",
    "address": "Sandhufe 2",
    "city": "Ribnitz-Damgarten",
    "state": "Mecklenburg-vorpommern",
    "zip": 18311,
    "county": "",
    "phone": "",
    "type": "",
    "ownership": "",
    "emergency": "",
    "quality": "",
    "LAT": 54.2366408,
    "LON": 12.4443286
  },
  "180": {
    "id": 10180,
    "name": "Bonifatius Hospital",
    "address": "Wilhelmstraße 13",
    "city": "Lingen (Ems)",
    "state": "Niedersachsen",
    "zip": 49808,
    "county": "",
    "phone": "+49 591 910 0",
    "type": "",
    "ownership": "",
    "emergency": "",
    "quality": "",
    "LAT": 52.5230787,
    "LON": 7.3165927
  },
  "181": {
    "id": 10181,
    "name": "Borromäus Hospital",
    "address": "Kirchstraße 61-67",
    "city": "Leer (Ostfriesland)",
    "state": "Niedersachsen",
    "zip": 26789,
    "county": "",
    "phone": "+49 491 85 0",
    "type": "",
    "ownership": "",
    "emergency": "",
    "quality": "",
    "LAT": 53.2279729,
    "LON": 7.443341
  },
  "182": {
    "id": 10182,
    "name": "Brohltal-Klinik St. Josef",
    "address": "",
    "city": "Burgbrohl",
    "state": "Rheinland-pfalz",
    "zip": 56659,
    "county": "",
    "phone": "+49 2636 530",
    "type": "",
    "ownership": "",
    "emergency": "No",
    "quality": "",
    "LAT": 50.4562327,
    "LON": 7.2790297
  },
  "183": {
    "id": 10183,
    "name": "Bruder-Klaus-Krankenhaus",
    "address": "Heitereweg 10",
    "city": "Waldkirch",
    "state": "Baden-württemberg",
    "zip": 79183,
    "county": "",
    "phone": "+49 7681 2080",
    "type": "",
    "ownership": "",
    "emergency": "Yes",
    "quality": "",
    "LAT": 48.0978363,
    "LON": 7.9521019
  },
  "184": {
    "id": 10184,
    "name": "Brüderhaus Koblenz",
    "address": "Kardinal-Krementz-Straße 1-5",
    "city": "Koblenz",
    "state": "Rheinland-pfalz",
    "zip": 56068,
    "county": "",
    "phone": "",
    "type": "",
    "ownership": "",
    "emergency": "",
    "quality": "",
    "LAT": 50.3530251,
    "LON": 7.5856822
  },
  "185": {
    "id": 10185,
    "name": "Brüderkrankenhaus Montabaur",
    "address": "",
    "city": "Montabaur",
    "state": "Rheinland-pfalz",
    "zip": 56410,
    "county": "",
    "phone": "",
    "type": "",
    "ownership": "",
    "emergency": "Yes",
    "quality": "",
    "LAT": 50.4315998,
    "LON": 7.8315824
  },
  "186": {
    "id": 10186,
    "name": "Brüderkrankenhaus Sankt Josef",
    "address": "",
    "city": "Paderborn",
    "state": "Nordrhein-westfalen",
    "zip": 33098,
    "county": "",
    "phone": "",
    "type": "",
    "ownership": "",
    "emergency": "",
    "quality": "",
    "LAT": 51.7112235,
    "LON": 8.757529
  },
  "187": {
    "id": 10187,
    "name": "Buchberg-Klinik Bad Tölz",
    "address": "Wengleinstraße 20",
    "city": "Bad Tölz",
    "state": "Bayern",
    "zip": 83646,
    "county": "",
    "phone": "+49 8041 803–0",
    "type": "",
    "ownership": "",
    "emergency": "",
    "quality": "",
    "LAT": 47.759948,
    "LON": 11.5397137
  },
  "188": {
    "id": 10188,
    "name": "Buchinger Wilhelmi - Fachklinik für Heilfasten",
    "address": "Wilhelm-Beck-Straße 27",
    "city": "Überlingen",
    "state": "Baden-württemberg",
    "zip": 88662,
    "county": "",
    "phone": "",
    "type": "",
    "ownership": "",
    "emergency": "",
    "quality": "",
    "LAT": 47.771722,
    "LON": 9.1456908
  },
  "189": {
    "id": 10189,
    "name": "Bundeswehr Dienstelle - Facharztzentrum Amberg",
    "address": "Köferinger Straße 1",
    "city": "Amberg",
    "state": "Bayern",
    "zip": 92224,
    "county": "",
    "phone": "",
    "type": "",
    "ownership": "",
    "emergency": "",
    "quality": "",
    "LAT": 49.4293458,
    "LON": 11.8551821
  },
  "190": {
    "id": 10190,
    "name": "Bundeswehrkrankenhaus Berlin",
    "address": "Scharnhorststraße 13",
    "city": "Berlin",
    "state": "Berlin",
    "zip": 10115,
    "county": "",
    "phone": "",
    "type": "",
    "ownership": "",
    "emergency": "Yes",
    "quality": "",
    "LAT": 52.5341693,
    "LON": 13.3707029
  },
  "191": {
    "id": 10191,
    "name": "Bundeswehrkrankenhaus Ulm",
    "address": "Oberer Eselsberg 40",
    "city": "Ulm",
    "state": "Baden-württemberg",
    "zip": 89081,
    "county": "",
    "phone": "",
    "type": "",
    "ownership": "",
    "emergency": "Yes",
    "quality": "",
    "LAT": 48.424998,
    "LON": 9.9484704
  },
  "192": {
    "id": 10192,
    "name": "Burghof-Klinik Haus 1",
    "address": "Ritterstraße 19",
    "city": "Rinteln",
    "state": "Niedersachsen",
    "zip": 31737,
    "county": "",
    "phone": "",
    "type": "",
    "ownership": "",
    "emergency": "",
    "quality": "",
    "LAT": 52.1846172,
    "LON": 9.0812673
  },
  "193": {
    "id": 10193,
    "name": "Burghof-Klinik Haus 3",
    "address": "Virchowstraße 9",
    "city": "Rinteln",
    "state": "Niedersachsen",
    "zip": 31737,
    "county": "",
    "phone": "",
    "type": "",
    "ownership": "",
    "emergency": "No",
    "quality": "",
    "LAT": 52.2044955,
    "LON": 9.0731635
  },
  "194": {
    "id": 10194,
    "name": "Burghofklinik",
    "address": "Burgallee 22",
    "city": "Bad Nauheim",
    "state": "Hessen",
    "zip": 61231,
    "county": "",
    "phone": "",
    "type": "",
    "ownership": "",
    "emergency": "No",
    "quality": "",
    "LAT": 50.3673789,
    "LON": 8.7343993
  },
  "195": {
    "id": 10195,
    "name": "Bürgerhospital",
    "address": "",
    "city": "Frankfurt am Main",
    "state": "Hessen",
    "zip": 60318,
    "county": "",
    "phone": "",
    "type": "",
    "ownership": "",
    "emergency": "",
    "quality": "",
    "LAT": 50.1309709,
    "LON": 8.6860708
  },
  "196": {
    "id": 10196,
    "name": "Bürgerhospital Friedberg",
    "address": "",
    "city": "Friedberg (Hessen)",
    "state": "Hessen",
    "zip": 61169,
    "county": "",
    "phone": "",
    "type": "",
    "ownership": "",
    "emergency": "Yes",
    "quality": "",
    "LAT": 50.3353622,
    "LON": 8.7508001
  },
  "197": {
    "id": 10197,
    "name": "CELENUS ALGOS-Klinik",
    "address": "Hermann-Sachse-Straße 36",
    "city": "Bad Klosterlausnitz",
    "state": "Thüringen",
    "zip": 7639,
    "county": "",
    "phone": "",
    "type": "",
    "ownership": "",
    "emergency": "",
    "quality": "",
    "LAT": 50.9196823,
    "LON": 11.8635389
  },
  "198": {
    "id": 10198,
    "name": "Caduceus Fachkrankenhaus",
    "address": "Niendorfer Weg 5",
    "city": "Bad Bevensen",
    "state": "Niedersachsen",
    "zip": 29549,
    "county": "",
    "phone": "+49 5821 9775 0",
    "type": "",
    "ownership": "",
    "emergency": "",
    "quality": "",
    "LAT": 53.0906986,
    "LON": 10.6023672
  },
  "199": {
    "id": 10199,
    "name": "Cantine / Cafeteria",
    "address": "Am Vogelherd 18",
    "city": "Wangen im Allgäu",
    "state": "Baden-württemberg",
    "zip": 88239,
    "county": "",
    "phone": "",
    "type": "",
    "ownership": "",
    "emergency": "",
    "quality": "",
    "LAT": 47.6995815,
    "LON": 9.8358592
  },
  "200": {
    "id": 10200,
    "name": "Capio Elbe-Jeetzel-Klinik",
    "address": "Hermann-Löns-Straße 2",
    "city": "Dannenberg (Elbe)",
    "state": "Niedersachsen",
    "zip": 29451,
    "county": "",
    "phone": "",
    "type": "",
    "ownership": "",
    "emergency": "",
    "quality": "",
    "LAT": 53.0835891,
    "LON": 11.0801559
  },
  "201": {
    "id": 10201,
    "name": "Capio Franz von Prümmer Klinik",
    "address": "Bahnhofstraße 16",
    "city": "Bad Brückenau",
    "state": "Bayern",
    "zip": 97769,
    "county": "",
    "phone": "",
    "type": "",
    "ownership": "",
    "emergency": "",
    "quality": "",
    "LAT": 50.3079623,
    "LON": 9.7842837
  },
  "202": {
    "id": 10202,
    "name": "Capio Hofgartenklinik",
    "address": "Hofgartenstraße 6",
    "city": "Aschaffenburg",
    "state": "Bayern",
    "zip": 63739,
    "county": "",
    "phone": "",
    "type": "",
    "ownership": "",
    "emergency": "",
    "quality": "",
    "LAT": 49.9754076,
    "LON": 9.1549298
  },
  "203": {
    "id": 10203,
    "name": "Capio Klinik im Park",
    "address": "Hagelkreuzstraße 37",
    "city": "Hilden",
    "state": "Nordrhein-westfalen",
    "zip": 40721,
    "county": "",
    "phone": "",
    "type": "",
    "ownership": "",
    "emergency": "",
    "quality": "",
    "LAT": 51.1642695,
    "LON": 6.9372894
  },
  "204": {
    "id": 10204,
    "name": "Capio Krankenhaus Land Hadeln",
    "address": "Große Ortstraße 85",
    "city": "Otterndorf",
    "state": "Niedersachsen",
    "zip": 21762,
    "county": "",
    "phone": "+49 4751 908 0",
    "type": "",
    "ownership": "",
    "emergency": "",
    "quality": "",
    "LAT": 53.8111681,
    "LON": 8.8891192
  },
  "205": {
    "id": 10205,
    "name": "Capio Mathilden-Hospital",
    "address": "Am Schlag 9",
    "city": "Büdingen",
    "state": "Hessen",
    "zip": 63654,
    "county": "",
    "phone": "+49 6042 86 0",
    "type": "",
    "ownership": "",
    "emergency": "Yes",
    "quality": "",
    "LAT": 50.2869378,
    "LON": 9.1130517
  },
  "206": {
    "id": 10206,
    "name": "Caritas Zentrum Memmingen",
    "address": "",
    "city": "Memmingen",
    "state": "Bayern",
    "zip": 87700,
    "county": "",
    "phone": "",
    "type": "",
    "ownership": "",
    "emergency": "",
    "quality": "",
    "LAT": 47.986839,
    "LON": 10.1901462
  },
  "207": {
    "id": 10207,
    "name": "Caritas-Heim Maria am See",
    "address": "Am Stadion 14",
    "city": "Bad Salzungen",
    "state": "Thüringen",
    "zip": 36433,
    "county": "",
    "phone": "",
    "type": "",
    "ownership": "",
    "emergency": "",
    "quality": "",
    "LAT": 50.8070096,
    "LON": 10.2375152
  },
  "208": {
    "id": 10208,
    "name": "Caritas-Krankenhaus Lebach",
    "address": "",
    "city": "Lebach",
    "state": "Saarland",
    "zip": 66822,
    "county": "",
    "phone": "+49 6881 501-0",
    "type": "",
    "ownership": "",
    "emergency": "",
    "quality": "",
    "LAT": 49.4188158,
    "LON": 6.8908661
  },
  "209": {
    "id": 10209,
    "name": "Caritas-Krankenhaus Sankt Josef",
    "address": "Landshuter Straße 65",
    "city": "Regensburg",
    "state": "Bayern",
    "zip": 93053,
    "county": "",
    "phone": "+49 941 782-0",
    "type": "",
    "ownership": "",
    "emergency": "Yes",
    "quality": "",
    "LAT": 49.0066384,
    "LON": 12.1193046
  },
  "210": {
    "id": 10210,
    "name": "CaritasKlinikum Saarbrücken St. Josef Dudweiler",
    "address": "Klosterstraße 14",
    "city": "Saarbrücken",
    "state": "Saarland",
    "zip": 66125,
    "county": "",
    "phone": "",
    "type": "",
    "ownership": "",
    "emergency": "Yes",
    "quality": "",
    "LAT": 49.2773142,
    "LON": 7.040423
  },
  "211": {
    "id": 10211,
    "name": "CaritasKlinikum Saarbrücken St. Theresia",
    "address": "Rheinstraße 2",
    "city": "Saarbrücken",
    "state": "Saarland",
    "zip": 66113,
    "county": "",
    "phone": "",
    "type": "",
    "ownership": "",
    "emergency": "Yes",
    "quality": "",
    "LAT": 49.2484563,
    "LON": 6.9576049
  },
  "212": {
    "id": 10212,
    "name": "Carl-Thiem-Klinikum",
    "address": "Thiemstraße 111",
    "city": "Cottbus",
    "state": "Brandenburg",
    "zip": 3048,
    "county": "",
    "phone": "",
    "type": "",
    "ownership": "",
    "emergency": "Yes",
    "quality": "",
    "LAT": 51.7435854,
    "LON": 14.3179285
  },
  "213": {
    "id": 10213,
    "name": "Carl-von-Basedow-Klinikum",
    "address": "",
    "city": "Querfurt",
    "state": "Sachsen-anhalt",
    "zip": 6268,
    "county": "",
    "phone": "",
    "type": "",
    "ownership": "",
    "emergency": "",
    "quality": "",
    "LAT": 51.3708204,
    "LON": 11.6055095
  },
  "214": {
    "id": 10214,
    "name": "Celenus Fachklinik Freiburg",
    "address": "An den Heilquellen 2",
    "city": "",
    "state": "Baden-württemberg",
    "zip": "",
    "county": "",
    "phone": "+49 761 888590",
    "type": "",
    "ownership": "",
    "emergency": "No",
    "quality": "",
    "LAT": 47.982829,
    "LON": 7.7667405
  },
  "215": {
    "id": 10215,
    "name": "Centralklinik Pforzheim",
    "address": "",
    "city": "Pforzheim",
    "state": "Baden-württemberg",
    "zip": 75172,
    "county": "",
    "phone": "",
    "type": "",
    "ownership": "",
    "emergency": "",
    "quality": "",
    "LAT": 48.8906898,
    "LON": 8.696982
  },
  "216": {
    "id": 10216,
    "name": "Charité Campus Virchow Klinikum",
    "address": "Augustenburger Platz 1",
    "city": "Berlin",
    "state": "Berlin",
    "zip": 13353,
    "county": "",
    "phone": "+49 30 45050",
    "type": "",
    "ownership": "",
    "emergency": "Yes",
    "quality": "",
    "LAT": 52.5424688,
    "LON": 13.3403456
  },
  "217": {
    "id": 10217,
    "name": "Charité Universitätsmedizin Berlin",
    "address": "",
    "city": "Berlin",
    "state": "Berlin",
    "zip": 10178,
    "county": "",
    "phone": "",
    "type": "",
    "ownership": "",
    "emergency": "Yes",
    "quality": "",
    "LAT": 52.5256197,
    "LON": 13.380129
  },
  "218": {
    "id": 10218,
    "name": "Charité-Campus Benjamin Franklin",
    "address": "Hindenburgdamm 30",
    "city": "Berlin",
    "state": "Berlin",
    "zip": 12207,
    "county": "",
    "phone": "",
    "type": "",
    "ownership": "",
    "emergency": "Yes",
    "quality": "",
    "LAT": 52.4402845,
    "LON": 13.3165958
  },
  "219": {
    "id": 10219,
    "name": "Charlottenhall",
    "address": "Mathilde-Wurm-Straße 7",
    "city": "Bad Salzungen",
    "state": "Thüringen",
    "zip": 36433,
    "county": "",
    "phone": "+49 3695 6923-0",
    "type": "",
    "ownership": "",
    "emergency": "",
    "quality": "",
    "LAT": 50.8130803,
    "LON": 10.2306968
  },
  "220": {
    "id": 10220,
    "name": "Chiemgau Klinik Marquartstein",
    "address": "",
    "city": "Marquartstein",
    "state": "Bayern",
    "zip": 83250,
    "county": "",
    "phone": "",
    "type": "",
    "ownership": "",
    "emergency": "",
    "quality": "",
    "LAT": 47.7473969,
    "LON": 12.4586703
  },
  "221": {
    "id": 10221,
    "name": "Chirurgie/Neurologie",
    "address": "Beurhausstraße 40",
    "city": "Dortmund",
    "state": "Nordrhein-westfalen",
    "zip": 44137,
    "county": "",
    "phone": "",
    "type": "",
    "ownership": "",
    "emergency": "",
    "quality": "",
    "LAT": 51.5087035,
    "LON": 7.4569158
  },
  "222": {
    "id": 10222,
    "name": "Chirurgische Klinik",
    "address": "Beurhausstraße 45",
    "city": "Dortmund",
    "state": "Nordrhein-westfalen",
    "zip": 44137,
    "county": "",
    "phone": "",
    "type": "",
    "ownership": "",
    "emergency": "",
    "quality": "",
    "LAT": 51.5093675,
    "LON": 7.456279
  },
  "224": {
    "id": 10224,
    "name": "Chirurgische Klinik der Universität München",
    "address": "Nußbaumstraße 20",
    "city": "München",
    "state": "Bayern",
    "zip": 80336,
    "county": "",
    "phone": "+49 89 5160-0",
    "type": "",
    "ownership": "",
    "emergency": "",
    "quality": "",
    "LAT": 48.1341513,
    "LON": 11.5613893
  },
  "225": {
    "id": 10225,
    "name": "Chirurgische Privatklinik Bogenhausen",
    "address": "Denninger Straße 44",
    "city": "München",
    "state": "Bayern",
    "zip": 81675,
    "county": "",
    "phone": "+49 89 92794 0",
    "type": "",
    "ownership": "",
    "emergency": "Yes",
    "quality": "",
    "LAT": 48.1485219,
    "LON": 11.6149055
  },
  "226": {
    "id": 10226,
    "name": "Chirurgische Tagesklinik",
    "address": "",
    "city": "Freyung",
    "state": "Bayern",
    "zip": 94078,
    "county": "",
    "phone": "",
    "type": "",
    "ownership": "",
    "emergency": "",
    "quality": "",
    "LAT": 48.8182319,
    "LON": 13.5480427
  },
  "227": {
    "id": 10227,
    "name": "Christliches Kinderhospital Osnabrück",
    "address": "Johannisfreiheit 1",
    "city": "Osnabrück",
    "state": "Niedersachsen",
    "zip": 49074,
    "county": "",
    "phone": "",
    "type": "",
    "ownership": "",
    "emergency": "",
    "quality": "",
    "LAT": 52.2699029,
    "LON": 8.0534697
  },
  "228": {
    "id": 10228,
    "name": "Christophorus Klink (Fachklinik für den Maßregelvollzug)",
    "address": "",
    "city": "Münster",
    "state": "Nordrhein-westfalen",
    "zip": 48143,
    "county": "",
    "phone": "",
    "type": "",
    "ownership": "",
    "emergency": "",
    "quality": "",
    "LAT": 51.8790907,
    "LON": 7.5591791
  },
  "229": {
    "id": 10229,
    "name": "Christophorus-Kliniken",
    "address": "Vollenstraße 10",
    "city": "Dülmen",
    "state": "Nordrhein-westfalen",
    "zip": 48249,
    "county": "",
    "phone": "",
    "type": "",
    "ownership": "",
    "emergency": "Yes",
    "quality": "",
    "LAT": 51.827739,
    "LON": 7.2796777
  },
  "230": {
    "id": 10230,
    "name": "Christophorushaus",
    "address": "",
    "city": "München",
    "state": "Bayern",
    "zip": 81925,
    "county": "",
    "phone": "",
    "type": "",
    "ownership": "",
    "emergency": "No",
    "quality": "",
    "LAT": 48.1592973,
    "LON": 11.6202391
  },
  "232": {
    "id": 10232,
    "name": "Christophsbad",
    "address": "Faurndauer Straße 6-28",
    "city": "Göppingen",
    "state": "Baden-württemberg",
    "zip": 73033,
    "county": "",
    "phone": "+49 7161 601-0",
    "type": "",
    "ownership": "",
    "emergency": "",
    "quality": "",
    "LAT": 48.7000639,
    "LON": 9.6408302
  },
  "233": {
    "id": 10233,
    "name": "Clemens Hospital",
    "address": "Düesbergweg 124",
    "city": "Münster",
    "state": "Nordrhein-westfalen",
    "zip": 48143,
    "county": "",
    "phone": "+49 251 9760",
    "type": "",
    "ownership": "",
    "emergency": "Yes",
    "quality": "",
    "LAT": 51.932343,
    "LON": 7.6120325
  },
  "234": {
    "id": 10234,
    "name": "Clementine Kinderhospital",
    "address": "Theobald-Christ-Straße 16",
    "city": "Frankfurt am Main",
    "state": "Hessen",
    "zip": 60316,
    "county": "",
    "phone": "",
    "type": "",
    "ownership": "",
    "emergency": "Yes",
    "quality": "",
    "LAT": 50.1143798,
    "LON": 8.6979707
  },
  "235": {
    "id": 10235,
    "name": "Cochlear Implant Centrum",
    "address": "",
    "city": "Hannover",
    "state": "Niedersachsen",
    "zip": 30627,
    "county": "",
    "phone": "",
    "type": "",
    "ownership": "",
    "emergency": "",
    "quality": "",
    "LAT": 52.3933918,
    "LON": 9.7862982
  },
  "236": {
    "id": 10236,
    "name": "Collm Klinik Oschatz",
    "address": "Parkstraße 1",
    "city": "Oschatz",
    "state": "Sachsen",
    "zip": 4758,
    "county": "",
    "phone": "",
    "type": "",
    "ownership": "",
    "emergency": "Yes",
    "quality": "",
    "LAT": 51.2931808,
    "LON": 13.1135045
  },
  "237": {
    "id": 10237,
    "name": "Curtius-Klinik",
    "address": "Neue Kampstraße 2",
    "city": "Malente",
    "state": "Schleswig-holstein",
    "zip": 23714,
    "county": "",
    "phone": "",
    "type": "",
    "ownership": "",
    "emergency": "",
    "quality": "",
    "LAT": 54.1720486,
    "LON": 10.5651428
  },
  "238": {
    "id": 10238,
    "name": "Cusanus-Krankenhaus Bernkastel-Kues",
    "address": "Karl-Binz-Weg 12",
    "city": "Bernkastel-Kues",
    "state": "Rheinland-pfalz",
    "zip": 54470,
    "county": "",
    "phone": "",
    "type": "",
    "ownership": "",
    "emergency": "Yes",
    "quality": "",
    "LAT": 49.9158042,
    "LON": 7.0627634
  },
  "239": {
    "id": 10239,
    "name": "DIAKO",
    "address": "Gröpelinger Heerstraße 406-408",
    "city": "Bremen",
    "state": "Bremen",
    "zip": 28237,
    "county": "",
    "phone": "+49 421 6102 0",
    "type": "",
    "ownership": "",
    "emergency": "",
    "quality": "",
    "LAT": 53.1254478,
    "LON": 8.7446065
  },
  "240": {
    "id": 10240,
    "name": "DIAKO Fachklinik für Psychiatrie und Psychosomatik",
    "address": "Gammeltoft 8-15",
    "city": "Breklum",
    "state": "Schleswig-holstein",
    "zip": 25821,
    "county": "",
    "phone": "",
    "type": "",
    "ownership": "",
    "emergency": "",
    "quality": "",
    "LAT": 54.6149365,
    "LON": 8.9844229
  },
  "241": {
    "id": 10241,
    "name": "DIAKOVERE Friederikenstift Humboldtstraße",
    "address": "Humboldtstraße 5",
    "city": "Hannover",
    "state": "Niedersachsen",
    "zip": 30169,
    "county": "",
    "phone": "",
    "type": "",
    "ownership": "",
    "emergency": "Yes",
    "quality": "",
    "LAT": 52.3721461,
    "LON": 9.7236825
  },
  "242": {
    "id": 10242,
    "name": "DONAUISAR Klinikum Deggendorf",
    "address": "",
    "city": "Deggendorf",
    "state": "Bayern",
    "zip": 94469,
    "county": "",
    "phone": "+49 991 3800",
    "type": "",
    "ownership": "",
    "emergency": "",
    "quality": "",
    "LAT": 48.8398881,
    "LON": 12.9718723
  },
  "243": {
    "id": 10243,
    "name": "DRK Dorndiel/Klein-Umstadt",
    "address": "Seewiese 12",
    "city": "Groß-Umstadt",
    "state": "Hessen",
    "zip": 64823,
    "county": "",
    "phone": "",
    "type": "",
    "ownership": "",
    "emergency": "No",
    "quality": "",
    "LAT": 49.8660605,
    "LON": 9.0163288
  },
  "244": {
    "id": 10244,
    "name": "DRK Görwihl",
    "address": "Mühleberg 4",
    "city": "Görwihl",
    "state": "Baden-württemberg",
    "zip": 79733,
    "county": "",
    "phone": "",
    "type": "",
    "ownership": "",
    "emergency": "",
    "quality": "",
    "LAT": 47.6419856,
    "LON": 8.0753585
  },
  "245": {
    "id": 10245,
    "name": "DRK Heim",
    "address": "Am Edenhof 3a",
    "city": "Hage",
    "state": "Niedersachsen",
    "zip": 26524,
    "county": "",
    "phone": "",
    "type": "",
    "ownership": "",
    "emergency": "",
    "quality": "",
    "LAT": 53.600328,
    "LON": 7.2892062
  },
  "246": {
    "id": 10246,
    "name": "DRK Kamillus Klinik Asbach",
    "address": "Hospitalstraße 6",
    "city": "Asbach",
    "state": "Rheinland-pfalz",
    "zip": 53567,
    "county": "",
    "phone": "+49 2683 59-0",
    "type": "",
    "ownership": "",
    "emergency": "",
    "quality": "",
    "LAT": 50.6668938,
    "LON": 7.4241542
  },
  "247": {
    "id": 10247,
    "name": "DRK Kliniken Berlin - Köpenick",
    "address": "",
    "city": "Berlin",
    "state": "Berlin",
    "zip": 12559,
    "county": "",
    "phone": "",
    "type": "",
    "ownership": "",
    "emergency": "Yes",
    "quality": "",
    "LAT": 52.4413806,
    "LON": 13.5966884
  },
  "248": {
    "id": 10248,
    "name": "DRK Kliniken Berlin | Mitte",
    "address": "Drontheimer Straße 39",
    "city": "Berlin",
    "state": "Berlin",
    "zip": 13359,
    "county": "",
    "phone": "",
    "type": "",
    "ownership": "",
    "emergency": "",
    "quality": "",
    "LAT": 52.5567096,
    "LON": 13.3767948
  },
  "249": {
    "id": 10249,
    "name": "DRK Kliniken Westend",
    "address": "Spandauer Damm 130",
    "city": "Berlin",
    "state": "Berlin",
    "zip": 14050,
    "county": "",
    "phone": 49303035,
    "type": "",
    "ownership": "",
    "emergency": "Yes",
    "quality": "",
    "LAT": 52.5192059,
    "LON": 13.2747074
  },
  "250": {
    "id": 10250,
    "name": "DRK Krankenhaus",
    "address": "Klützer Straße 14",
    "city": "Grevesmühlen",
    "state": "Mecklenburg-vorpommern",
    "zip": 23936,
    "county": "",
    "phone": "+49 3881 7260",
    "type": "",
    "ownership": "",
    "emergency": "",
    "quality": "",
    "LAT": 53.868551,
    "LON": 11.1832783
  },
  "251": {
    "id": 10251,
    "name": "DRK Krankenhaus Alzey",
    "address": "",
    "city": "Alzey",
    "state": "Rheinland-pfalz",
    "zip": 55232,
    "county": "",
    "phone": "",
    "type": "",
    "ownership": "",
    "emergency": "Yes",
    "quality": "",
    "LAT": 49.7463593,
    "LON": 8.1049004
  },
  "252": {
    "id": 10252,
    "name": "DRK Krankenhaus Chemnitz-Rabenstein",
    "address": "Unritzstraße 23",
    "city": "Chemnitz",
    "state": "Sachsen",
    "zip": 9117,
    "county": "",
    "phone": "",
    "type": "",
    "ownership": "",
    "emergency": "Yes",
    "quality": "",
    "LAT": 50.8226419,
    "LON": 12.8239605
  },
  "253": {
    "id": 10253,
    "name": "DRK Krankenhaus Hachenburg",
    "address": "",
    "city": "Hachenburg",
    "state": "Rheinland-pfalz",
    "zip": 57627,
    "county": "",
    "phone": "+49 2662 85-0",
    "type": "",
    "ownership": "",
    "emergency": "Yes",
    "quality": "",
    "LAT": 50.6574368,
    "LON": 7.8320141
  },
  "254": {
    "id": 10254,
    "name": "DRK Krankenhaus Kirchen",
    "address": "Bahnhofstraße 24",
    "city": "Kirchen (Sieg)",
    "state": "Rheinland-pfalz",
    "zip": 57548,
    "county": "",
    "phone": "",
    "type": "",
    "ownership": "",
    "emergency": "",
    "quality": "",
    "LAT": 50.8064925,
    "LON": 7.8794497
  },
  "255": {
    "id": 10255,
    "name": "DRK Krankenhaus Sondershausen",
    "address": "Hospitalstraße 2",
    "city": "Sondershausen",
    "state": "Thüringen",
    "zip": 99706,
    "county": "",
    "phone": "+49 3632 670",
    "type": "",
    "ownership": "",
    "emergency": "Yes",
    "quality": "",
    "LAT": 51.3745949,
    "LON": 10.8772694
  },
  "256": {
    "id": 10256,
    "name": "DRK Manniske-Krankenhaus gGmbH",
    "address": "An der Wipper 2",
    "city": "Bad Frankenhausen/Kyffhäuser",
    "state": "Thüringen",
    "zip": 6567,
    "county": "",
    "phone": "",
    "type": "",
    "ownership": "",
    "emergency": "",
    "quality": "",
    "LAT": 51.3569215,
    "LON": 11.0946861
  },
  "257": {
    "id": 10257,
    "name": "DRK Unterkunft Staufenberg",
    "address": "",
    "city": "Staufenberg",
    "state": "Hessen",
    "zip": 35460,
    "county": "",
    "phone": "",
    "type": "",
    "ownership": "",
    "emergency": "No",
    "quality": "",
    "LAT": 50.6579792,
    "LON": 8.7385159
  },
  "258": {
    "id": 10258,
    "name": "DRK-Fachklinik Hahnknüll",
    "address": "Hahnknüll 58",
    "city": "Neumünster",
    "state": "Schleswig-holstein",
    "zip": 24534,
    "county": "",
    "phone": "",
    "type": "",
    "ownership": "",
    "emergency": "",
    "quality": "",
    "LAT": 54.0977021,
    "LON": 9.9474956
  },
  "259": {
    "id": 10259,
    "name": "DRK-Kinderklinik",
    "address": "",
    "city": "Siegen",
    "state": "Nordrhein-westfalen",
    "zip": 57072,
    "county": "",
    "phone": "",
    "type": "",
    "ownership": "",
    "emergency": "",
    "quality": "",
    "LAT": 50.8823647,
    "LON": 8.0185374
  },
  "260": {
    "id": 10260,
    "name": "DRK-Kliniken Nordhessen, Standort Kaufungen",
    "address": "",
    "city": "",
    "state": "Hessen",
    "zip": "",
    "county": "",
    "phone": "+49 5605 9450",
    "type": "",
    "ownership": "",
    "emergency": "No",
    "quality": "",
    "LAT": 51.2845303,
    "LON": 9.648158
  },
  "261": {
    "id": 10261,
    "name": "DRK-Kliniken Nordhessen, Standort Wehlheiden",
    "address": "Hansteinstraße 29",
    "city": "Kassel",
    "state": "Hessen",
    "zip": 34121,
    "county": "",
    "phone": "",
    "type": "",
    "ownership": "",
    "emergency": "Yes",
    "quality": "",
    "LAT": 51.3120738,
    "LON": 9.4533138
  },
  "262": {
    "id": 10262,
    "name": "DRK-Krankenhaus Clementinenhaus",
    "address": "Lützerodestraße 1",
    "city": "Hannover",
    "state": "Niedersachsen",
    "zip": 30163,
    "county": "",
    "phone": "0511-33942500",
    "type": "",
    "ownership": "",
    "emergency": "",
    "quality": "",
    "LAT": 52.3874017,
    "LON": 9.7448222
  },
  "263": {
    "id": 10263,
    "name": "DRK-Krankenhaus Luckenwalde",
    "address": "Saarstraße 1A",
    "city": "Luckenwalde",
    "state": "Brandenburg",
    "zip": 14943,
    "county": "",
    "phone": "",
    "type": "",
    "ownership": "",
    "emergency": "Yes",
    "quality": "",
    "LAT": 52.0989203,
    "LON": 13.1793696
  },
  "264": {
    "id": 10264,
    "name": "DRK-Krankenhaus Mecklenburg-Strelitz",
    "address": "Penzliner Straße 56",
    "city": "Neustrelitz",
    "state": "Mecklenburg-vorpommern",
    "zip": 17235,
    "county": "",
    "phone": "+49 3981 268 0",
    "type": "",
    "ownership": "",
    "emergency": "Yes",
    "quality": "",
    "LAT": 53.3801943,
    "LON": 13.0542694
  },
  "265": {
    "id": 10265,
    "name": "DRK-Krankenhaus Mölln-Ratzeburg",
    "address": "Röpersberg 2",
    "city": "Ratzeburg",
    "state": "Schleswig-holstein",
    "zip": 23909,
    "county": "",
    "phone": "+49 4541 8840",
    "type": "",
    "ownership": "",
    "emergency": "",
    "quality": "",
    "LAT": 53.6901514,
    "LON": 10.7791837
  },
  "266": {
    "id": 10266,
    "name": "DRK-Ortsverein Bad Urach",
    "address": "Espachstraße 3",
    "city": "Bad Urach",
    "state": "Baden-württemberg",
    "zip": 72574,
    "county": "",
    "phone": "",
    "type": "",
    "ownership": "",
    "emergency": "",
    "quality": "",
    "LAT": 48.4912166,
    "LON": 9.4024092
  },
  "267": {
    "id": 10267,
    "name": "DRK-Vorsorge- und Rehaeinrichtung für Mutter und Kind - \"Schloss Neuhaus",
    "address": "Schloßbergring 1",
    "city": "Föritztal",
    "state": "Thüringen",
    "zip": 96524,
    "county": "",
    "phone": "",
    "type": "",
    "ownership": "",
    "emergency": "No",
    "quality": "",
    "LAT": 50.314658,
    "LON": 11.2452089
  },
  "268": {
    "id": 10268,
    "name": "DRV Reha-Klinik Taubertal",
    "address": "Ketterberg 2",
    "city": "Bad Mergentheim",
    "state": "Baden-württemberg",
    "zip": 97980,
    "county": "",
    "phone": "",
    "type": "",
    "ownership": "",
    "emergency": "No",
    "quality": "",
    "LAT": 49.5002001,
    "LON": 9.7807419
  },
  "269": {
    "id": 10269,
    "name": "Danuvius Klinik",
    "address": "",
    "city": "Petershausen",
    "state": "Bayern",
    "zip": 85238,
    "county": "",
    "phone": "",
    "type": "",
    "ownership": "",
    "emergency": "",
    "quality": "",
    "LAT": 48.4039486,
    "LON": 11.4758497
  },
  "270": {
    "id": 10270,
    "name": "Darmklinik Exter",
    "address": "",
    "city": "Vlotho",
    "state": "Nordrhein-westfalen",
    "zip": 32602,
    "county": "",
    "phone": "",
    "type": "",
    "ownership": "",
    "emergency": "",
    "quality": "",
    "LAT": 52.1335189,
    "LON": 8.7766407
  },
  "271": {
    "id": 10271,
    "name": "Deegenbergklinik Bad Kissingen",
    "address": "Burgstraße 21",
    "city": "Bad Kissingen",
    "state": "Bayern",
    "zip": 97688,
    "county": "",
    "phone": "+49 971 8210",
    "type": "",
    "ownership": "",
    "emergency": "",
    "quality": "",
    "LAT": 50.1938883,
    "LON": 10.0885492
  },
  "272": {
    "id": 10272,
    "name": "Deutsche Klinik für Diagnostik",
    "address": "Aukammallee 33",
    "city": "Wiesbaden",
    "state": "Hessen",
    "zip": 65183,
    "county": "",
    "phone": "",
    "type": "",
    "ownership": "",
    "emergency": "",
    "quality": "",
    "LAT": 50.0869645,
    "LON": 8.2682465
  },
  "273": {
    "id": 10273,
    "name": "Deutsche Rentenversicherung BUND – Reha-Zentrum Bad Frankenhausen",
    "address": "Udersleber Weg 35",
    "city": "Bad Frankenhausen/Kyffhäuser",
    "state": "Thüringen",
    "zip": 6567,
    "county": "",
    "phone": "",
    "type": "",
    "ownership": "",
    "emergency": "",
    "quality": "",
    "LAT": 51.3606285,
    "LON": 11.1179173
  },
  "274": {
    "id": 10274,
    "name": "Deutsches Herzzentrum",
    "address": "Lazarettstraße 36",
    "city": "München",
    "state": "Bayern",
    "zip": 80634,
    "county": "",
    "phone": "+49 89 1218-0",
    "type": "",
    "ownership": "",
    "emergency": "",
    "quality": "",
    "LAT": 48.1522636,
    "LON": 11.5473842
  },
  "275": {
    "id": 10275,
    "name": "Deutsches Zentrum für Kinder- und Jugendrheumatologie",
    "address": "Gehfeldstraße 24",
    "city": "Garmisch-Partenkirchen",
    "state": "Bayern",
    "zip": 82467,
    "county": "",
    "phone": "",
    "type": "",
    "ownership": "",
    "emergency": "",
    "quality": "",
    "LAT": 47.4875017,
    "LON": 11.1024114
  },
  "276": {
    "id": 10276,
    "name": "DiaMed Centrum-Clinic",
    "address": "",
    "city": "Neuendettelsau",
    "state": "Bayern",
    "zip": 91564,
    "county": "",
    "phone": "",
    "type": "",
    "ownership": "",
    "emergency": "",
    "quality": "",
    "LAT": 49.2930824,
    "LON": 10.7909091
  },
  "277": {
    "id": 10277,
    "name": "Diabetes Zentrum Mergentheim",
    "address": "Theodor-Klotzbücher-Straße 12",
    "city": "Bad Mergentheim",
    "state": "Baden-württemberg",
    "zip": 97980,
    "county": "",
    "phone": "",
    "type": "",
    "ownership": "",
    "emergency": "",
    "quality": "",
    "LAT": 49.4961171,
    "LON": 9.7787233
  },
  "278": {
    "id": 10278,
    "name": "Diabeteszentrum Bad Lauterberg",
    "address": "Kirchberg 21",
    "city": "Bad Lauterberg im Harz",
    "state": "Niedersachsen",
    "zip": 37431,
    "county": "",
    "phone": "+49 5524 81 1",
    "type": "",
    "ownership": "",
    "emergency": "",
    "quality": "",
    "LAT": 51.6274205,
    "LON": 10.4723577
  },
  "279": {
    "id": 10279,
    "name": "Diagnose und Therapiezentrum / Kurmittelhaus",
    "address": "Kaiserstraße 16",
    "city": "Bad Sassendorf",
    "state": "Nordrhein-westfalen",
    "zip": 59505,
    "county": "",
    "phone": "",
    "type": "",
    "ownership": "",
    "emergency": "",
    "quality": "",
    "LAT": 51.5876207,
    "LON": 8.1691612
  },
  "280": {
    "id": 10280,
    "name": "Diakonie Kork",
    "address": "",
    "city": "Kehl",
    "state": "Baden-württemberg",
    "zip": 77694,
    "county": "",
    "phone": "+49 7851 840",
    "type": "",
    "ownership": "",
    "emergency": "",
    "quality": "",
    "LAT": 48.5686843,
    "LON": 7.8625335
  },
  "281": {
    "id": 10281,
    "name": "Diakonie Krankenhaus",
    "address": "Ringstraße 58",
    "city": "Bad Kreuznach",
    "state": "Rheinland-pfalz",
    "zip": 55543,
    "county": "",
    "phone": "+49 671 6050",
    "type": "",
    "ownership": "",
    "emergency": "Yes",
    "quality": "",
    "LAT": 49.8369634,
    "LON": 7.8632992
  },
  "282": {
    "id": 10282,
    "name": "Diakonie Suchtklinik",
    "address": "Schellenberg 13",
    "city": "Oldenburg (Oldb.)",
    "state": "Niedersachsen",
    "zip": 26122,
    "county": "",
    "phone": "",
    "type": "",
    "ownership": "",
    "emergency": "No",
    "quality": "",
    "LAT": 53.1039946,
    "LON": 8.2104199
  },
  "283": {
    "id": 10283,
    "name": "Diakonie-Kliniken Kassel",
    "address": "Herkulesstraße 34",
    "city": "Kassel",
    "state": "Hessen",
    "zip": 34125,
    "county": "",
    "phone": "",
    "type": "",
    "ownership": "",
    "emergency": "Yes",
    "quality": "",
    "LAT": 51.3146839,
    "LON": 9.4611192
  },
  "284": {
    "id": 10284,
    "name": "Diakonie-Klinikum Neunkirchen",
    "address": "",
    "city": "Neunkirchen",
    "state": "Saarland",
    "zip": 66538,
    "county": "",
    "phone": "+49 6821 18-0",
    "type": "",
    "ownership": "",
    "emergency": "Yes",
    "quality": "",
    "LAT": 49.3410068,
    "LON": 7.1819038
  },
  "285": {
    "id": 10285,
    "name": "Diakonie-Krankenhaus",
    "address": "",
    "city": "Kirn",
    "state": "Rheinland-pfalz",
    "zip": 55606,
    "county": "",
    "phone": "",
    "type": "",
    "ownership": "",
    "emergency": "Yes",
    "quality": "",
    "LAT": 49.7950885,
    "LON": 7.4561521
  },
  "286": {
    "id": 10286,
    "name": "Diakonie-Krankenhaus Harz",
    "address": "Badestraße 23",
    "city": "Harztor",
    "state": "Thüringen",
    "zip": 99768,
    "county": "",
    "phone": "+49 36331360",
    "type": "",
    "ownership": "",
    "emergency": "",
    "quality": "",
    "LAT": 51.5606436,
    "LON": 10.8398554
  },
  "288": {
    "id": 10288,
    "name": "Diakonie-Krankenhaus Wehrda",
    "address": "",
    "city": "Marburg",
    "state": "Hessen",
    "zip": 35041,
    "county": "",
    "phone": "",
    "type": "",
    "ownership": "",
    "emergency": "",
    "quality": "",
    "LAT": 50.8302468,
    "LON": 8.7607452
  },
  "289": {
    "id": 10289,
    "name": "Diakoniekrankenhaus Halle",
    "address": "Lafontainestraße 15",
    "city": "Halle (Saale)",
    "state": "Sachsen-anhalt",
    "zip": 6114,
    "county": "",
    "phone": "",
    "type": "",
    "ownership": "",
    "emergency": "Yes",
    "quality": "",
    "LAT": 51.4948888,
    "LON": 11.9580653
  },
  "290": {
    "id": 10290,
    "name": "Diakoniekrankenhaus Mannheim",
    "address": "Speyerer Straße 91-93",
    "city": "Mannheim",
    "state": "Baden-württemberg",
    "zip": 68199,
    "county": "",
    "phone": "+49 621 81020",
    "type": "",
    "ownership": "",
    "emergency": "Yes",
    "quality": "",
    "LAT": 49.4646903,
    "LON": 8.4694934
  },
  "291": {
    "id": 10291,
    "name": "Diakoniekrankenhaus Seehausen",
    "address": "",
    "city": "Seehausen (Altmark)",
    "state": "Sachsen-anhalt",
    "zip": 39615,
    "county": "",
    "phone": "",
    "type": "",
    "ownership": "",
    "emergency": "",
    "quality": "",
    "LAT": 52.881591,
    "LON": 11.747698
  },
  "292": {
    "id": 10292,
    "name": "Diakonieverbund der Kirchengemeinden Freiamts und Sexau",
    "address": "Ernst-Bühler-Weg 1",
    "city": "Sexau",
    "state": "Baden-württemberg",
    "zip": 79350,
    "county": "",
    "phone": "+49 7641 913024",
    "type": "",
    "ownership": "",
    "emergency": "",
    "quality": "",
    "LAT": 48.103486,
    "LON": 7.9065325
  },
  "293": {
    "id": 10293,
    "name": "Diakoniewerk München-Maxvorstadt",
    "address": "Heßstraße 22",
    "city": "München",
    "state": "Bayern",
    "zip": 80333,
    "county": "",
    "phone": "+49 89 21220",
    "type": "",
    "ownership": "",
    "emergency": "",
    "quality": "",
    "LAT": 48.1518,
    "LON": 11.5686507
  },
  "294": {
    "id": 10294,
    "name": "Diakonische Stiftung Wittekindshof",
    "address": "",
    "city": "Bad Oeynhausen",
    "state": "Nordrhein-westfalen",
    "zip": 32549,
    "county": "",
    "phone": "",
    "type": "",
    "ownership": "",
    "emergency": "",
    "quality": "",
    "LAT": 52.2557872,
    "LON": 8.7847139
  },
  "295": {
    "id": 10295,
    "name": "Diakonissen-Stiftungs-Krankenhaus Speyer (Haus Hilgardstraße)",
    "address": "Paul-Egell-Straße 33",
    "city": "Speyer",
    "state": "Rheinland-pfalz",
    "zip": 67346,
    "county": "",
    "phone": "+49 6232 221796",
    "type": "",
    "ownership": "",
    "emergency": "Yes",
    "quality": "",
    "LAT": 49.3114571,
    "LON": 8.4320548
  },
  "296": {
    "id": 10296,
    "name": "Diakonissenkrankenhaus Dessau",
    "address": "Gropiusallee 3",
    "city": "Dessau-Roßlau",
    "state": "Sachsen-anhalt",
    "zip": 6846,
    "county": "",
    "phone": "",
    "type": "",
    "ownership": "",
    "emergency": "Yes",
    "quality": "",
    "LAT": 51.8385048,
    "LON": 12.2270694
  },
  "297": {
    "id": 10297,
    "name": "Diakonissenkrankenhaus Flensburg",
    "address": "Knuthstraße 1",
    "city": "Flensburg",
    "state": "Schleswig-holstein",
    "zip": 24937,
    "county": "",
    "phone": "+49 461 8120",
    "type": "",
    "ownership": "",
    "emergency": "Yes",
    "quality": "",
    "LAT": 54.7911901,
    "LON": 9.4242012
  },
  "298": {
    "id": 10298,
    "name": "Diakovere Henriettenstift Marienstraße",
    "address": "Marienstraße 72-90",
    "city": "Hannover",
    "state": "Niedersachsen",
    "zip": 30171,
    "county": "",
    "phone": "",
    "type": "",
    "ownership": "",
    "emergency": "",
    "quality": "",
    "LAT": 52.3698508,
    "LON": 9.7544734
  },
  "299": {
    "id": 10299,
    "name": "Dialyse Zentrum",
    "address": "",
    "city": "Hamm",
    "state": "Nordrhein-westfalen",
    "zip": 59065,
    "county": "",
    "phone": "",
    "type": "",
    "ownership": "",
    "emergency": "",
    "quality": "",
    "LAT": 51.6869175,
    "LON": 7.8479426
  },
  "300": {
    "id": 10300,
    "name": "Dialyse-Zentrum",
    "address": "Rennbahn nan",
    "city": "Eisenach",
    "state": "Thüringen",
    "zip": 99817,
    "county": "",
    "phone": "",
    "type": "",
    "ownership": "",
    "emergency": "",
    "quality": "",
    "LAT": 50.9794912,
    "LON": 10.3255957
  },
  "301": {
    "id": 10301,
    "name": "Dialysezentrum",
    "address": "Annastraße 30",
    "city": "Moers",
    "state": "Nordrhein-westfalen",
    "zip": 47441,
    "county": "",
    "phone": "",
    "type": "",
    "ownership": "",
    "emergency": "",
    "quality": "",
    "LAT": 51.4453664,
    "LON": 6.6413398
  },