{
  "0": {
    "id": 10000,
    "name": "AFFIDEA",
    "address": "",
    "city": "Petroșani",
    "state": "Hunedoara",
    "zip": 332019,
    "county": "",
    "phone": "",
    "type": "",
    "ownership": "",
    "emergency": "",
    "quality": "",
    "LAT": 45.4082011,
    "LON": 23.3754743
  },
  "1": {
    "id": 10001,
    "name": "Ambulanta",
    "address": "",
    "city": "Călărași",
    "state": "",
    "zip": 910014,
    "county": "",
    "phone": "",
    "type": "",
    "ownership": "",
    "emergency": "",
    "quality": "",
    "LAT": 44.2035861,
    "LON": 27.3179285
  },
  "2": {
    "id": 10002,
    "name": "Ambulanta Alesd",
    "address": "",
    "city": "Aleșd",
    "state": "Bihor",
    "zip": 415100,
    "county": "",
    "phone": "",
    "type": "",
    "ownership": "",
    "emergency": "",
    "quality": "",
    "LAT": 47.05324,
    "LON": 22.4020288
  },
  "3": {
    "id": 10003,
    "name": "Ambulanță Reghin",
    "address": "",
    "city": "Reghin",
    "state": "",
    "zip": 545300,
    "county": "",
    "phone": "",
    "type": "",
    "ownership": "",
    "emergency": "",
    "quality": "",
    "LAT": 46.7840445,
    "LON": 24.6967293
  },
  "4": {
    "id": 10004,
    "name": "Ambulatorul de Specialitate Sfântul Spiridon",
    "address": "",
    "city": "Iași",
    "state": "",
    "zip": 700455,
    "county": "",
    "phone": "",
    "type": "",
    "ownership": "",
    "emergency": "",
    "quality": "",
    "LAT": 47.1699634,
    "LON": 27.5808641
  },
  "5": {
    "id": 10005,
    "name": "Amethyst",
    "address": "",
    "city": "Otopeni",
    "state": "Ilfov",
    "zip": 75101,
    "county": "",
    "phone": "",
    "type": "",
    "ownership": "",
    "emergency": "",
    "quality": "",
    "LAT": 44.5358518,
    "LON": 26.0604644
  },
  "6": {
    "id": 10006,
    "name": "Arcadia Hospital",
    "address": "Strada Cicoarei 2",
    "city": "Iași",
    "state": "",
    "zip": 700620,
    "county": "",
    "phone": "+40 232 202002",
    "type": "",
    "ownership": "",
    "emergency": "",
    "quality": "",
    "LAT": 47.1578663,
    "LON": 27.5612963
  },
  "7": {
    "id": 10007,
    "name": "Bloc materno-infantil, Cardiologie, Radiologie, Laborator analize, Farmacie",
    "address": "Bulevardul Corneliu Coposu 2 - 4",
    "city": "Sibiu",
    "state": "Sibiu",
    "zip": 550253,
    "county": "",
    "phone": "",
    "type": "",
    "ownership": "",
    "emergency": "",
    "quality": "",
    "LAT": 45.7942521,
    "LON": 24.1549566
  },
  "8": {
    "id": 10008,
    "name": "CERMED",
    "address": "Strada Avram Iancu 69",
    "city": "Constanța",
    "state": "",
    "zip": 900184,
    "county": "",
    "phone": "",
    "type": "",
    "ownership": "",
    "emergency": "",
    "quality": "",
    "LAT": 44.1797112,
    "LON": 28.6375993
  },
  "9": {
    "id": 10009,
    "name": "Cabinet Medico-Sanitar de Frontiera Port Constanța",
    "address": "",
    "city": "Constanța",
    "state": "",
    "zip": "",
    "county": "",
    "phone": "",
    "type": "",
    "ownership": "",
    "emergency": "",
    "quality": "",
    "LAT": 44.1717148,
    "LON": 28.6567463
  },
  "10": {
    "id": 10010,
    "name": "Cabinet medical",
    "address": "",
    "city": "Sâncraiu",
    "state": "Cluj",
    "zip": 407515,
    "county": "",
    "phone": "",
    "type": "",
    "ownership": "",
    "emergency": "",
    "quality": "",
    "LAT": 46.8299443,
    "LON": 22.9855479
  },
  "13": {
    "id": 10013,
    "name": "Cabinete medicale de familie",
    "address": "Strada Roșiori 33",
    "city": "Galați",
    "state": "",
    "zip": 800055,
    "county": "",
    "phone": "",
    "type": "",
    "ownership": "",
    "emergency": "No",
    "quality": "",
    "LAT": 45.4292631,
    "LON": 28.0495669
  },
  "14": {
    "id": 10014,
    "name": "Cabinete medicale de specialitate",
    "address": "Bulevardul Primăverii 4",
    "city": "Iași",
    "state": "",
    "zip": 700171,
    "county": "",
    "phone": "",
    "type": "",
    "ownership": "",
    "emergency": "",
    "quality": "",
    "LAT": 47.1504762,
    "LON": 27.5967041
  },
  "15": {
    "id": 10015,
    "name": "Cabinete medicale.",
    "address": "",
    "city": "Ștei",
    "state": "Bihor",
    "zip": 415600,
    "county": "",
    "phone": "",
    "type": "",
    "ownership": "",
    "emergency": "",
    "quality": "",
    "LAT": 46.5409352,
    "LON": 22.4556971
  },
  "16": {
    "id": 10016,
    "name": "Camera de Gardă - Spitalul Clinic de Psihiatrie “Prof. Dr. Alexandru Obregia”",
    "address": "",
    "city": "București",
    "state": "",
    "zip": "",
    "county": "",
    "phone": "",
    "type": "",
    "ownership": "",
    "emergency": "Yes",
    "quality": "",
    "LAT": 44.3864853,
    "LON": 26.1278255
  },
  "17": {
    "id": 10017,
    "name": "Camera de Gardă - Spitalul de Urgență Floreasca",
    "address": "",
    "city": "București",
    "state": "",
    "zip": "",
    "county": "",
    "phone": "",
    "type": "",
    "ownership": "",
    "emergency": "Yes",
    "quality": "",
    "LAT": 44.4538889,
    "LON": 26.1008975
  },
  "18": {
    "id": 10018,
    "name": "Centru De Excelență Clinică Fundația Baylor",
    "address": "Strada Liliacului 10",
    "city": "Constanța",
    "state": "",
    "zip": 900008,
    "county": "",
    "phone": "+40 241 691 730",
    "type": "",
    "ownership": "",
    "emergency": "No",
    "quality": "",
    "LAT": 44.1497426,
    "LON": 28.6235805
  },
  "19": {
    "id": 10019,
    "name": "Centru Medical",
    "address": "",
    "city": "Târgu Mureș",
    "state": "",
    "zip": 540052,
    "county": "",
    "phone": "",
    "type": "",
    "ownership": "",
    "emergency": "",
    "quality": "",
    "LAT": 46.5510804,
    "LON": 24.5745144
  },
  "20": {
    "id": 10020,
    "name": "Centru de dializă Diaverum",
    "address": "Strada Distribuției 32",
    "city": "Sibiu",
    "state": "Sibiu",
    "zip": 550009,
    "county": "",
    "phone": "",
    "type": "",
    "ownership": "",
    "emergency": "",
    "quality": "",
    "LAT": 45.7960181,
    "LON": 24.1333259
  },
  "21": {
    "id": 10021,
    "name": "Centru de recuperare și reabilitare neuropsihiatrică",
    "address": "",
    "city": "București",
    "state": "",
    "zip": 23571,
    "county": "",
    "phone": "",
    "type": "",
    "ownership": "",
    "emergency": "",
    "quality": "",
    "LAT": 44.4679599,
    "LON": 26.1526137
  },
  "22": {
    "id": 10022,
    "name": "Centrul Dializă IHS",
    "address": "",
    "city": "Brăila",
    "state": "Brăila",
    "zip": 810015,
    "county": "",
    "phone": "",
    "type": "",
    "ownership": "",
    "emergency": "",
    "quality": "",
    "LAT": 45.2698958,
    "LON": 27.979447
  },
  "23": {
    "id": 10023,
    "name": "Centrul Medial de Permanență Plătărești",
    "address": "",
    "city": "Plătărești",
    "state": "",
    "zip": 917203,
    "county": "",
    "phone": "",
    "type": "",
    "ownership": "",
    "emergency": "",
    "quality": "",
    "LAT": 44.3426833,
    "LON": 26.3769358
  },
  "24": {
    "id": 10024,
    "name": "Centrul Medical Academica",
    "address": "nan 20",
    "city": "București",
    "state": "",
    "zip": 10452,
    "county": "",
    "phone": "",
    "type": "",
    "ownership": "",
    "emergency": "",
    "quality": "",
    "LAT": 44.443379,
    "LON": 26.1009529
  },
  "25": {
    "id": 10025,
    "name": "Centrul Medical Copou",
    "address": "",
    "city": "Iași",
    "state": "",
    "zip": 700512,
    "county": "",
    "phone": "",
    "type": "",
    "ownership": "",
    "emergency": "No",
    "quality": "",
    "LAT": 47.1735798,
    "LON": 27.570478
  },
  "26": {
    "id": 10026,
    "name": "Centrul Medical Galenus",
    "address": "",
    "city": "Târgu Mureș",
    "state": "",
    "zip": 540052,
    "county": "",
    "phone": "",
    "type": "",
    "ownership": "",
    "emergency": "",
    "quality": "",
    "LAT": 46.5515387,
    "LON": 24.5734768
  },
  "27": {
    "id": 10027,
    "name": "Centrul Medical de Diagnostic și Tratament \"Dr. Victor Babeș",
    "address": "",
    "city": "București",
    "state": "",
    "zip": 30171,
    "county": "",
    "phone": "",
    "type": "",
    "ownership": "",
    "emergency": "",
    "quality": "",
    "LAT": 44.4280686,
    "LON": 26.1392145
  },
  "28": {
    "id": 10028,
    "name": "Centrul Medico-Social \"Sfântul Andrei",
    "address": "Șoseaua Berceni nan",
    "city": "București",
    "state": "",
    "zip": "",
    "county": "",
    "phone": "",
    "type": "",
    "ownership": "",
    "emergency": "",
    "quality": "",
    "LAT": 44.3827382,
    "LON": 26.1306613
  },
  "29": {
    "id": 10029,
    "name": "Centrul Regional de Transfuzie Sanguină Tg-Mureș",
    "address": "Strada Molter Károly 2",
    "city": "Târgu Mureș",
    "state": "",
    "zip": 540052,
    "county": "",
    "phone": "",
    "type": "",
    "ownership": "",
    "emergency": "",
    "quality": "",
    "LAT": 46.560516,
    "LON": 24.5830475
  },
  "30": {
    "id": 10030,
    "name": "Centrul de Diagnosticare și Tratament Providența",
    "address": "nan 115",
    "city": "Iași",
    "state": "",
    "zip": 700220,
    "county": "",
    "phone": "",
    "type": "",
    "ownership": "",
    "emergency": "",
    "quality": "",
    "LAT": 47.1253657,
    "LON": 27.5694266
  },
  "31": {
    "id": 10031,
    "name": "Centrul de Permanenta Vascau",
    "address": "Unirii 75",
    "city": "Vașcău",
    "state": "Bihor",
    "zip": 415800,
    "county": "",
    "phone": "",
    "type": "",
    "ownership": "",
    "emergency": "",
    "quality": "",
    "LAT": 46.4702714,
    "LON": 22.475333
  },
  "32": {
    "id": 10032,
    "name": "Centrul de Recuperare pentru Copii dr. Nicolae Robănescu",
    "address": "Strada Soldat Mincă Dumitru 40",
    "city": "București",
    "state": "",
    "zip": 40814,
    "county": "",
    "phone": "",
    "type": "",
    "ownership": "",
    "emergency": "",
    "quality": "",
    "LAT": 44.3896675,
    "LON": 26.1078393
  },
  "33": {
    "id": 10033,
    "name": "Centrul de Sănătate Ciacova",
    "address": "",
    "city": "Ciacova",
    "state": "",
    "zip": 307110,
    "county": "",
    "phone": "",
    "type": "",
    "ownership": "",
    "emergency": "",
    "quality": "",
    "LAT": 45.5151925,
    "LON": 21.1239431
  },
  "34": {
    "id": 10034,
    "name": "Centrul de Sănătate Mintală Copii",
    "address": "",
    "city": "Deva",
    "state": "Hunedoara",
    "zip": 330088,
    "county": "",
    "phone": "",
    "type": "",
    "ownership": "",
    "emergency": "",
    "quality": "",
    "LAT": 45.8706127,
    "LON": 22.9063057
  },
  "35": {
    "id": 10035,
    "name": "Centrul de Transfuzie Sanguină",
    "address": "",
    "city": "Târgoviște",
    "state": "",
    "zip": 130007,
    "county": "",
    "phone": 40245210913,
    "type": "",
    "ownership": "",
    "emergency": "",
    "quality": "",
    "LAT": 44.9190963,
    "LON": 25.456973
  },
  "37": {
    "id": 10037,
    "name": "Centrul de Transfuzii Bârlad",
    "address": "",
    "city": "Bârlad",
    "state": "Vaslui",
    "zip": 731085,
    "county": "",
    "phone": "",
    "type": "",
    "ownership": "",
    "emergency": "",
    "quality": "",
    "LAT": 46.2321026,
    "LON": 27.6664953
  },
  "38": {
    "id": 10038,
    "name": "Centrul de dializa Bârlad",
    "address": "",
    "city": "Bârlad",
    "state": "Vaslui",
    "zip": 731199,
    "county": "",
    "phone": "",
    "type": "",
    "ownership": "",
    "emergency": "",
    "quality": "",
    "LAT": 46.215868,
    "LON": 27.6583914
  },
  "39": {
    "id": 10039,
    "name": "Centrul de dializa Fresenius NephrocareCampulung-Muscel",
    "address": "Strada Erou Costel Constantinescu 16",
    "city": "Câmpulung",
    "state": "",
    "zip": 115100,
    "county": "",
    "phone": "+40 348 730 162",
    "type": "",
    "ownership": "",
    "emergency": "",
    "quality": "",
    "LAT": 45.2732848,
    "LON": 25.0526355
  },
  "40": {
    "id": 10040,
    "name": "Centrul de dializă",
    "address": "",
    "city": "Brăila",
    "state": "Brăila",
    "zip": "",
    "county": "",
    "phone": "",
    "type": "",
    "ownership": "",
    "emergency": "",
    "quality": "",
    "LAT": 45.2524122,
    "LON": 27.9401579
  },
  "41": {
    "id": 10041,
    "name": "Centrul de plasament \"Gulliver",
    "address": "",
    "city": "Iași",
    "state": "",
    "zip": 700615,
    "county": "",
    "phone": "",
    "type": "",
    "ownership": "",
    "emergency": "",
    "quality": "",
    "LAT": 47.1487844,
    "LON": 27.5616238
  },
  "42": {
    "id": 10042,
    "name": "Centrul de Îngrijiri Paliative „Sfântul Nectarie”",
    "address": "Strada Fabricii de Zahăr 49-51",
    "city": "Cluj-Napoca",
    "state": "Cluj",
    "zip": 400636,
    "county": "",
    "phone": 40364733610,
    "type": "",
    "ownership": "",
    "emergency": "",
    "quality": "",
    "LAT": 46.7844588,
    "LON": 23.6204928
  },
  "43": {
    "id": 10043,
    "name": "Centrul pentru Persoane cu Handicap Suferinde de Maladia Alzheimer",
    "address": "",
    "city": "Ciacova",
    "state": "",
    "zip": 307110,
    "county": "",
    "phone": "",
    "type": "",
    "ownership": "",
    "emergency": "",
    "quality": "",
    "LAT": 45.5115012,
    "LON": 21.1220389
  },
  "44": {
    "id": 10044,
    "name": "Clinica Amamed Bărbătești",
    "address": "",
    "city": "Bărbătești",
    "state": "Vâlcea",
    "zip": 247025,
    "county": "",
    "phone": "",
    "type": "",
    "ownership": "",
    "emergency": "",
    "quality": "",
    "LAT": 45.1723226,
    "LON": 24.1172807
  },
  "45": {
    "id": 10045,
    "name": "Clinica Chirurgie I",
    "address": "Strada Clinicilor nan",
    "city": "Cluj-Napoca",
    "state": "Cluj",
    "zip": 400006,
    "county": "",
    "phone": "",
    "type": "",
    "ownership": "",
    "emergency": "",
    "quality": "",
    "LAT": 46.765972,
    "LON": 23.5833921
  },
  "46": {
    "id": 10046,
    "name": "Clinica Dermato-Venerologie",
    "address": "Strada Clinicilor nan",
    "city": "Cluj-Napoca",
    "state": "Cluj",
    "zip": 400006,
    "county": "",
    "phone": "",
    "type": "",
    "ownership": "",
    "emergency": "",
    "quality": "",
    "LAT": 46.7651568,
    "LON": 23.5830082
  },
  "47": {
    "id": 10047,
    "name": "Clinica Dermatologică",
    "address": "",
    "city": "Iași",
    "state": "",
    "zip": 700342,
    "county": "",
    "phone": "",
    "type": "",
    "ownership": "",
    "emergency": "",
    "quality": "",
    "LAT": 47.1577255,
    "LON": 27.6160036
  },
  "48": {
    "id": 10048,
    "name": "Clinica MedLife Turnului",
    "address": "Strada Turnului nan",
    "city": "Brașov",
    "state": "",
    "zip": 500030,
    "county": "",
    "phone": "",
    "type": "",
    "ownership": "",
    "emergency": "",
    "quality": "",
    "LAT": 45.6651711,
    "LON": 25.6126401
  },
  "49": {
    "id": 10049,
    "name": "Clinica Medicală I",
    "address": "Strada Clinicilor nan",
    "city": "Cluj-Napoca",
    "state": "Cluj",
    "zip": 400006,
    "county": "",
    "phone": "",
    "type": "",
    "ownership": "",
    "emergency": "Yes",
    "quality": "",
    "LAT": 46.7656738,
    "LON": 23.582303
  },
  "50": {
    "id": 10050,
    "name": "Clinica O.R.L.",
    "address": "Strada Gheorghe Marinescu 34",
    "city": "Târgu Mureș",
    "state": "",
    "zip": 540052,
    "county": "",
    "phone": "",
    "type": "",
    "ownership": "",
    "emergency": "",
    "quality": "",
    "LAT": 46.5539216,
    "LON": 24.5782568
  },
  "51": {
    "id": 10051,
    "name": "Clinica Obstetrică - Ginecologie I",
    "address": "Strada Clinicilor nan",
    "city": "Cluj-Napoca",
    "state": "Cluj",
    "zip": 400006,
    "county": "",
    "phone": "",
    "type": "",
    "ownership": "",
    "emergency": "",
    "quality": "",
    "LAT": 46.7654169,
    "LON": 23.5814342
  },
  "52": {
    "id": 10052,
    "name": "Clinica Universitară de Obstetrică Ginecologie Bega",
    "address": "",
    "city": "Timișoara",
    "state": "",
    "zip": 300002,
    "county": "",
    "phone": "",
    "type": "",
    "ownership": "",
    "emergency": "",
    "quality": "",
    "LAT": 45.7442869,
    "LON": 21.2285704
  },
  "53": {
    "id": 10053,
    "name": "Clinica de Boli Infecțioase 1",
    "address": "Strada Gheorghe Doja 89",
    "city": "Târgu Mureș",
    "state": "",
    "zip": 540052,
    "county": "",
    "phone": -250758,
    "type": "",
    "ownership": "",
    "emergency": "",
    "quality": "",
    "LAT": 46.5306407,
    "LON": 24.5492883
  },
  "54": {
    "id": 10054,
    "name": "Clinica de Boli Infecțioase 2",
    "address": "Strada Gheorghe Doja 127",
    "city": "Târgu Mureș",
    "state": "",
    "zip": 540052,
    "county": "",
    "phone": -882930,
    "type": "",
    "ownership": "",
    "emergency": "",
    "quality": "",
    "LAT": 46.5287599,
    "LON": 24.5463123
  },
  "55": {
    "id": 10055,
    "name": "Clinica de Chirurgie",
    "address": "",
    "city": "Târgu Mureș",
    "state": "",
    "zip": 540052,
    "county": "",
    "phone": "",
    "type": "",
    "ownership": "",
    "emergency": "",
    "quality": "",
    "LAT": 46.5532098,
    "LON": 24.5751653
  },
  "56": {
    "id": 10056,
    "name": "Clinica de Chirurgie oro-maxilo-facială",
    "address": "",
    "city": "Târgu Mureș",
    "state": "",
    "zip": 540052,
    "county": "",
    "phone": "",
    "type": "",
    "ownership": "",
    "emergency": "",
    "quality": "",
    "LAT": 46.5390842,
    "LON": 24.5611703
  },
  "57": {
    "id": 10057,
    "name": "Clinica de Chirurgie și Ortopedie Pediatrică Dr. Trestianu Viorel",
    "address": "",
    "city": "Timișoara",
    "state": "",
    "zip": 300002,
    "county": "",
    "phone": "",
    "type": "",
    "ownership": "",
    "emergency": "Yes",
    "quality": "",
    "LAT": 45.7544314,
    "LON": 21.2214259
  },
  "58": {
    "id": 10058,
    "name": "Clinica de Dermato-Venerologie",
    "address": "Strada Gheorghe Doja 12",
    "city": "Târgu Mureș",
    "state": "",
    "zip": 540052,
    "county": "",
    "phone": -882859,
    "type": "",
    "ownership": "",
    "emergency": "",
    "quality": "",
    "LAT": 46.5386642,
    "LON": 24.5578261
  },
  "59": {
    "id": 10059,
    "name": "Clinica de Nefrologie",
    "address": "Strada Victor Babeș nan",
    "city": "Cluj-Napoca",
    "state": "Cluj",
    "zip": 400006,
    "county": "",
    "phone": "",
    "type": "",
    "ownership": "",
    "emergency": "",
    "quality": "",
    "LAT": 46.7659334,
    "LON": 23.5849339
  },
  "60": {
    "id": 10060,
    "name": "Clinica de Neonatologie-Prematuri",
    "address": "Bulevardul 1848 24",
    "city": "Târgu Mureș",
    "state": "",
    "zip": 540052,
    "county": "",
    "phone": -237244,
    "type": "",
    "ownership": "",
    "emergency": "",
    "quality": "",
    "LAT": 46.5327565,
    "LON": 24.5578442
  },
  "61": {
    "id": 10061,
    "name": "Clinica de Neurochirurgie",
    "address": "",
    "city": "Cluj-Napoca",
    "state": "Cluj",
    "zip": 400349,
    "county": "",
    "phone": "",
    "type": "",
    "ownership": "",
    "emergency": "Yes",
    "quality": "",
    "LAT": 46.762083,
    "LON": 23.584948
  },
  "62": {
    "id": 10062,
    "name": "Clinica de Neurologie",
    "address": "",
    "city": "Cluj-Napoca",
    "state": "Cluj",
    "zip": 400349,
    "county": "",
    "phone": "",
    "type": "",
    "ownership": "",
    "emergency": "Yes",
    "quality": "",
    "LAT": 46.7626379,
    "LON": 23.5845725
  },
  "63": {
    "id": 10063,
    "name": "Clinica de Neurologie - Psihiatrie - Neurochirurgie",
    "address": "Strada Profesor Gheorghe Marinescu 43",
    "city": "Cluj-Napoca",
    "state": "Cluj",
    "zip": 400349,
    "county": "",
    "phone": "",
    "type": "",
    "ownership": "",
    "emergency": "Yes",
    "quality": "",
    "LAT": 46.7632148,
    "LON": 23.5845951
  },
  "64": {
    "id": 10064,
    "name": "Clinica de Neuropsihiatrie",
    "address": "Aleea Potelu 24",
    "city": "Craiova",
    "state": "Dolj",
    "zip": 200319,
    "county": "",
    "phone": "",
    "type": "",
    "ownership": "",
    "emergency": "",
    "quality": "",
    "LAT": 44.2959654,
    "LON": 23.8053568
  },
  "65": {
    "id": 10065,
    "name": "Clinica de Neuropsihiatrie Pediatrică",
    "address": "Pasajul Panseluțelor 5",
    "city": "Târgu Mureș",
    "state": "",
    "zip": 540052,
    "county": "",
    "phone": -264613,
    "type": "",
    "ownership": "",
    "emergency": "",
    "quality": "",
    "LAT": 46.5369554,
    "LON": 24.5646547
  },
  "66": {
    "id": 10066,
    "name": "Clinica de Obstetrică-Ginecologie",
    "address": "",
    "city": "Târgu Mureș",
    "state": "",
    "zip": 540052,
    "county": "",
    "phone": "",
    "type": "",
    "ownership": "",
    "emergency": "",
    "quality": "",
    "LAT": 46.5417803,
    "LON": 24.5603316
  },
  "67": {
    "id": 10067,
    "name": "Clinica de Oftalmologie",
    "address": "",
    "city": "Târgu Mureș",
    "state": "",
    "zip": 540052,
    "county": "",
    "phone": "",
    "type": "",
    "ownership": "",
    "emergency": "",
    "quality": "",
    "LAT": 46.5412439,
    "LON": 24.5610602
  },
  "69": {
    "id": 10069,
    "name": "Clinica de Oncologie",
    "address": "",
    "city": "Târgu Mureș",
    "state": "",
    "zip": 540052,
    "county": "",
    "phone": "",
    "type": "",
    "ownership": "",
    "emergency": "",
    "quality": "",
    "LAT": 46.5531242,
    "LON": 24.5769675
  },
  "70": {
    "id": 10070,
    "name": "Clinica de Oncologie Medicală - Clinca Radiologică",
    "address": "Strada Clinicilor nan",
    "city": "Cluj-Napoca",
    "state": "Cluj",
    "zip": 400006,
    "county": "",
    "phone": "",
    "type": "",
    "ownership": "",
    "emergency": "",
    "quality": "",
    "LAT": 46.7659234,
    "LON": 23.5845597
  },
  "71": {
    "id": 10071,
    "name": "Clinica de Ortopedie-Traumatologie",
    "address": "",
    "city": "Târgu Mureș",
    "state": "",
    "zip": 540052,
    "county": "",
    "phone": -213945,
    "type": "",
    "ownership": "",
    "emergency": "",
    "quality": "",
    "LAT": 46.5519382,
    "LON": 24.5739234
  },
  "72": {
    "id": 10072,
    "name": "Clinica de Pediatrie",
    "address": "",
    "city": "Târgu Mureș",
    "state": "",
    "zip": 540052,
    "county": "",
    "phone": "",
    "type": "",
    "ownership": "",
    "emergency": "",
    "quality": "",
    "LAT": 46.5552566,
    "LON": 24.5826312
  },
  "74": {
    "id": 10074,
    "name": "Clinica de Pneumoftizologie",
    "address": "",
    "city": "Sfântu Gheorghe",
    "state": "Covasna",
    "zip": 520085,
    "county": "",
    "phone": "",
    "type": "",
    "ownership": "",
    "emergency": "",
    "quality": "",
    "LAT": 45.8634711,
    "LON": 25.7828596
  },
  "75": {
    "id": 10075,
    "name": "Clinica de Pneumologie",
    "address": "",
    "city": "Târgu Mureș",
    "state": "",
    "zip": 540052,
    "county": "",
    "phone": "",
    "type": "",
    "ownership": "",
    "emergency": "",
    "quality": "",
    "LAT": 46.5536056,
    "LON": 24.5774755
  },
  "76": {
    "id": 10076,
    "name": "Clinica de Psihiatrie",
    "address": "",
    "city": "Târgu Mureș",
    "state": "",
    "zip": 540052,
    "county": "",
    "phone": "",
    "type": "",
    "ownership": "",
    "emergency": "",
    "quality": "",
    "LAT": 46.5563383,
    "LON": 24.5842211
  },
  "78": {
    "id": 10078,
    "name": "Călărași Hospital",
    "address": "",
    "city": "Călărași",
    "state": "",
    "zip": 910014,
    "county": "",
    "phone": "",
    "type": "",
    "ownership": "",
    "emergency": "",
    "quality": "",
    "LAT": 44.1925241,
    "LON": 27.3270629
  },
  "79": {
    "id": 10079,
    "name": "DentiRAD",
    "address": "",
    "city": "Plopeni",
    "state": "Prahova",
    "zip": 105900,
    "county": "",
    "phone": "",
    "type": "",
    "ownership": "",
    "emergency": "No",
    "quality": "",
    "LAT": 45.0455274,
    "LON": 25.9523511
  },
  "80": {
    "id": 10080,
    "name": "Dentist Iasi",
    "address": "Strada Sfântul Andrei 6C",
    "city": "Iași",
    "state": "",
    "zip": 700028,
    "county": "",
    "phone": "",
    "type": "",
    "ownership": "",
    "emergency": "Yes",
    "quality": "",
    "LAT": 47.1553625,
    "LON": 27.5838468
  },
  "81": {
    "id": 10081,
    "name": "Dermato-Venerice",
    "address": "",
    "city": "Ploiești",
    "state": "Prahova",
    "zip": 100028,
    "county": "",
    "phone": "",
    "type": "",
    "ownership": "",
    "emergency": "",
    "quality": "",
    "LAT": 44.9457654,
    "LON": 26.0389381
  },
  "82": {
    "id": 10082,
    "name": "Dispensar",
    "address": "",
    "city": "Poiana Sibiului",
    "state": "Sibiu",
    "zip": 557180,
    "county": "",
    "phone": "",
    "type": "",
    "ownership": "",
    "emergency": "",
    "quality": "",
    "LAT": 45.8089373,
    "LON": 23.7275007
  },
  "86": {
    "id": 10086,
    "name": "Dispensar Baia de Criș",
    "address": "",
    "city": "Baia de Criș",
    "state": "Hunedoara",
    "zip": 337005,
    "county": "",
    "phone": "",
    "type": "",
    "ownership": "",
    "emergency": "No",
    "quality": "",
    "LAT": 46.1748127,
    "LON": 22.7157663
  },
  "87": {
    "id": 10087,
    "name": "Dispensar Gheorghieni",
    "address": "",
    "city": "Cluj-Napoca",
    "state": "Cluj",
    "zip": 400438,
    "county": "",
    "phone": "",
    "type": "",
    "ownership": "",
    "emergency": "No",
    "quality": "",
    "LAT": 46.7663231,
    "LON": 23.6239644
  },
  "88": {
    "id": 10088,
    "name": "Dispensar Hoceni",
    "address": "",
    "city": "Hoceni",
    "state": "Vaslui",
    "zip": 737285,
    "county": "",
    "phone": "",
    "type": "",
    "ownership": "",
    "emergency": "No",
    "quality": "",
    "LAT": 46.5382419,
    "LON": 28.0110694
  },
  "89": {
    "id": 10089,
    "name": "Dispensar Magurele",
    "address": "",
    "city": "Măgurele",
    "state": "Ilfov",
    "zip": 77125,
    "county": "",
    "phone": "",
    "type": "",
    "ownership": "",
    "emergency": "",
    "quality": "",
    "LAT": 44.3503063,
    "LON": 26.0296072
  },
  "90": {
    "id": 10090,
    "name": "Dispensar TBC",
    "address": "Bulevardul Alexandru Lăpușneanu 167",
    "city": "Constanța",
    "state": "",
    "zip": 900412,
    "county": "",
    "phone": "",
    "type": "",
    "ownership": "",
    "emergency": "",
    "quality": "",
    "LAT": 44.2011891,
    "LON": 28.629858
  },
  "91": {
    "id": 10091,
    "name": "Dispensar medic de familie",
    "address": "",
    "city": "Duda-Epureni",
    "state": "Vaslui",
    "zip": 737233,
    "county": "",
    "phone": "",
    "type": "",
    "ownership": "",
    "emergency": "No",
    "quality": "",
    "LAT": 46.7060853,
    "LON": 28.0388752
  },
  "92": {
    "id": 10092,
    "name": "Dispensarul Brezoi",
    "address": "Strada Panduri nan",
    "city": "Brezoi",
    "state": "Vâlcea",
    "zip": 245500,
    "county": "",
    "phone": "",
    "type": "",
    "ownership": "",
    "emergency": "",
    "quality": "",
    "LAT": 45.343649,
    "LON": 24.2396852
  },
  "93": {
    "id": 10093,
    "name": "Dispensarul Comunal",
    "address": "",
    "city": "Movilița",
    "state": "Vrancea",
    "zip": 627210,
    "county": "",
    "phone": "",
    "type": "",
    "ownership": "",
    "emergency": "",
    "quality": "",
    "LAT": 45.9567713,
    "LON": 27.1036214
  },
  "94": {
    "id": 10094,
    "name": "Dispensarul Uman Malaia",
    "address": "",
    "city": "Malaia",
    "state": "Vâlcea",
    "zip": 247335,
    "county": "",
    "phone": "",
    "type": "",
    "ownership": "",
    "emergency": "",
    "quality": "",
    "LAT": 45.3519346,
    "LON": 24.0422213
  },
  "95": {
    "id": 10095,
    "name": "Dispensarul medical Părău",
    "address": "",
    "city": "Părău",
    "state": "",
    "zip": 507155,
    "county": "",
    "phone": "",
    "type": "",
    "ownership": "",
    "emergency": "",
    "quality": "",
    "LAT": 45.8488122,
    "LON": 25.191747
  },
  "96": {
    "id": 10096,
    "name": "Dispensarul uman Vașcău",
    "address": "",
    "city": "Vașcău",
    "state": "Bihor",
    "zip": 415800,
    "county": "",
    "phone": "",
    "type": "",
    "ownership": "",
    "emergency": "No",
    "quality": "",
    "LAT": 46.4760113,
    "LON": 22.4722552
  },
  "97": {
    "id": 10097,
    "name": "Endocrinologie",
    "address": "",
    "city": "Sibiu",
    "state": "Sibiu",
    "zip": 550009,
    "county": "",
    "phone": "",
    "type": "",
    "ownership": "",
    "emergency": "",
    "quality": "",
    "LAT": 45.7951528,
    "LON": 24.1573831
  },
  "98": {
    "id": 10098,
    "name": "Euromaterna",
    "address": "Strada Ștefăniță Vodă 32",
    "city": "Constanța",
    "state": "",
    "zip": 900508,
    "county": "",
    "phone": "",
    "type": "",
    "ownership": "",
    "emergency": "",
    "quality": "",
    "LAT": 44.2015852,
    "LON": 28.6137831
  },
  "99": {
    "id": 10099,
    "name": "Farmacia Hoceni",
    "address": "",
    "city": "Hoceni",
    "state": "Vaslui",
    "zip": 737285,
    "county": "",
    "phone": "",
    "type": "",
    "ownership": "",
    "emergency": "No",
    "quality": "",
    "LAT": 46.5371525,
    "LON": 28.0114169
  },
  "100": {
    "id": 10100,
    "name": "Fost spital de copii",
    "address": "",
    "city": "Brăila",
    "state": "Brăila",
    "zip": 810003,
    "county": "",
    "phone": "",
    "type": "",
    "ownership": "",
    "emergency": "",
    "quality": "",
    "LAT": 45.2689105,
    "LON": 27.9738573
  },
  "101": {
    "id": 10101,
    "name": "Fostă Policlinică Petrila",
    "address": "",
    "city": "Petrila",
    "state": "Hunedoara",
    "zip": 335800,
    "county": "",
    "phone": "",
    "type": "",
    "ownership": "",
    "emergency": "",
    "quality": "",
    "LAT": 45.4434508,
    "LON": 23.3784077
  },
  "102": {
    "id": 10102,
    "name": "Hiperdia",
    "address": "",
    "city": "București",
    "state": "",
    "zip": 23571,
    "county": "",
    "phone": "",
    "type": "",
    "ownership": "",
    "emergency": "",
    "quality": "",
    "LAT": 44.4446511,
    "LON": 26.1343187
  },
  "103": {
    "id": 10103,
    "name": "INHT C.T Nicolau",
    "address": "",
    "city": "București",
    "state": "",
    "zip": 11035,
    "county": "",
    "phone": "",
    "type": "",
    "ownership": "",
    "emergency": "",
    "quality": "",
    "LAT": 44.45407,
    "LON": 26.0796395
  },
  "104": {
    "id": 10104,
    "name": "Infecțioase",
    "address": "",
    "city": "Onești",
    "state": "Bacău",
    "zip": 601048,
    "county": "",
    "phone": "",
    "type": "",
    "ownership": "",
    "emergency": "",
    "quality": "",
    "LAT": 46.2543377,
    "LON": 26.7634806
  },
  "105": {
    "id": 10105,
    "name": "Institutul Clinic Fundeni (Clădirea A)",
    "address": "Șoseaua Fundeni 258",
    "city": "București",
    "state": "",
    "zip": 23571,
    "county": "",
    "phone": "",
    "type": "",
    "ownership": "",
    "emergency": "",
    "quality": "",
    "LAT": 44.4655248,
    "LON": 26.1560941
  },
  "106": {
    "id": 10106,
    "name": "Institutul Național de Boli Infecțioase \"Profesor Doctor Matei Balș",
    "address": "",
    "city": "București",
    "state": "",
    "zip": 23571,
    "county": "",
    "phone": "",
    "type": "",
    "ownership": "",
    "emergency": "",
    "quality": "",
    "LAT": 44.4546577,
    "LON": 26.1154528
  },
  "107": {
    "id": 10107,
    "name": "Institutul Național de Expertiză Medicală și Recuperare a Capacității de Muncă",
    "address": "",
    "city": "București",
    "state": "",
    "zip": 51521,
    "county": "",
    "phone": "",
    "type": "",
    "ownership": "",
    "emergency": "",
    "quality": "",
    "LAT": 44.4251286,
    "LON": 26.0713636
  },
  "108": {
    "id": 10108,
    "name": "Institutul Național de Gerontologie Ana Aslan - Otopeni",
    "address": "",
    "city": "Otopeni",
    "state": "Ilfov",
    "zip": 75100,
    "county": "",
    "phone": "",
    "type": "",
    "ownership": "",
    "emergency": "",
    "quality": "",
    "LAT": 44.5794066,
    "LON": 26.0619604
  },
  "109": {
    "id": 10109,
    "name": "Institutul Oncologic Prof. Dr. Ion Chiricuță",
    "address": "",
    "city": "Cluj-Napoca",
    "state": "Cluj",
    "zip": 400015,
    "county": "",
    "phone": "",
    "type": "",
    "ownership": "",
    "emergency": "",
    "quality": "",
    "LAT": 46.7630684,
    "LON": 23.5882087
  },
  "110": {
    "id": 10110,
    "name": "Institutul Regional de Oncologie",
    "address": "",
    "city": "Iași",
    "state": "",
    "zip": 700107,
    "county": "",
    "phone": "",
    "type": "",
    "ownership": "",
    "emergency": "",
    "quality": "",
    "LAT": 47.1755234,
    "LON": 27.5767317
  },
  "111": {
    "id": 10111,
    "name": "Institutul de Boli Cardiovasculare",
    "address": "Strada Gheorghe Adam 13 A",
    "city": "Timișoara",
    "state": "",
    "zip": 300002,
    "county": "",
    "phone": "",
    "type": "",
    "ownership": "",
    "emergency": "Yes",
    "quality": "",
    "LAT": 45.7687422,
    "LON": 21.25782
  },
  "112": {
    "id": 10112,
    "name": "Institutul de Endocrinologie \"C I Parhon",
    "address": "",
    "city": "București",
    "state": "",
    "zip": 11883,
    "county": "",
    "phone": "",
    "type": "",
    "ownership": "",
    "emergency": "",
    "quality": "",
    "LAT": 44.4601264,
    "LON": 26.0883119
  },
  "113": {
    "id": 10113,
    "name": "Institutul de Fonoaudiologie și Chirurgie Funcțională ORL Profesor Doctor Dorin Hociotă",
    "address": "Strada Mihail Cioranu 21",
    "city": "București",
    "state": "",
    "zip": 51521,
    "county": "",
    "phone": "",
    "type": "",
    "ownership": "",
    "emergency": "",
    "quality": "",
    "LAT": 44.4258643,
    "LON": 26.0740922
  },
  "114": {
    "id": 10114,
    "name": "Institutul de Virusologie „Ștefan S. Nicolau”",
    "address": "",
    "city": "București",
    "state": "",
    "zip": 30171,
    "county": "",
    "phone": "",
    "type": "",
    "ownership": "",
    "emergency": "",
    "quality": "",
    "LAT": 44.4246341,
    "LON": 26.1383162
  },
  "115": {
    "id": 10115,
    "name": "Institutul de diabet Paulescu",
    "address": "",
    "city": "București",
    "state": "",
    "zip": 11234,
    "county": "",
    "phone": "",
    "type": "",
    "ownership": "",
    "emergency": "",
    "quality": "",
    "LAT": 44.4561292,
    "LON": 26.0765705
  },
  "116": {
    "id": 10116,
    "name": "Isis Hospital",
    "address": "Strada Mircea cel Bătrân 102",
    "city": "Constanța",
    "state": "",
    "zip": 900663,
    "county": "",
    "phone": "+40341 46 33 44, +40747 474747",
    "type": "",
    "ownership": "",
    "emergency": "",
    "quality": "",
    "LAT": 44.1823227,
    "LON": 28.6508539
  },
  "117": {
    "id": 10117,
    "name": "Laborator de Medicină Nucleară",
    "address": "",
    "city": "Cluj-Napoca",
    "state": "Cluj",
    "zip": 400006,
    "county": "",
    "phone": "",
    "type": "",
    "ownership": "",
    "emergency": "",
    "quality": "",
    "LAT": 46.7657547,
    "LON": 23.5844424
  },
  "118": {
    "id": 10118,
    "name": "Maternitate",
    "address": "",
    "city": "Făgăraș",
    "state": "",
    "zip": 505200,
    "county": "",
    "phone": "",
    "type": "",
    "ownership": "",
    "emergency": "",
    "quality": "",
    "LAT": 45.8416033,
    "LON": 24.9590052
  },
  "120": {
    "id": 10120,
    "name": "Maternitatea",
    "address": "",
    "city": "Beiuș",
    "state": "Bihor",
    "zip": 415200,
    "county": "",
    "phone": "",
    "type": "",
    "ownership": "",
    "emergency": "",
    "quality": "",
    "LAT": 46.6630003,
    "LON": 22.3504178
  },
  "121": {
    "id": 10121,
    "name": "Maternitatea Buzău",
    "address": "Strada Victoriei nan",
    "city": "Buzău",
    "state": "Buzău",
    "zip": 120209,
    "county": "",
    "phone": "",
    "type": "",
    "ownership": "",
    "emergency": "",
    "quality": "",
    "LAT": 45.1490544,
    "LON": 26.8270975
  },
  "123": {
    "id": 10123,
    "name": "Maternitatea Elena Doamna",
    "address": "",
    "city": "Iași",
    "state": "",
    "zip": 700401,
    "county": "",
    "phone": "",
    "type": "",
    "ownership": "",
    "emergency": "",
    "quality": "",
    "LAT": 47.1611199,
    "LON": 27.5981399
  },
  "124": {
    "id": 10124,
    "name": "MediUrg",
    "address": "",
    "city": "Ploiești",
    "state": "Prahova",
    "zip": 100028,
    "county": "",
    "phone": "",
    "type": "",
    "ownership": "",
    "emergency": "",
    "quality": "",
    "LAT": 44.9341378,
    "LON": 26.0269401
  },
  "125": {
    "id": 10125,
    "name": "Medicavol",
    "address": "Bulevardul Dunării nan",
    "city": "Voluntari",
    "state": "Ilfov",
    "zip": 77190,
    "county": "",
    "phone": "",
    "type": "",
    "ownership": "",
    "emergency": "",
    "quality": "",
    "LAT": 44.4946382,
    "LON": 26.1868321
  },
  "126": {
    "id": 10126,
    "name": "Medicină Legală",
    "address": "Strada Clinicilor nan",
    "city": "Cluj-Napoca",
    "state": "Cluj",
    "zip": 400006,
    "county": "",
    "phone": "",
    "type": "",
    "ownership": "",
    "emergency": "No",
    "quality": "",
    "LAT": 46.7648578,
    "LON": 23.5819354
  },
  "127": {
    "id": 10127,
    "name": "Metropolitan Hospital",
    "address": "Calea Șerban Vodă nan",
    "city": "București",
    "state": "",
    "zip": 40204,
    "county": "",
    "phone": "",
    "type": "",
    "ownership": "",
    "emergency": "",
    "quality": "",
    "LAT": 44.4189089,
    "LON": 26.1022529
  },
  "128": {
    "id": 10128,
    "name": "Muntenia Hospital",
    "address": "Strada Pictor Nicolae Grigorescu 2A",
    "city": "Pitești",
    "state": "",
    "zip": 110117,
    "county": "",
    "phone": "",
    "type": "",
    "ownership": "",
    "emergency": "Yes",
    "quality": "",
    "LAT": 44.8622335,
    "LON": 24.8700998
  },
  "129": {
    "id": 10129,
    "name": "Nova Vita",
    "address": "Strada Liviu Rebreanu 29A",
    "city": "Târgu Mureș",
    "state": "",
    "zip": 540052,
    "county": "",
    "phone": "+40 265 266 112, +40 365 430 330",
    "type": "",
    "ownership": "",
    "emergency": "Yes",
    "quality": "",
    "LAT": 46.5367392,
    "LON": 24.5536056
  },
  "130": {
    "id": 10130,
    "name": "Oftapro",
    "address": "Bulevardul Mărășești 15",
    "city": "București",
    "state": "",
    "zip": 40251,
    "county": "",
    "phone": "",
    "type": "",
    "ownership": "",
    "emergency": "",
    "quality": "",
    "LAT": 44.4191315,
    "LON": 26.0966702
  },
  "131": {
    "id": 10131,
    "name": "Pavilionul II",
    "address": "Aleea Dealul Spirii 12",
    "city": "Brașov",
    "state": "",
    "zip": 500030,
    "county": "",
    "phone": "",
    "type": "",
    "ownership": "",
    "emergency": "",
    "quality": "",
    "LAT": 45.6435772,
    "LON": 25.5730387
  },
  "132": {
    "id": 10132,
    "name": "Pavilionul III",
    "address": "Aleea Dealul Spirii 12",
    "city": "Brașov",
    "state": "",
    "zip": 500030,
    "county": "",
    "phone": "",
    "type": "",
    "ownership": "",
    "emergency": "",
    "quality": "",
    "LAT": 45.6444023,
    "LON": 25.5739821
  },
  "133": {
    "id": 10133,
    "name": "Pavilionul V",
    "address": "Strada Gusztav Kollar 4",
    "city": "Brașov",
    "state": "",
    "zip": 500030,
    "county": "",
    "phone": "",
    "type": "",
    "ownership": "",
    "emergency": "",
    "quality": "",
    "LAT": 45.6445817,
    "LON": 25.5760502
  },
  "134": {
    "id": 10134,
    "name": "Pavilionul VI",
    "address": "Strada Gusztav Kollar 4",
    "city": "Brașov",
    "state": "",
    "zip": 500030,
    "county": "",
    "phone": "",
    "type": "",
    "ownership": "",
    "emergency": "",
    "quality": "",
    "LAT": 45.6442395,
    "LON": 25.5759018
  },
  "135": {
    "id": 10135,
    "name": "Pediatrie II + Urgențe",
    "address": "",
    "city": "Cluj-Napoca",
    "state": "Cluj",
    "zip": 400029,
    "county": "",
    "phone": "",
    "type": "",
    "ownership": "",
    "emergency": "",
    "quality": "",
    "LAT": 46.7672098,
    "LON": 23.5774111
  },
  "136": {
    "id": 10136,
    "name": "Pediatrie III",
    "address": "",
    "city": "Cluj-Napoca",
    "state": "Cluj",
    "zip": 400217,
    "county": "",
    "phone": "",
    "type": "",
    "ownership": "",
    "emergency": "",
    "quality": "",
    "LAT": 46.7809275,
    "LON": 23.5858886
  },
  "137": {
    "id": 10137,
    "name": "Policlinic Bethesda",
    "address": "",
    "city": "Suceava",
    "state": "Suceava",
    "zip": "",
    "county": "",
    "phone": "",
    "type": "",
    "ownership": "",
    "emergency": "",
    "quality": "",
    "LAT": 47.6651908,
    "LON": 26.2693389
  },
  "138": {
    "id": 10138,
    "name": "Policlinica",
    "address": "",
    "city": "Gherla",
    "state": "Cluj",
    "zip": 405300,
    "county": "",
    "phone": "",
    "type": "",
    "ownership": "",
    "emergency": "",
    "quality": "",
    "LAT": 47.0250571,
    "LON": 23.9034026
  },
  "140": {
    "id": 10140,
    "name": "Policlinica \"Paltinul",
    "address": "Strada Luptei 21",
    "city": "Sibiu",
    "state": "Sibiu",
    "zip": 550009,
    "county": "",
    "phone": "",
    "type": "",
    "ownership": "",
    "emergency": "",
    "quality": "",
    "LAT": 45.7810472,
    "LON": 24.1594696
  },
  "141": {
    "id": 10141,
    "name": "Policlinica 1",
    "address": "",
    "city": "Târgoviște",
    "state": "",
    "zip": 130007,
    "county": "",
    "phone": "",
    "type": "",
    "ownership": "",
    "emergency": "",
    "quality": "",
    "LAT": 44.9269323,
    "LON": 25.4563205
  },
  "142": {
    "id": 10142,
    "name": "Policlinica 2",
    "address": "",
    "city": "Călărași",
    "state": "",
    "zip": 910014,
    "county": "",
    "phone": "",
    "type": "",
    "ownership": "",
    "emergency": "",
    "quality": "",
    "LAT": 44.2074367,
    "LON": 27.3166831
  },
  "143": {
    "id": 10143,
    "name": "Policlinica Aiud",
    "address": "",
    "city": "Aiud",
    "state": "Alba",
    "zip": 515200,
    "county": "",
    "phone": "",
    "type": "",
    "ownership": "",
    "emergency": "",
    "quality": "",
    "LAT": 46.3077152,
    "LON": 23.7229194
  },
  "144": {
    "id": 10144,
    "name": "Policlinica Balș",
    "address": "",
    "city": "Balș",
    "state": "Olt",
    "zip": 235100,
    "county": "",
    "phone": "",
    "type": "",
    "ownership": "",
    "emergency": "",
    "quality": "",
    "LAT": 44.3475093,
    "LON": 24.1144311
  },
  "145": {
    "id": 10145,
    "name": "Policlinica Bethesda",
    "address": "",
    "city": "Suceava",
    "state": "Suceava",
    "zip": "",
    "county": "",
    "phone": "",
    "type": "",
    "ownership": "",
    "emergency": "",
    "quality": "",
    "LAT": 47.6624283,
    "LON": 26.2651271
  },
  "146": {
    "id": 10146,
    "name": "Policlinica C.F.R.",
    "address": "Bulevardul General Dragalina 49",
    "city": "Timișoara",
    "state": "",
    "zip": 300002,
    "county": "",
    "phone": "",
    "type": "",
    "ownership": "",
    "emergency": "",
    "quality": "",
    "LAT": 45.7502327,
    "LON": 21.2074844
  },
  "147": {
    "id": 10147,
    "name": "Policlinica CFR",
    "address": "",
    "city": "Sibiu",
    "state": "Sibiu",
    "zip": 550009,
    "county": "",
    "phone": "",
    "type": "",
    "ownership": "",
    "emergency": "",
    "quality": "",
    "LAT": 45.7920592,
    "LON": 24.1573282
  },
  "149": {
    "id": 10149,
    "name": "Policlinica CINA",
    "address": "Strada Andrei Mureșanu nan",
    "city": "Ploiești",
    "state": "Prahova",
    "zip": 100028,
    "county": "",
    "phone": "",
    "type": "",
    "ownership": "",
    "emergency": "",
    "quality": "",
    "LAT": 44.9526017,
    "LON": 26.0113091
  },
  "150": {
    "id": 10150,
    "name": "Policlinica Carei",
    "address": "",
    "city": "Carei",
    "state": "Satu Mare",
    "zip": 445100,
    "county": "",
    "phone": "",
    "type": "",
    "ownership": "",
    "emergency": "",
    "quality": "",
    "LAT": 47.6812658,
    "LON": 22.4652152
  },
  "153": {
    "id": 10153,
    "name": "Policlinica Câmpina",
    "address": "Bulevardul Carol I 117",
    "city": "Câmpina",
    "state": "Prahova",
    "zip": 105600,
    "county": "",
    "phone": "",
    "type": "",
    "ownership": "",
    "emergency": "No",
    "quality": "",
    "LAT": 45.1278899,
    "LON": 25.7324802
  },
  "154": {
    "id": 10154,
    "name": "Policlinica Hipodrom",
    "address": "",
    "city": "Brăila",
    "state": "Brăila",
    "zip": 810262,
    "county": "",
    "phone": "",
    "type": "",
    "ownership": "",
    "emergency": "",
    "quality": "",
    "LAT": 45.2602392,
    "LON": 27.9528285
  },
  "155": {
    "id": 10155,
    "name": "Policlinica Mangalia",
    "address": "",
    "city": "Mangalia",
    "state": "",
    "zip": 905500,
    "county": "",
    "phone": "",
    "type": "",
    "ownership": "",
    "emergency": "No",
    "quality": "",
    "LAT": 43.8090167,
    "LON": 28.5819623
  },
  "156": {
    "id": 10156,
    "name": "Policlinica Motru",
    "address": "",
    "city": "Motru",
    "state": "Gorj",
    "zip": 215200,
    "county": "",
    "phone": "",
    "type": "",
    "ownership": "",
    "emergency": "",
    "quality": "",
    "LAT": 44.8026107,
    "LON": 22.9731932
  },
  "157": {
    "id": 10157,
    "name": "Policlinica Municipală",
    "address": "",
    "city": "Drobeta-Turnu Severin",
    "state": "",
    "zip": 220006,
    "county": "",
    "phone": "",
    "type": "",
    "ownership": "",
    "emergency": "",
    "quality": "",
    "LAT": 44.6301271,
    "LON": 22.6372053
  },
  "158": {
    "id": 10158,
    "name": "Policlinica PRAGA",
    "address": "Strada Praga nan",
    "city": "Ploiești",
    "state": "Prahova",
    "zip": 100028,
    "county": "",
    "phone": "",
    "type": "",
    "ownership": "",
    "emergency": "",
    "quality": "",
    "LAT": 44.9424042,
    "LON": 26.0305604
  },
  "159": {
    "id": 10159,
    "name": "Policlinica Rahova",
    "address": "Strada Malcoci 4",
    "city": "București",
    "state": "",
    "zip": 51521,
    "county": "",
    "phone": "",
    "type": "",
    "ownership": "",
    "emergency": "",
    "quality": "",
    "LAT": 44.4094982,
    "LON": 26.0710199
  },
  "160": {
    "id": 10160,
    "name": "Policlinica Reghin",
    "address": "",
    "city": "Reghin",
    "state": "",
    "zip": 545300,
    "county": "",
    "phone": "",
    "type": "",
    "ownership": "",
    "emergency": "",
    "quality": "",
    "LAT": 46.7832162,
    "LON": 24.6952675
  },
  "161": {
    "id": 10161,
    "name": "Policlinica Shuller",
    "address": "",
    "city": "Ploiești",
    "state": "Prahova",
    "zip": 100028,
    "county": "",
    "phone": "",
    "type": "",
    "ownership": "",
    "emergency": "",
    "quality": "",
    "LAT": 44.9306849,
    "LON": 26.0206112
  },
  "162": {
    "id": 10162,
    "name": "Policlinica Spitalului Filantropia",
    "address": "Bulevardul Nicolae Titulescu 40",
    "city": "Craiova",
    "state": "Dolj",
    "zip": 200142,
    "county": "",
    "phone": "",
    "type": "",
    "ownership": "",
    "emergency": "",
    "quality": "",
    "LAT": 44.3254921,
    "LON": 23.7888216
  },
  "163": {
    "id": 10163,
    "name": "Policlinica Stomatologică",
    "address": "",
    "city": "Bârlad",
    "state": "Vaslui",
    "zip": 731005,
    "county": "",
    "phone": "",
    "type": "",
    "ownership": "",
    "emergency": "",
    "quality": "",
    "LAT": 46.2275572,
    "LON": 27.6654323
  },
  "164": {
    "id": 10164,
    "name": "Policlinica Studențească",
    "address": "Strada Memorandului nan",
    "city": "Brașov",
    "state": "",
    "zip": 500030,
    "county": "",
    "phone": "",
    "type": "",
    "ownership": "",
    "emergency": "",
    "quality": "",
    "LAT": 45.6558034,
    "LON": 25.5803102
  },
  "165": {
    "id": 10165,
    "name": "Policlinica Sănătatea",
    "address": "Strada Ștefan cel Mare 52",
    "city": "Timișoara",
    "state": "",
    "zip": 300002,
    "county": "",
    "phone": "",
    "type": "",
    "ownership": "",
    "emergency": "",
    "quality": "",
    "LAT": 45.7514433,
    "LON": 21.2515634
  },
  "166": {
    "id": 10166,
    "name": "Policlinica Târgoviște",
    "address": "",
    "city": "Târgoviște",
    "state": "",
    "zip": 130007,
    "county": "",
    "phone": "",
    "type": "",
    "ownership": "",
    "emergency": "",
    "quality": "",
    "LAT": 44.9222526,
    "LON": 25.4509094
  },
  "167": {
    "id": 10167,
    "name": "Policlinica nr. 2",
    "address": "Bulevardul 1 Decembrie 1918 28",
    "city": "Târgu Mureș",
    "state": "",
    "zip": 540052,
    "county": "",
    "phone": -263810,
    "type": "",
    "ownership": "",
    "emergency": "",
    "quality": "",
    "LAT": 46.5390465,
    "LON": 24.5611559
  },
  "168": {
    "id": 10168,
    "name": "Policlinica Ștei",
    "address": "",
    "city": "Ștei",
    "state": "Bihor",
    "zip": 415600,
    "county": "",
    "phone": "",
    "type": "",
    "ownership": "",
    "emergency": "",
    "quality": "",
    "LAT": 46.5407656,
    "LON": 22.4562329
  },
  "169": {
    "id": 10169,
    "name": "Policlinică stomatologică",
    "address": "",
    "city": "Brăila",
    "state": "Brăila",
    "zip": 810095,
    "county": "",
    "phone": "",
    "type": "",
    "ownership": "",
    "emergency": "No",
    "quality": "",
    "LAT": 45.287656,
    "LON": 27.9701797
  },
  "170": {
    "id": 10170,
    "name": "Polimed",
    "address": "Strada Tudor Vladimirescu 94 94",
    "city": "Podu Turcului",
    "state": "Bacău",
    "zip": 607450,
    "county": "",
    "phone": "0234 289 704",
    "type": "",
    "ownership": "",
    "emergency": "Yes",
    "quality": "",
    "LAT": 46.1999657,
    "LON": 27.3842543
  },
  "171": {
    "id": 10171,
    "name": "Polisano",
    "address": "",
    "city": "Sibiu",
    "state": "Sibiu",
    "zip": 550009,
    "county": "",
    "phone": "",
    "type": "",
    "ownership": "",
    "emergency": "",
    "quality": "",
    "LAT": 45.798215,
    "LON": 24.1568702
  },
  "172": {
    "id": 10172,
    "name": "Ponderas",
    "address": "",
    "city": "București",
    "state": "",
    "zip": 30171,
    "county": "",
    "phone": "",
    "type": "",
    "ownership": "",
    "emergency": "",
    "quality": "",
    "LAT": 44.4147645,
    "LON": 26.1336159
  },
  "173": {
    "id": 10173,
    "name": "Ponderas Regina Maria",
    "address": "Strada Nicolae G. Caramfil 85 A",
    "city": "București",
    "state": "",
    "zip": 14163,
    "county": "",
    "phone": "",
    "type": "",
    "ownership": "",
    "emergency": "Yes",
    "quality": "",
    "LAT": 44.4835284,
    "LON": 26.0910739
  },
  "174": {
    "id": 10174,
    "name": "ProfDIAGNOSIS",
    "address": "Strada Mihai Eminescu 11",
    "city": "Urziceni",
    "state": "",
    "zip": 925300,
    "county": "",
    "phone": "0243.257755; 0372.920755; 0727.711170; 0731.315407",
    "type": "",
    "ownership": "",
    "emergency": "No",
    "quality": "",
    "LAT": 44.7112287,
    "LON": 26.6378221
  },
  "175": {
    "id": 10175,
    "name": "Promedica",
    "address": "",
    "city": "Brăila",
    "state": "Brăila",
    "zip": 810210,
    "county": "",
    "phone": "",
    "type": "",
    "ownership": "",
    "emergency": "",
    "quality": "",
    "LAT": 45.2637096,
    "LON": 27.9704319
  },
  "176": {
    "id": 10176,
    "name": "SERVICIUL DE AMBULANTA BUCURESTI-ILFOV",
    "address": "Strada Mihai Eminescu 226",
    "city": "București",
    "state": "",
    "zip": 23571,
    "county": "",
    "phone": "",
    "type": "",
    "ownership": "",
    "emergency": "",
    "quality": "",
    "LAT": 44.4459059,
    "LON": 26.115935
  },
  "177": {
    "id": 10177,
    "name": "SPITALUL DE PEDIATRIE PLOIEȘTI",
    "address": "Strada Mihai Eminescu nan",
    "city": "Ploiești",
    "state": "Prahova",
    "zip": 100028,
    "county": "",
    "phone": "",
    "type": "",
    "ownership": "",
    "emergency": "Yes",
    "quality": "",
    "LAT": 44.9319507,
    "LON": 26.0261625
  },
  "178": {
    "id": 10178,
    "name": "SPITALUL JUDEȚEAN DE URGENȚĂ PLOIEȘTI",
    "address": "",
    "city": "Ploiești",
    "state": "Prahova",
    "zip": 100028,
    "county": "",
    "phone": "",
    "type": "",
    "ownership": "",
    "emergency": "Yes",
    "quality": "",
    "LAT": 44.9637639,
    "LON": 26.0099119
  },
  "179": {
    "id": 10179,
    "name": "Salvamont",
    "address": "",
    "city": "Toplița",
    "state": "Harghita",
    "zip": 535700,
    "county": "",
    "phone": "",
    "type": "",
    "ownership": "",
    "emergency": "Yes",
    "quality": "",
    "LAT": 46.9820012,
    "LON": 25.4067522
  },
  "180": {
    "id": 10180,
    "name": "Sanador - Spital",
    "address": "",
    "city": "București",
    "state": "",
    "zip": 10995,
    "county": "",
    "phone": "",
    "type": "",
    "ownership": "",
    "emergency": "",
    "quality": "",
    "LAT": 44.4498147,
    "LON": 26.0844341
  },
  "181": {
    "id": 10181,
    "name": "Sanatoriul Agigea",
    "address": "",
    "city": "Agigea",
    "state": "",
    "zip": 907015,
    "county": "",
    "phone": "",
    "type": "",
    "ownership": "",
    "emergency": "",
    "quality": "",
    "LAT": 44.1057102,
    "LON": 28.6370347
  },
  "182": {
    "id": 10182,
    "name": "Sanatoriul Moroeni",
    "address": "",
    "city": "Moroeni",
    "state": "",
    "zip": 137310,
    "county": "",
    "phone": "",
    "type": "",
    "ownership": "",
    "emergency": "",
    "quality": "",
    "LAT": 45.255792,
    "LON": 25.4319132
  },
  "183": {
    "id": 10183,
    "name": "Sanatoriul TBC Osteoarticular „Dr. V. Climescu”",
    "address": "",
    "city": "Agigea",
    "state": "",
    "zip": 907015,
    "county": "",
    "phone": "",
    "type": "",
    "ownership": "",
    "emergency": "",
    "quality": "",
    "LAT": 44.0909785,
    "LON": 28.640392
  },
  "184": {
    "id": 10184,
    "name": "Sanatoriul de Nevroze",
    "address": "Valea Râșnoavei 8",
    "city": "Predeal",
    "state": "",
    "zip": 505300,
    "county": "",
    "phone": "",
    "type": "",
    "ownership": "",
    "emergency": "",
    "quality": "",
    "LAT": 45.4939429,
    "LON": 25.5435761
  },
  "185": {
    "id": 10185,
    "name": "Sanatoriul de neuropsihiatrie Podriga",
    "address": "",
    "city": "Drăgușeni",
    "state": "",
    "zip": 717141,
    "county": "",
    "phone": "",
    "type": "",
    "ownership": "",
    "emergency": "",
    "quality": "",
    "LAT": 48.0037823,
    "LON": 26.8283091
  },
  "186": {
    "id": 10186,
    "name": "Sanepid",
    "address": "Bulevardul Carpați nan",
    "city": "Corabia",
    "state": "Olt",
    "zip": 235300,
    "county": "",
    "phone": "",
    "type": "",
    "ownership": "",
    "emergency": "",
    "quality": "",
    "LAT": 43.7726052,
    "LON": 24.4938916
  },
  "187": {
    "id": 10187,
    "name": "Secția Clinică a II-a de Pneumoftiziologie Pașcanu",
    "address": "",
    "city": "Iași",
    "state": "",
    "zip": 700373,
    "county": "",
    "phone": "",
    "type": "",
    "ownership": "",
    "emergency": "",
    "quality": "",
    "LAT": 47.1684752,
    "LON": 27.6028082
  },
  "188": {
    "id": 10188,
    "name": "Secția Nifon",
    "address": "",
    "city": "Măgura",
    "state": "Buzău",
    "zip": 127320,
    "county": "",
    "phone": "",
    "type": "",
    "ownership": "",
    "emergency": "",
    "quality": "",
    "LAT": 45.2640716,
    "LON": 26.5536633
  },
  "189": {
    "id": 10189,
    "name": "Secția Pediatrie",
    "address": "",
    "city": "Deva",
    "state": "Hunedoara",
    "zip": 330088,
    "county": "",
    "phone": "",
    "type": "",
    "ownership": "",
    "emergency": "",
    "quality": "",
    "LAT": 45.8766249,
    "LON": 22.9059478
  },
  "190": {
    "id": 10190,
    "name": "Secția balneo fizioterapie recuperare medicală a Spitalului Județean",
    "address": "",
    "city": "Drobeta-Turnu Severin",
    "state": "",
    "zip": 220154,
    "county": "",
    "phone": "",
    "type": "",
    "ownership": "",
    "emergency": "",
    "quality": "",
    "LAT": 44.6253164,
    "LON": 22.6630975
  },
  "191": {
    "id": 10191,
    "name": "Secția de recuperare pediatrică",
    "address": "",
    "city": "Timișoara",
    "state": "",
    "zip": 300002,
    "county": "",
    "phone": "",
    "type": "",
    "ownership": "",
    "emergency": "",
    "quality": "",
    "LAT": 45.7618355,
    "LON": 21.2163911
  },
  "192": {
    "id": 10192,
    "name": "Secția obstetrică ginecologie a spitalului municipal",
    "address": "",
    "city": "Vatra Dornei",
    "state": "Suceava",
    "zip": 725700,
    "county": "",
    "phone": "",
    "type": "",
    "ownership": "",
    "emergency": "",
    "quality": "",
    "LAT": 47.3474109,
    "LON": 25.3590689
  },
  "193": {
    "id": 10193,
    "name": "Secția pneumoftiziologie TBC a Spitalului Județean",
    "address": "",
    "city": "Drobeta-Turnu Severin",
    "state": "",
    "zip": 220099,
    "county": "",
    "phone": "",
    "type": "",
    "ownership": "",
    "emergency": "",
    "quality": "",
    "LAT": 44.6249812,
    "LON": 22.6416235
  },
  "194": {
    "id": 10194,
    "name": "Servicii Geriatrie și Asistență Medicală ”Sf. Sava și Teodosie cel Mare”",
    "address": "Strada Cozieni 2",
    "city": "Pantelimon",
    "state": "Ilfov",
    "zip": 77145,
    "county": "",
    "phone": "",
    "type": "",
    "ownership": "",
    "emergency": "",
    "quality": "",
    "LAT": 44.4575559,
    "LON": 26.2814878
  },
  "195": {
    "id": 10195,
    "name": "Serviciul Ambulanță",
    "address": "",
    "city": "Brăila",
    "state": "Brăila",
    "zip": 810261,
    "county": "",
    "phone": "",
    "type": "",
    "ownership": "",
    "emergency": "",
    "quality": "",
    "LAT": 45.259437,
    "LON": 27.9507099
  },
  "196": {
    "id": 10196,
    "name": "Serviciul Județean de Ambulanță Sibiu",
    "address": "",
    "city": "Sibiu",
    "state": "Sibiu",
    "zip": 550009,
    "county": "",
    "phone": "",
    "type": "",
    "ownership": "",
    "emergency": "",
    "quality": "",
    "LAT": 45.7979916,
    "LON": 24.1587167
  },
  "197": {
    "id": 10197,
    "name": "Serviciul Județean de Medicină Legală",
    "address": "",
    "city": "Deva",
    "state": "Hunedoara",
    "zip": 330088,
    "county": "",
    "phone": "",
    "type": "",
    "ownership": "",
    "emergency": "",
    "quality": "",
    "LAT": 45.8704996,
    "LON": 22.9058558
  },
  "198": {
    "id": 10198,
    "name": "Serviciul de Ambulanță al județului Cluj",
    "address": "Strada Horea nan",
    "city": "Cluj-Napoca",
    "state": "Cluj",
    "zip": 400217,
    "county": "",
    "phone": "",
    "type": "",
    "ownership": "",
    "emergency": "No",
    "quality": "",
    "LAT": 46.7809091,
    "LON": 23.5866986
  },
  "199": {
    "id": 10199,
    "name": "Serviciul de ambulanță al județului Iași",
    "address": "",
    "city": "Iași",
    "state": "",
    "zip": 700165,
    "county": "",
    "phone": "",
    "type": "",
    "ownership": "",
    "emergency": "ambulance_station",
    "quality": "",
    "LAT": 47.1529607,
    "LON": 27.5997273
  },
  "200": {
    "id": 10200,
    "name": "Serviciul de urgență SMURD",
    "address": "",
    "city": "Târgu Mureș",
    "state": "",
    "zip": 540052,
    "county": "",
    "phone": "",
    "type": "",
    "ownership": "",
    "emergency": "Yes",
    "quality": "",
    "LAT": 46.5598487,
    "LON": 24.5834937
  },
  "201": {
    "id": 10201,
    "name": "Spital",
    "address": "Strada Petofi Șandor nan",
    "city": "Sovata",
    "state": "",
    "zip": 545500,
    "county": "",
    "phone": "",
    "type": "",
    "ownership": "",
    "emergency": "",
    "quality": "",
    "LAT": 46.5936835,
    "LON": 25.0710249
  },
  "205": {
    "id": 10205,
    "name": "Spital Azuga",
    "address": "Strada Victoriei 2",
    "city": "Azuga",
    "state": "Prahova",
    "zip": 105100,
    "county": "",
    "phone": 40244322051,
    "type": "",
    "ownership": "",
    "emergency": "No",
    "quality": "",
    "LAT": 45.4276826,
    "LON": 25.5541617
  },
  "206": {
    "id": 10206,
    "name": "Spital Beclean",
    "address": "Strada 1 Decembrie 1918 nan",
    "city": "Beclean",
    "state": "",
    "zip": 425100,
    "county": "",
    "phone": "",
    "type": "",
    "ownership": "",
    "emergency": "",
    "quality": "",
    "LAT": 47.184443,
    "LON": 24.1847276
  },
  "209": {
    "id": 10209,
    "name": "Spital Brezoi",
    "address": "",
    "city": "Brezoi",
    "state": "Vâlcea",
    "zip": 245500,
    "county": "",
    "phone": "",
    "type": "",
    "ownership": "",
    "emergency": "",
    "quality": "",
    "LAT": 45.3425876,
    "LON": 24.2455709
  },
  "210": {
    "id": 10210,
    "name": "Spital Budești",
    "address": "",
    "city": "Budești",
    "state": "Vâlcea",
    "zip": 247055,
    "county": "",
    "phone": "",
    "type": "",
    "ownership": "",
    "emergency": "",
    "quality": "",
    "LAT": 45.0643391,
    "LON": 24.3877742
  },
  "211": {
    "id": 10211,
    "name": "Spital CFR",
    "address": "",
    "city": "Constanța",
    "state": "",
    "zip": 900317,
    "county": "",
    "phone": "",
    "type": "",
    "ownership": "",
    "emergency": "",
    "quality": "",
    "LAT": 44.1673143,
    "LON": 28.583522
  },
  "212": {
    "id": 10212,
    "name": "Spital Ceuașu de Câmpie",
    "address": "",
    "city": "Ceuașu de Câmpie",
    "state": "",
    "zip": 547140,
    "county": "",
    "phone": "",
    "type": "",
    "ownership": "",
    "emergency": "",
    "quality": "",
    "LAT": 46.640307,
    "LON": 24.5158801
  },
  "213": {
    "id": 10213,
    "name": "Spital Clinic Cai Ferate Constanța-Sediul administrativ",
    "address": "Bulevardul 1 Mai 5-7",
    "city": "Constanța",
    "state": "",
    "zip": "",
    "county": "",
    "phone": "",
    "type": "",
    "ownership": "",
    "emergency": "",
    "quality": "",
    "LAT": 44.1655614,
    "LON": 28.6344771
  },
  "214": {
    "id": 10214,
    "name": "Spital Mangalia",
    "address": "",
    "city": "Mangalia",
    "state": "",
    "zip": 905500,
    "county": "",
    "phone": "",
    "type": "",
    "ownership": "",
    "emergency": "Yes",
    "quality": "",
    "LAT": 43.8168307,
    "LON": 28.5866894
  },
  "215": {
    "id": 10215,
    "name": "Spital Municipal",
    "address": "Strada Fabricii 2A",
    "city": "Târgu Secuiesc",
    "state": "Covasna",
    "zip": 525400,
    "county": "",
    "phone": "",
    "type": "",
    "ownership": "",
    "emergency": "Yes",
    "quality": "",
    "LAT": 45.9979956,
    "LON": 26.1397791
  },
  "216": {
    "id": 10216,
    "name": "Spital Orășenesc Săveni",
    "address": "Strada Avram Iancu nan",
    "city": "Săveni",
    "state": "",
    "zip": 715300,
    "county": "",
    "phone": "",
    "type": "",
    "ownership": "",
    "emergency": "",
    "quality": "",
    "LAT": 47.9593409,
    "LON": 26.8600017
  },
  "217": {
    "id": 10217,
    "name": "Spital de bătrâni",
    "address": "",
    "city": "Zimnicea",
    "state": "Teleorman",
    "zip": 145400,
    "county": "",
    "phone": "",
    "type": "",
    "ownership": "",
    "emergency": "",
    "quality": "",
    "LAT": 43.6525823,
    "LON": 25.3616866
  },
  "218": {
    "id": 10218,
    "name": "Spital raducaneni",
    "address": "",
    "city": "Răducăneni",
    "state": "",
    "zip": 707400,
    "county": "",
    "phone": "",
    "type": "",
    "ownership": "",
    "emergency": "",
    "quality": "",
    "LAT": 46.9634578,
    "LON": 27.9428919
  },
  "219": {
    "id": 10219,
    "name": "Spital si azil M-rea Paltin",
    "address": "",
    "city": "Poiana Teiului",
    "state": "",
    "zip": 617340,
    "county": "",
    "phone": "",
    "type": "",
    "ownership": "",
    "emergency": "",
    "quality": "",
    "LAT": 47.164832,
    "LON": 25.9764496
  },
  "220": {
    "id": 10220,
    "name": "Spitalul  Județean de Urgență Brăila",
    "address": "Șoseaua Buzăului 2",
    "city": "Brăila",
    "state": "Brăila",
    "zip": "",
    "county": "",
    "phone": "",
    "type": "",
    "ownership": "",
    "emergency": "Yes",
    "quality": "",
    "LAT": 45.2525358,
    "LON": 27.9413245
  },
  "221": {
    "id": 10221,
    "name": "Spitalul \"Buna Vestire\" obstretică-ginecologie",
    "address": "",
    "city": "Galați",
    "state": "",
    "zip": 800153,
    "county": "",
    "phone": "",
    "type": "",
    "ownership": "",
    "emergency": "",
    "quality": "",
    "LAT": 45.4445555,
    "LON": 28.0421077
  },
  "222": {
    "id": 10222,
    "name": "Spitalul \"Carl Wolf\" - Centru pentru Bătrâni",
    "address": "",
    "city": "Sibiu",
    "state": "Sibiu",
    "zip": 550009,
    "county": "",
    "phone": "",
    "type": "",
    "ownership": "",
    "emergency": "",
    "quality": "",
    "LAT": 45.7977333,
    "LON": 24.1401341
  },
  "223": {
    "id": 10223,
    "name": "Spitalul 2",
    "address": "",
    "city": "Râmnicu Vâlcea",
    "state": "Vâlcea",
    "zip": 240159,
    "county": "",
    "phone": "",
    "type": "",
    "ownership": "",
    "emergency": "",
    "quality": "",
    "LAT": 45.1087535,
    "LON": 24.3681636
  },
  "224": {
    "id": 10224,
    "name": "Spitalul Agnita",
    "address": "Strada Spitalului 4",
    "city": "Agnita",
    "state": "Sibiu",
    "zip": 555100,
    "county": "",
    "phone": "",
    "type": "",
    "ownership": "",
    "emergency": "",
    "quality": "",
    "LAT": 45.9788926,
    "LON": 24.6224366
  },
  "225": {
    "id": 10225,
    "name": "Spitalul Aiud",
    "address": "",
    "city": "Aiud",
    "state": "Alba",
    "zip": 515200,
    "county": "",
    "phone": "",
    "type": "",
    "ownership": "",
    "emergency": "Yes",
    "quality": "",
    "LAT": 46.3077623,
    "LON": 23.7230167
  },
  "227": {
    "id": 10227,
    "name": "Spitalul BalneoMedCenter",
    "address": "",
    "city": "Râmnicu Vâlcea",
    "state": "Vâlcea",
    "zip": "",
    "county": "",
    "phone": "",
    "type": "",
    "ownership": "",
    "emergency": "",
    "quality": "",
    "LAT": 45.082107,
    "LON": 24.3670524
  },
  "228": {
    "id": 10228,
    "name": "Spitalul Boldescu",
    "address": "",
    "city": "Ploiești",
    "state": "Prahova",
    "zip": 100028,
    "county": "",
    "phone": "",
    "type": "",
    "ownership": "",
    "emergency": "",
    "quality": "",
    "LAT": 44.9500947,
    "LON": 26.0240557
  },
  "229": {
    "id": 10229,
    "name": "Spitalul Boli Infecțioase",
    "address": "",
    "city": "Satu Mare",
    "state": "Satu Mare",
    "zip": 440014,
    "county": "",
    "phone": "",
    "type": "",
    "ownership": "",
    "emergency": "No",
    "quality": "",
    "LAT": 47.7945099,
    "LON": 22.8856886
  },
  "230": {
    "id": 10230,
    "name": "Spitalul Boli Pulmonare",
    "address": "",
    "city": "Breaza",
    "state": "Prahova",
    "zip": 105401,
    "county": "",
    "phone": "",
    "type": "",
    "ownership": "",
    "emergency": "No",
    "quality": "",
    "LAT": 45.1791475,
    "LON": 25.6762752
  },
  "231": {
    "id": 10231,
    "name": "Spitalul Buna Vestire",
    "address": "",
    "city": "Ploiești",
    "state": "Prahova",
    "zip": 100028,
    "county": "",
    "phone": "",
    "type": "",
    "ownership": "",
    "emergency": "",
    "quality": "",
    "LAT": 44.9390262,
    "LON": 26.030587
  },
  "232": {
    "id": 10232,
    "name": "Spitalul Băneasa Regina Maria",
    "address": "Strada Constantin Dobrogeanu-Gherea 85",
    "city": "București",
    "state": "",
    "zip": 13744,
    "county": "",
    "phone": "",
    "type": "",
    "ownership": "",
    "emergency": "Yes",
    "quality": "",
    "LAT": 44.4958919,
    "LON": 26.0717694
  },
  "233": {
    "id": 10233,
    "name": "Spitalul C.F.R.",
    "address": "",
    "city": "Satu Mare",
    "state": "Satu Mare",
    "zip": 440014,
    "county": "",
    "phone": "",
    "type": "",
    "ownership": "",
    "emergency": "",
    "quality": "",
    "LAT": 47.7895054,
    "LON": 22.8816176
  },
  "235": {
    "id": 10235,
    "name": "Spitalul CF Buzău",
    "address": "Bulevardul Republicii 8-12",
    "city": "Buzău",
    "state": "Buzău",
    "zip": 120055,
    "county": "",
    "phone": "",
    "type": "",
    "ownership": "",
    "emergency": "No",
    "quality": "",
    "LAT": 45.1436946,
    "LON": 26.8361269
  },
  "236": {
    "id": 10236,
    "name": "Spitalul CFR",
    "address": "Bulevardul Știrbei Vodă 6",
    "city": "Craiova",
    "state": "Dolj",
    "zip": 200413,
    "county": "",
    "phone": "",
    "type": "",
    "ownership": "",
    "emergency": "",
    "quality": "",
    "LAT": 44.314555,
    "LON": 23.7937217
  },
  "238": {
    "id": 10238,
    "name": "Spitalul Calafat - Secția exterioara TBC Pneumologie",
    "address": "Strada 1 Decembrie 1918 nan",
    "city": "Poiana Mare",
    "state": "Dolj",
    "zip": 207470,
    "county": "",
    "phone": "",
    "type": "",
    "ownership": "",
    "emergency": "",
    "quality": "",
    "LAT": 43.9132628,
    "LON": 23.0991253
  },
  "239": {
    "id": 10239,
    "name": "Spitalul Clinic \"Doctor Ioan Cantacuzino",
    "address": "Strada Ion Movilă 5-7",
    "city": "București",
    "state": "",
    "zip": 23571,
    "county": "",
    "phone": 40212107100,
    "type": "",
    "ownership": "",
    "emergency": "Yes",
    "quality": "",
    "LAT": 44.4449545,
    "LON": 26.1093263
  },
  "240": {
    "id": 10240,
    "name": "Spitalul Clinic C.F. Constanța",
    "address": "",
    "city": "Constanța",
    "state": "",
    "zip": "",
    "county": "",
    "phone": "",
    "type": "",
    "ownership": "",
    "emergency": "",
    "quality": "",
    "LAT": 44.1738648,
    "LON": 28.651106
  },
  "241": {
    "id": 10241,
    "name": "Spitalul Clinic C.F. Nr. 2",
    "address": "Bulevardul Mărăști 62",
    "city": "București",
    "state": "",
    "zip": 12103,
    "county": "",
    "phone": "",
    "type": "",
    "ownership": "",
    "emergency": "Yes",
    "quality": "",
    "LAT": 44.473797,
    "LON": 26.0691431
  },
  "242": {
    "id": 10242,
    "name": "Spitalul Clinic Colentina",
    "address": "Șoseaua Ștefan cel Mare 19-21",
    "city": "București",
    "state": "",
    "zip": 23571,
    "county": "",
    "phone": "+4 021 3173245",
    "type": "",
    "ownership": "",
    "emergency": "No",
    "quality": "",
    "LAT": 44.4546577,
    "LON": 26.1154528
  },
  "243": {
    "id": 10243,
    "name": "Spitalul Clinic Căi Ferate",
    "address": "",
    "city": "Oradea",
    "state": "Bihor",
    "zip": 410065,
    "county": "",
    "phone": "",
    "type": "",
    "ownership": "",
    "emergency": "",
    "quality": "",
    "LAT": 47.0671585,
    "LON": 21.9352689
  },
  "245": {
    "id": 10245,
    "name": "Spitalul Clinic Dr CI Parhon",
    "address": "",
    "city": "Iași",
    "state": "",
    "zip": 700503,
    "county": "",
    "phone": "",
    "type": "",
    "ownership": "",
    "emergency": "",
    "quality": "",
    "LAT": 47.1800168,
    "LON": 27.5681719
  },
  "246": {
    "id": 10246,
    "name": "Spitalul Clinic Județean - Clinica de Pediatrie",
    "address": "Strada Pompeiu Onofreiu 2 - 4",
    "city": "Sibiu",
    "state": "Sibiu",
    "zip": 550009,
    "county": "",
    "phone": "",
    "type": "",
    "ownership": "",
    "emergency": "",
    "quality": "",
    "LAT": 45.7952233,
    "LON": 24.1549511
  },
  "247": {
    "id": 10247,
    "name": "Spitalul Clinic Județean de Urgentă",
    "address": "",
    "city": "Sibiu",
    "state": "Sibiu",
    "zip": 550009,
    "county": "",
    "phone": "",
    "type": "",
    "ownership": "",
    "emergency": "",
    "quality": "",
    "LAT": 45.7942078,
    "LON": 24.1547703
  },
  "248": {
    "id": 10248,
    "name": "Spitalul Clinic Județean de Urgențe \"Sf. Spiridon",
    "address": "Bulevardul Independenței 1",
    "city": "Iași",
    "state": "",
    "zip": 700098,
    "county": "",
    "phone": "0232-240822",
    "type": "",
    "ownership": "",
    "emergency": "Yes",
    "quality": "",
    "LAT": 47.1679519,
    "LON": 27.5811326
  },
  "249": {
    "id": 10249,
    "name": "Spitalul Clinic Județean de Urgență",
    "address": "Strada Clinicilor nan",
    "city": "Cluj-Napoca",
    "state": "Cluj",
    "zip": 400006,
    "county": "",
    "phone": "",
    "type": "",
    "ownership": "",
    "emergency": "Yes",
    "quality": "",
    "LAT": 46.7658775,
    "LON": 23.5830532
  },
  "252": {
    "id": 10252,
    "name": "Spitalul Clinic Județean de Urgență Cluj",
    "address": "",
    "city": "Cluj-Napoca",
    "state": "Cluj",
    "zip": 400006,
    "county": "",
    "phone": "",
    "type": "",
    "ownership": "",
    "emergency": "Yes",
    "quality": "",
    "LAT": 46.7656239,
    "LON": 23.5818652
  },
  "253": {
    "id": 10253,
    "name": "Spitalul Clinic Județean de Urgență Pius Brînzeu",
    "address": "Bulevardul Dr. Iosif Bulbucă (Liviu Rebreanu) 156",
    "city": "Timișoara",
    "state": "",
    "zip": 300002,
    "county": "",
    "phone": "",
    "type": "",
    "ownership": "",
    "emergency": "Yes",
    "quality": "",
    "LAT": 45.7366392,
    "LON": 21.2435394
  },
  "254": {
    "id": 10254,
    "name": "Spitalul Clinic Județean de Urgență „Sf. Apostol Andrei” Constanța",
    "address": "Bulevardul Tomis 145",
    "city": "Constanța",
    "state": "",
    "zip": 900612,
    "county": "",
    "phone": "",
    "type": "",
    "ownership": "",
    "emergency": "",
    "quality": "",
    "LAT": 44.1867919,
    "LON": 28.6407109
  },
  "255": {
    "id": 10255,
    "name": "Spitalul Clinic Municipal",
    "address": "Strada Mihai Viteazul 7-8",
    "city": "Arad",
    "state": "Arad",
    "zip": 310182,
    "county": "",
    "phone": "",
    "type": "",
    "ownership": "",
    "emergency": "",
    "quality": "",
    "LAT": 46.1798407,
    "LON": 21.3159401
  },
  "256": {
    "id": 10256,
    "name": "Spitalul Clinic Municipal Dr. Gavril Curteanu",
    "address": "",
    "city": "Oradea",
    "state": "Bihor",
    "zip": 410065,
    "county": "",
    "phone": "",
    "type": "",
    "ownership": "",
    "emergency": "No",
    "quality": "",
    "LAT": 47.0752818,
    "LON": 21.9171303
  },
  "257": {
    "id": 10257,
    "name": "Spitalul Clinic Municipal Filantropia",
    "address": "",
    "city": "Craiova",
    "state": "Dolj",
    "zip": 200136,
    "county": "",
    "phone": "",
    "type": "",
    "ownership": "",
    "emergency": "",
    "quality": "",
    "LAT": 44.3226986,
    "LON": 23.7932327
  },
  "258": {
    "id": 10258,
    "name": "Spitalul Clinic Nicolae Malaxa",
    "address": "Șoseaua Vergului 12",
    "city": "București",
    "state": "",
    "zip": 30171,
    "county": "",
    "phone": "",
    "type": "",
    "ownership": "",
    "emergency": "",
    "quality": "",
    "LAT": 44.4384233,
    "LON": 26.1783545
  },
  "259": {
    "id": 10259,
    "name": "Spitalul Clinic Nr.2 Filantropia",
    "address": "Strada Filantropiei 1",
    "city": "Craiova",
    "state": "Dolj",
    "zip": 200581,
    "county": "",
    "phone": "",
    "type": "",
    "ownership": "",
    "emergency": "",
    "quality": "",
    "LAT": 44.3215714,
    "LON": 23.7924603
  },
  "260": {
    "id": 10260,
    "name": "Spitalul Clinic Profesor Doctor Theodor Burghele",
    "address": "",
    "city": "București",
    "state": "",
    "zip": 51521,
    "county": "",
    "phone": "",
    "type": "",
    "ownership": "",
    "emergency": "",
    "quality": "",
    "LAT": 44.425606,
    "LON": 26.0722353
  },
  "261": {
    "id": 10261,
    "name": "Spitalul Clinic de Adulți Secția Clinică Obstetrica-Ginecologie II \"Dominic Stanca",
    "address": "Bulevardul 21 Decembrie 1989 53-55",
    "city": "Cluj-Napoca",
    "state": "Cluj",
    "zip": 400119,
    "county": "",
    "phone": "",
    "type": "",
    "ownership": "",
    "emergency": "",
    "quality": "",
    "LAT": 46.7744183,
    "LON": 23.5999358
  },
  "263": {
    "id": 10263,
    "name": "Spitalul Clinic de Boli Infecțioase",
    "address": "Bulevardul Ferdinand 100",
    "city": "Constanța",
    "state": "",
    "zip": 900711,
    "county": "",
    "phone": "",
    "type": "",
    "ownership": "",
    "emergency": "",
    "quality": "",
    "LAT": 44.1706162,
    "LON": 28.6371628
  },
  "265": {
    "id": 10265,
    "name": "Spitalul Clinic de Boli Infecțioase și Pneumoftiziologie Dr. Victor Babeș",
    "address": "Strada Gheorghe Adam 13",
    "city": "Timișoara",
    "state": "",
    "zip": 300002,
    "county": "",
    "phone": "",
    "type": "",
    "ownership": "",
    "emergency": "Yes",
    "quality": "",
    "LAT": 45.7689955,
    "LON": 21.2603163
  },
  "267": {
    "id": 10267,
    "name": "Spitalul Clinic de Boli Infecțioase “Sfânta Parascheva”",
    "address": "",
    "city": "Iași",
    "state": "",
    "zip": 700115,
    "county": "",
    "phone": "",
    "type": "",
    "ownership": "",
    "emergency": "",
    "quality": "",
    "LAT": 47.1710315,
    "LON": 27.5833191
  },
  "268": {
    "id": 10268,
    "name": "Spitalul Clinic de Chirurgie Oro-Maxilo-Facială \"Prof. Dr. Dan Theodorescu",
    "address": "Calea Plevnei 17-21",
    "city": "București",
    "state": "",
    "zip": 10221,
    "county": "",
    "phone": "",
    "type": "",
    "ownership": "",
    "emergency": "",
    "quality": "",
    "LAT": 44.4358189,
    "LON": 26.0852229
  },
  "269": {
    "id": 10269,
    "name": "Spitalul Clinic de Nefrologie Dr. Carol Davila",
    "address": "",
    "city": "București",
    "state": "",
    "zip": 10731,
    "county": "",
    "phone": "",
    "type": "",
    "ownership": "",
    "emergency": "",
    "quality": "",
    "LAT": 44.4443743,
    "LON": 26.0894303
  },
  "270": {
    "id": 10270,
    "name": "Spitalul Clinic de Neurologie și Psihiatrie",
    "address": "",
    "city": "Oradea",
    "state": "Bihor",
    "zip": 410065,
    "county": "",
    "phone": "",
    "type": "",
    "ownership": "",
    "emergency": "",
    "quality": "",
    "LAT": 47.0635438,
    "LON": 21.9448908
  },
  "271": {
    "id": 10271,
    "name": "Spitalul Clinic de Neuropsihiatrie",
    "address": "Calea București 99",
    "city": "Craiova",
    "state": "Dolj",
    "zip": 200472,
    "county": "",
    "phone": 251431189,
    "type": "",
    "ownership": "",
    "emergency": "",
    "quality": "",
    "LAT": 44.3174294,
    "LON": 23.8154514
  },
  "272": {
    "id": 10272,
    "name": "Spitalul Clinic de Obstetrică-Ginecologie Dr. Dumitru Popescu",
    "address": "Bulevardul 16 Decembrie 1989 22-24",
    "city": "Timișoara",
    "state": "",
    "zip": 300002,
    "county": "",
    "phone": "",
    "type": "",
    "ownership": "",
    "emergency": "",
    "quality": "",
    "LAT": 45.744701,
    "LON": 21.2146799
  },
  "273": {
    "id": 10273,
    "name": "Spitalul Clinic de Ortopedie",
    "address": "Strada General Traian Moșoiu nan",
    "city": "Cluj-Napoca",
    "state": "Cluj",
    "zip": 400121,
    "county": "",
    "phone": "",
    "type": "",
    "ownership": "",
    "emergency": "",
    "quality": "",
    "LAT": 46.7712196,
    "LON": 23.6046608
  },
  "274": {
    "id": 10274,
    "name": "Spitalul Clinic de Ortopedie \"Foișor\" - Ambulator",
    "address": "Bulevardul Ferdinand I 35",
    "city": "București",
    "state": "",
    "zip": 23571,
    "county": "",
    "phone": "",
    "type": "",
    "ownership": "",
    "emergency": "",
    "quality": "",
    "LAT": 44.440796,
    "LON": 26.1215769
  },
  "275": {
    "id": 10275,
    "name": "Spitalul Clinic de Pneumoftiziologie Brașov - Pavilionul I",
    "address": "Aleea Dealul Spirii 12",
    "city": "Brașov",
    "state": "",
    "zip": 500030,
    "county": "",
    "phone": 268477011,
    "type": "",
    "ownership": "",
    "emergency": "",
    "quality": "",
    "LAT": 45.6429493,
    "LON": 25.5736522
  },
  "276": {
    "id": 10276,
    "name": "Spitalul Clinic de Pneumoftiziologie Constanța",
    "address": "Strada Sentinelei 40",
    "city": "Constanța",
    "state": "",
    "zip": 900002,
    "county": "",
    "phone": "",
    "type": "",
    "ownership": "",
    "emergency": "",
    "quality": "",
    "LAT": 44.2317851,
    "LON": 28.6085487
  },
  "277": {
    "id": 10277,
    "name": "Spitalul Clinic de Pneumologie",
    "address": "",
    "city": "Iași",
    "state": "",
    "zip": 700313,
    "county": "",
    "phone": "",
    "type": "",
    "ownership": "",
    "emergency": "",
    "quality": "",
    "LAT": 47.1554474,
    "LON": 27.6094451
  },
  "278": {
    "id": 10278,
    "name": "Spitalul Clinic de Psihiatrie Socola",
    "address": "nan 36",
    "city": "Iași",
    "state": "",
    "zip": 700280,
    "county": "",
    "phone": "",
    "type": "",
    "ownership": "",
    "emergency": "",
    "quality": "",
    "LAT": 47.1307568,
    "LON": 27.6137204
  },
  "279": {
    "id": 10279,
    "name": "Spitalul Clinic de Psihiatrie “Prof. Dr. Alexandru Obregia”",
    "address": "",
    "city": "București",
    "state": "",
    "zip": "",
    "county": "",
    "phone": "",
    "type": "",
    "ownership": "",
    "emergency": "Yes",
    "quality": "",
    "LAT": 44.3863938,
    "LON": 26.1281487
  },
  "280": {
    "id": 10280,
    "name": "Spitalul Clinic de Urgenta pentru copii Cluj-Napoca Neonatologie-prematuri",
    "address": "Strada Donath 172",
    "city": "Cluj-Napoca",
    "state": "Cluj",
    "zip": 400331,
    "county": "",
    "phone": "",
    "type": "",
    "ownership": "",
    "emergency": "",
    "quality": "",
    "LAT": 46.7674114,
    "LON": 23.5464858
  },
  "281": {
    "id": 10281,
    "name": "Spitalul Clinic de Urgențe Oftalmologice",
    "address": "Piața Lahovari 1",
    "city": "București",
    "state": "",
    "zip": 10465,
    "county": "",
    "phone": "",
    "type": "",
    "ownership": "",
    "emergency": "Yes",
    "quality": "",
    "LAT": 44.4459748,
    "LON": 26.1000622
  },
  "282": {
    "id": 10282,
    "name": "Spitalul Clinic de Urgențe Tătărași",
    "address": "Strada Ion Creangă 94",
    "city": "Iași",
    "state": "",
    "zip": 700321,
    "county": "",
    "phone": "",
    "type": "",
    "ownership": "",
    "emergency": "",
    "quality": "",
    "LAT": 47.1608815,
    "LON": 27.6164654
  },
  "283": {
    "id": 10283,
    "name": "Spitalul Clinic de Urgență \"Bagdasar-Arsenie",
    "address": "",
    "city": "București",
    "state": "",
    "zip": "",
    "county": "",
    "phone": "",
    "type": "",
    "ownership": "",
    "emergency": "Yes",
    "quality": "",
    "LAT": 44.3851108,
    "LON": 26.1293482
  },
  "285": {
    "id": 10285,
    "name": "Spitalul Clinic de Urgență \"Prof. Dr. Nicolae Oblu",
    "address": "Strada Ateneului 2",
    "city": "Iași",
    "state": "",
    "zip": 700309,
    "county": "",
    "phone": "+40 232 264271;+40 232 473020",
    "type": "",
    "ownership": "",
    "emergency": "Yes",
    "quality": "",
    "LAT": 47.1613322,
    "LON": 27.6076341
  },
  "286": {
    "id": 10286,
    "name": "Spitalul Clinic de Urgență Arad",
    "address": "",
    "city": "Arad",
    "state": "Arad",
    "zip": 310182,
    "county": "",
    "phone": "",
    "type": "",
    "ownership": "",
    "emergency": "",
    "quality": "",
    "LAT": 46.1843755,
    "LON": 21.3095887
  },
  "287": {
    "id": 10287,
    "name": "Spitalul Clinic de Urgență Avram Iancu",
    "address": "",
    "city": "Oradea",
    "state": "Bihor",
    "zip": 410065,
    "county": "",
    "phone": "",
    "type": "",
    "ownership": "",
    "emergency": "",
    "quality": "",
    "LAT": 47.0624146,
    "LON": 21.9366007
  },
  "288": {
    "id": 10288,
    "name": "Spitalul Clinic de Urgență Chirurgie Plastică, Reparatorie și Arsuri",
    "address": "",
    "city": "București",
    "state": "",
    "zip": 12196,
    "county": "",
    "phone": "",
    "type": "",
    "ownership": "",
    "emergency": "",
    "quality": "",
    "LAT": 44.4642626,
    "LON": 26.0564588
  },
  "289": {
    "id": 10289,
    "name": "Spitalul Clinic de Urgență Militar \"Dr. Ștefan Odobleja",
    "address": "Strada Caracal 150",
    "city": "Craiova",
    "state": "Dolj",
    "zip": 200317,
    "county": "",
    "phone": 251581081,
    "type": "",
    "ownership": "",
    "emergency": "",
    "quality": "",
    "LAT": 44.302218,
    "LON": 23.8194946
  },
  "290": {
    "id": 10290,
    "name": "Spitalul Clinic de Urgență Prof. Dr. Agrippa Ionescu",
    "address": "Strada Ion Constantin Brătianu 149",
    "city": "Balotești",
    "state": "Ilfov",
    "zip": 77016,
    "county": "",
    "phone": "",
    "type": "",
    "ownership": "",
    "emergency": "Yes",
    "quality": "",
    "LAT": 44.6460536,
    "LON": 26.1192578
  },
  "291": {
    "id": 10291,
    "name": "Spitalul Clinic de Urgență Sfântul Ioan",
    "address": "Șoseaua Vitan-Bârzești 13",
    "city": "București",
    "state": "",
    "zip": 30171,
    "county": "",
    "phone": 40213345075,
    "type": "",
    "ownership": "",
    "emergency": "Yes",
    "quality": "",
    "LAT": 44.3916272,
    "LON": 26.1427626
  },
  "292": {
    "id": 10292,
    "name": "Spitalul Clinic de Urgență pentru Copii Louis Țurcanu",
    "address": "",
    "city": "Timișoara",
    "state": "",
    "zip": 300002,
    "county": "",
    "phone": "",
    "type": "",
    "ownership": "",
    "emergency": "Yes",
    "quality": "",
    "LAT": 45.7541313,
    "LON": 21.2213879
  },
  "293": {
    "id": 10293,
    "name": "Spitalul Clinic de Urgență pentru Copii „Grigore Alexandrescu”",
    "address": "Bulevardul Iancu de Hunedoara nan",
    "city": "București",
    "state": "",
    "zip": "",
    "county": "",
    "phone": "",
    "type": "",
    "ownership": "",
    "emergency": "Yes",
    "quality": "",
    "LAT": 44.4522542,
    "LON": 26.0904944
  },
  "294": {
    "id": 10294,
    "name": "Spitalul Clinic nr.1 C.F. Witing",
    "address": "Calea Plevnei 162-164",
    "city": "București",
    "state": "",
    "zip": 60941,
    "county": "",
    "phone": "",
    "type": "",
    "ownership": "",
    "emergency": "Yes",
    "quality": "",
    "LAT": 44.4423803,
    "LON": 26.0716359
  },
  "295": {
    "id": 10295,
    "name": "Spitalul Ecomed - Vintilă Vodă",
    "address": "",
    "city": "Vintilă Vodă",
    "state": "Buzău",
    "zip": 127695,
    "county": "",
    "phone": "",
    "type": "",
    "ownership": "",
    "emergency": "",
    "quality": "",
    "LAT": 45.4586215,
    "LON": 26.7425296
  },
  "296": {
    "id": 10296,
    "name": "Spitalul Elena Beldiman",
    "address": "",
    "city": "Bârlad",
    "state": "Vaslui",
    "zip": 731085,
    "county": "",
    "phone": "",
    "type": "",
    "ownership": "",
    "emergency": "",
    "quality": "",
    "LAT": 46.2352539,
    "LON": 27.6715602
  },
  "297": {
    "id": 10297,
    "name": "Spitalul Filantropia",
    "address": "",
    "city": "București",
    "state": "",
    "zip": 11141,
    "county": "",
    "phone": "",
    "type": "",
    "ownership": "",
    "emergency": "",
    "quality": "",
    "LAT": 44.4526353,
    "LON": 26.082404
  },
  "298": {
    "id": 10298,
    "name": "Spitalul Fundeni",
    "address": "",
    "city": "București",
    "state": "",
    "zip": 23571,
    "county": "",
    "phone": "",
    "type": "",
    "ownership": "",
    "emergency": "",
    "quality": "",
    "LAT": 44.4655861,
    "LON": 26.1578509
  },
  "299": {
    "id": 10299,
    "name": "Spitalul Grecescu",
    "address": "",
    "city": "Drobeta-Turnu Severin",
    "state": "",
    "zip": 220097,
    "county": "",
    "phone": "",
    "type": "",
    "ownership": "",
    "emergency": "",
    "quality": "",
    "LAT": 44.6241305,
    "LON": 22.6442098
  },
  "300": {
    "id": 10300,
    "name": "Spitalul Huedin",
    "address": "Strada Spitalului 42",
    "city": "Huedin",
    "state": "Cluj",
    "zip": 405400,
    "county": "",
    "phone": "",
    "type": "",
    "ownership": "",
    "emergency": "",
    "quality": "",
    "LAT": 46.8627407,
    "LON": 23.0152743
  },
  "301": {
    "id": 10301,
    "name": "Spitalul Județean",
    "address": "",
    "city": "Suceava",
    "state": "Suceava",
    "zip": 720224,
    "county": "",
    "phone": "",
    "type": "",
    "ownership": "",
    "emergency": "Yes",
    "quality": "",
    "LAT": 47.6393056,
    "LON": 26.2406942
  },
  "302": {
    "id": 10302,
    "name": "Spitalul Județean Dâmbovița",
    "address": "",
    "city": "Târgoviște",
    "state": "",
    "zip": 130007,
    "county": "",
    "phone": "",
    "type": "",
    "ownership": "",
    "emergency": "",
    "quality": "",
    "LAT": 44.9242085,
    "LON": 25.4501612
  },
  "303": {
    "id": 10303,
    "name": "Spitalul Județean Ialomița",
    "address": "",
    "city": "Slobozia",
    "state": "",
    "zip": 920014,
    "county": "",
    "phone": "",
    "type": "",
    "ownership": "",
    "emergency": "Yes",
    "quality": "",
    "LAT": 44.5682022,
    "LON": 27.3596604
  },
  "304": {
    "id": 10304,
    "name": "Spitalul Județean Ilfov",
    "address": "",
    "city": "București",
    "state": "",
    "zip": 23571,
    "county": "",
    "phone": "",
    "type": "",
    "ownership": "",
    "emergency": "",
    "quality": "",
    "LAT": 44.4349966,
    "LON": 26.1560953
  },
  "305": {
    "id": 10305,
    "name": "Spitalul Județean Sălaj",
    "address": "",
    "city": "Zalău",
    "state": "Sălaj",
    "zip": 450090,
    "county": "",
    "phone": "",
    "type": "",
    "ownership": "",
    "emergency": "",
    "quality": "",
    "LAT": 47.1929082,
    "LON": 23.0503571
  },
  "306": {
    "id": 10306,
    "name": "Spitalul Județean de Urgență",
    "address": "",
    "city": "Drobeta-Turnu Severin",
    "state": "",
    "zip": 220067,
    "county": "",
    "phone": "0252/313751",
    "type": "",
    "ownership": "",
    "emergency": "",
    "quality": "",
    "LAT": 44.6437003,
    "LON": 22.6512094
  },
  "307": {
    "id": 10307,
    "name": "Spitalul Județean de Urgență - Vâlcea",
    "address": "",
    "city": "Râmnicu Vâlcea",
    "state": "Vâlcea",
    "zip": 240749,
    "county": "",
    "phone": "",
    "type": "",
    "ownership": "",
    "emergency": "",
    "quality": "",
    "LAT": 45.1180125,
    "LON": 24.3603645
  },
  "308": {
    "id": 10308,
    "name": "Spitalul Județean de Urgență Dr. Constantin Opriș",
    "address": "",
    "city": "Baia Mare",
    "state": "",
    "zip": 430242,
    "county": "",
    "phone": "",
    "type": "",
    "ownership": "",
    "emergency": "",
    "quality": "",
    "LAT": 47.6558136,
    "LON": 23.5523972
  },
  "309": {
    "id": 10309,
    "name": "Spitalul Județean de Urgență Pitești",
    "address": "Aleea Spitalului 36",
    "city": "Pitești",
    "state": "",
    "zip": 110284,
    "county": "",
    "phone": 248287150,
    "type": "",
    "ownership": "",
    "emergency": "Yes",
    "quality": "",
    "LAT": 44.8715527,
    "LON": 24.8466626
  },
  "310": {
    "id": 10310,
    "name": "Spitalul Județean de Urgență Pitești, Pavilion Secția Oncologie",
    "address": "Bulevardul I. C. Brătianu 62",
    "city": "Pitești",
    "state": "",
    "zip": 110117,
    "county": "",
    "phone": "",
    "type": "",
    "ownership": "",
    "emergency": "Yes",
    "quality": "",
    "LAT": 44.8618744,
    "LON": 24.8700457
  },
  "311": {
    "id": 10311,
    "name": "Spitalul Județean de Urgență Pitești, Secția Boli Infecțioase",
    "address": "Bulevardul I. C. Brătianu 56",
    "city": "Pitești",
    "state": "",
    "zip": 110121,
    "county": "",
    "phone": "",
    "type": "",
    "ownership": "",
    "emergency": "Yes",
    "quality": "",
    "LAT": 44.8611094,
    "LON": 24.8695372
  },
  "312": {
    "id": 10312,
    "name": "Spitalul Județean de Urgență Pitești, Secțiile Oftalmologie, Psihiatrie și Pneumologie",
    "address": "Strada Negru Vodă 53",
    "city": "Pitești",
    "state": "",
    "zip": 110065,
    "county": "",
    "phone": "",
    "type": "",
    "ownership": "",
    "emergency": "Yes",
    "quality": "",
    "LAT": 44.866299,
    "LON": 24.8590499
  },
  "313": {
    "id": 10313,
    "name": "Spitalul Județean de Urgență Reșița",
    "address": "",
    "city": "Reșița",
    "state": "",
    "zip": "",
    "county": "",
    "phone": "",
    "type": "",
    "ownership": "",
    "emergency": "",
    "quality": "",
    "LAT": 45.3253823,
    "LON": 21.8803262
  },
  "314": {
    "id": 10314,
    "name": "Spitalul Județean de Urgență Slatina",
    "address": "",
    "city": "Slatina",
    "state": "Olt",
    "zip": 230027,
    "county": "",
    "phone": "",
    "type": "",
    "ownership": "",
    "emergency": "",
    "quality": "",
    "LAT": 44.432149,
    "LON": 24.3681746
  },
  "315": {
    "id": 10315,
    "name": "Spitalul Județean de urgență Sf. Spiridon",
    "address": "",
    "city": "Brăila",
    "state": "Brăila",
    "zip": 810249,
    "county": "",
    "phone": "",
    "type": "",
    "ownership": "",
    "emergency": "Yes",
    "quality": "",
    "LAT": 45.2578616,
    "LON": 27.9529593
  },
  "316": {
    "id": 10316,
    "name": "Spitalul Maria Sklodowska Curie (de copii) - Budimex",
    "address": "Bulevardul Constantin Brâncoveanu nan",
    "city": "București",
    "state": "",
    "zip": 41406,
    "county": "",
    "phone": "",
    "type": "",
    "ownership": "",
    "emergency": "Yes",
    "quality": "",
    "LAT": 44.3896324,
    "LON": 26.1089945
  },
  "317": {
    "id": 10317,
    "name": "Spitalul Mavromati",
    "address": "Strada Arhimandrit Marchian 11",
    "city": "Botoșani",
    "state": "",
    "zip": 710357,
    "county": "",
    "phone": "",
    "type": "",
    "ownership": "",
    "emergency": "Yes",
    "quality": "",
    "LAT": 47.7422144,
    "LON": 26.6615309
  },
  "318": {
    "id": 10318,
    "name": "Spitalul Militar",
    "address": "",
    "city": "Cluj-Napoca",
    "state": "Cluj",
    "zip": 400132,
    "county": "",
    "phone": "",
    "type": "",
    "ownership": "",
    "emergency": "",
    "quality": "",
    "LAT": 46.7694348,
    "LON": 23.6017672
  },
  "321": {
    "id": 10321,
    "name": "Spitalul Militar de Urgențe “Dr. Alexandru Augustin” Sibiu",
    "address": "Bulevardul Victoriei 46",
    "city": "Sibiu",
    "state": "Sibiu",
    "zip": 550009,
    "county": "",
    "phone": "",
    "type": "",
    "ownership": "",
    "emergency": "",
    "quality": "",
    "LAT": 45.7842809,
    "LON": 24.1390507
  },
  "322": {
    "id": 10322,
    "name": "Spitalul Militar de Urgență \"Dr. Aristide Serfioti",
    "address": "Strada Traian 199",
    "city": "Galați",
    "state": "",
    "zip": 800150,
    "county": "",
    "phone": "",
    "type": "",
    "ownership": "",
    "emergency": "",
    "quality": "",
    "LAT": 45.4509906,
    "LON": 28.0430112
  },
  "323": {
    "id": 10323,
    "name": "Spitalul Militar de Urgență Constanța",
    "address": "Bulevardul Mamaia 96",
    "city": "Constanța",
    "state": "",
    "zip": 900527,
    "county": "",
    "phone": "",
    "type": "",
    "ownership": "",
    "emergency": "",
    "quality": "",
    "LAT": 44.1898705,
    "LON": 28.6515365
  },
  "324": {
    "id": 10324,
    "name": "Spitalul Militar de Urgență „Dr. Ion Jianu”",
    "address": "Strada Negru Vodă 47",
    "city": "Pitești",
    "state": "",
    "zip": 110069,
    "county": "",
    "phone": "",
    "type": "",
    "ownership": "",
    "emergency": "Yes",
    "quality": "",
    "LAT": 44.8647656,
    "LON": 24.8611518
  },
  "325": {
    "id": 10325,
    "name": "Spitalul Monza",
    "address": "",
    "city": "București",
    "state": "",
    "zip": 23571,
    "county": "",
    "phone": "",
    "type": "",
    "ownership": "",
    "emergency": "No",
    "quality": "",
    "LAT": 44.439052,
    "LON": 26.1485609
  },
  "326": {
    "id": 10326,
    "name": "Spitalul Municipal",
    "address": "Strada Sirenei nan",
    "city": "Câmpulung Moldovenesc",
    "state": "Suceava",
    "zip": 725100,
    "county": "",
    "phone": "",
    "type": "",
    "ownership": "",
    "emergency": "",
    "quality": "",
    "LAT": 47.5324823,
    "LON": 25.5432236
  },
  "337": {
    "id": 10337,
    "name": "Spitalul Municipal Aiud",
    "address": "",
    "city": "Aiud",
    "state": "Alba",
    "zip": 515200,
    "county": "",
    "phone": "",
    "type": "",
    "ownership": "",
    "emergency": "",
    "quality": "",
    "LAT": 46.3076924,
    "LON": 23.7229517
  },
  "338": {
    "id": 10338,
    "name": "Spitalul Municipal Anghel Saligny Fetesti",
    "address": "",
    "city": "Fetești",
    "state": "",
    "zip": 925100,
    "county": "",
    "phone": "",
    "type": "",
    "ownership": "",
    "emergency": "",
    "quality": "",
    "LAT": 44.4085079,
    "LON": 27.8272396
  },
  "339": {
    "id": 10339,
    "name": "Spitalul Municipal Calafat",
    "address": "Strada Traian 5",
    "city": "Calafat",
    "state": "Dolj",
    "zip": 205200,
    "county": "",
    "phone": 251230606,
    "type": "",
    "ownership": "",
    "emergency": "Yes",
    "quality": "",
    "LAT": 43.9945049,
    "LON": 22.9451648
  },
  "340": {
    "id": 10340,
    "name": "Spitalul Municipal Clinicile Noi",
    "address": "Strada Gheorghe Dima 5",
    "city": "Timișoara",
    "state": "",
    "zip": 300002,
    "county": "",
    "phone": "",
    "type": "",
    "ownership": "",
    "emergency": "Yes",
    "quality": "",
    "LAT": 45.7600362,
    "LON": 21.2267758
  },
  "341": {
    "id": 10341,
    "name": "Spitalul Municipal Curtea de Argeș",
    "address": "Strada Cuza Vodă 6-8",
    "city": "Curtea de Argeș",
    "state": "",
    "zip": 115300,
    "county": "",
    "phone": "",
    "type": "",
    "ownership": "",
    "emergency": "Yes",
    "quality": "",
    "LAT": 45.1497909,
    "LON": 24.678048
  },
  "342": {
    "id": 10342,
    "name": "Spitalul Municipal Câmpina",
    "address": "Bulevardul Carol I 117",
    "city": "Câmpina",
    "state": "Prahova",
    "zip": 105600,
    "county": "",
    "phone": "",
    "type": "",
    "ownership": "",
    "emergency": "Yes",
    "quality": "",
    "LAT": 45.1279657,
    "LON": 25.7324997
  },
  "343": {
    "id": 10343,
    "name": "Spitalul Municipal Dr. Alexandru Simionescu Hunedoara",
    "address": "Strada Victoriei 19",
    "city": "Hunedoara",
    "state": "Hunedoara",
    "zip": 331079,
    "county": "",
    "phone": "",
    "type": "",
    "ownership": "",
    "emergency": "Yes",
    "quality": "",
    "LAT": 45.7505611,
    "LON": 22.9051789
  },
  "344": {
    "id": 10344,
    "name": "Spitalul Municipal Dr. Aurel Tulbure",
    "address": "",
    "city": "Făgăraș",
    "state": "",
    "zip": 505200,
    "county": "",
    "phone": "",
    "type": "",
    "ownership": "",
    "emergency": "Yes",
    "quality": "",
    "LAT": 45.8404604,
    "LON": 24.9586302
  },
  "345": {
    "id": 10345,
    "name": "Spitalul Municipal Fetesti",
    "address": "",
    "city": "Fetești",
    "state": "",
    "zip": 925100,
    "county": "",
    "phone": "",
    "type": "",
    "ownership": "",
    "emergency": "Yes",
    "quality": "",
    "LAT": 44.4087321,
    "LON": 27.8275408
  },
  "346": {
    "id": 10346,
    "name": "Spitalul Municipal Filantropia",
    "address": "Strada Sărarilor 28",
    "city": "Craiova",
    "state": "Dolj",
    "zip": 200516,
    "county": "",
    "phone": "",
    "type": "",
    "ownership": "",
    "emergency": "",
    "quality": "",
    "LAT": 44.3139433,
    "LON": 23.8256429
  },
  "347": {
    "id": 10347,
    "name": "Spitalul Municipal Gherla",
    "address": "",
    "city": "Gherla",
    "state": "Cluj",
    "zip": 405300,
    "county": "",
    "phone": "",
    "type": "",
    "ownership": "",
    "emergency": "Yes",
    "quality": "",
    "LAT": 47.0243802,
    "LON": 23.90393
  },
  "348": {
    "id": 10348,
    "name": "Spitalul Municipal Moinești",
    "address": "",
    "city": "Moinești",
    "state": "Bacău",
    "zip": 605400,
    "county": "",
    "phone": "",
    "type": "",
    "ownership": "",
    "emergency": "Yes",
    "quality": "",
    "LAT": 46.4768969,
    "LON": 26.488253
  },
  "349": {
    "id": 10349,
    "name": "Spitalul Municipal Moreni",
    "address": "",
    "city": "Moreni",
    "state": "",
    "zip": 135300,
    "county": "",
    "phone": "",
    "type": "",
    "ownership": "",
    "emergency": "Yes",
    "quality": "",
    "LAT": 44.9780458,
    "LON": 25.6466378
  },
  "350": {
    "id": 10350,
    "name": "Spitalul Municipal Motru",
    "address": "",
    "city": "Motru",
    "state": "Gorj",
    "zip": 215200,
    "county": "",
    "phone": "",
    "type": "",
    "ownership": "",
    "emergency": "",
    "quality": "",
    "LAT": 44.8034758,
    "LON": 22.97379
  },
  "351": {
    "id": 10351,
    "name": "Spitalul Municipal Odorheiu Secuiesc",
    "address": "",
    "city": "Odorheiu Secuiesc",
    "state": "Harghita",
    "zip": 535600,
    "county": "",
    "phone": "",
    "type": "",
    "ownership": "",
    "emergency": "Yes",
    "quality": "",
    "LAT": 46.3067846,
    "LON": 25.2997939
  },
  "352": {
    "id": 10352,
    "name": "Spitalul Municipal Onești Sfântul Ierarh Doctor Luca",
    "address": "Strada Perchiului 1",
    "city": "Onești",
    "state": "Bacău",
    "zip": "",
    "county": "",
    "phone": 40234323111,
    "type": "",
    "ownership": "",
    "emergency": "",
    "quality": "",
    "LAT": 46.2556671,
    "LON": 26.7645768
  },
  "353": {
    "id": 10353,
    "name": "Spitalul Municipal Profesor Doctor Irinel Popescu",
    "address": "Strada Victoriei 29",
    "city": "Băilești",
    "state": "Dolj",
    "zip": 205100,
    "county": "",
    "phone": "",
    "type": "",
    "ownership": "",
    "emergency": "",
    "quality": "",
    "LAT": 44.0295699,
    "LON": 23.3481571
  },
  "354": {
    "id": 10354,
    "name": "Spitalul Municipal Salonta",
    "address": "",
    "city": "Salonta",
    "state": "Bihor",
    "zip": 415500,
    "county": "",
    "phone": "",
    "type": "",
    "ownership": "",
    "emergency": "",
    "quality": "",
    "LAT": 46.8040383,
    "LON": 21.6687814
  },
  "355": {
    "id": 10355,
    "name": "Spitalul Municipal Satu Mare",
    "address": "",
    "city": "Satu Mare",
    "state": "Satu Mare",
    "zip": 440014,
    "county": "",
    "phone": "",
    "type": "",
    "ownership": "",
    "emergency": "",
    "quality": "",
    "LAT": 47.7985985,
    "LON": 22.8719044
  },
  "356": {
    "id": 10356,
    "name": "Spitalul Municipal Sebeș",
    "address": "",
    "city": "Sebeș",
    "state": "Alba",
    "zip": 515800,
    "county": "",
    "phone": "",
    "type": "",
    "ownership": "",
    "emergency": "Yes",
    "quality": "",
    "LAT": 45.9510827,
    "LON": 23.5684148
  },
  "357": {
    "id": 10357,
    "name": "Spitalul Municipal Sighetul Marmației",
    "address": "",
    "city": "Sighetu Marmației",
    "state": "",
    "zip": 435500,
    "county": "",
    "phone": "",
    "type": "",
    "ownership": "",
    "emergency": "Yes",
    "quality": "",
    "LAT": 47.9270876,
    "LON": 23.8776611
  },
  "358": {
    "id": 10358,
    "name": "Spitalul Municipal Turda",
    "address": "",
    "city": "Turda",
    "state": "Cluj",
    "zip": 401174,
    "county": "",
    "phone": "",
    "type": "",
    "ownership": "",
    "emergency": "",
    "quality": "",
    "LAT": 46.579649,
    "LON": 23.7763439
  },
  "359": {
    "id": 10359,
    "name": "Spitalul Municipal Târgoviște",
    "address": "",
    "city": "Târgoviște",
    "state": "",
    "zip": 130007,
    "county": "",
    "phone": "",
    "type": "",
    "ownership": "",
    "emergency": "",
    "quality": "",
    "LAT": 44.9199663,
    "LON": 25.4575916
  },
  "360": {
    "id": 10360,
    "name": "Spitalul Municipal Urziceni",
    "address": "Strada Teilor 3",
    "city": "Urziceni",
    "state": "",
    "zip": 925300,
    "county": "",
    "phone": "",
    "type": "",
    "ownership": "",
    "emergency": "",
    "quality": "",
    "LAT": 44.7115072,
    "LON": 26.6485576
  },
  "361": {
    "id": 10361,
    "name": "Spitalul Municipal de Urgență",
    "address": "",
    "city": "Caransebeș",
    "state": "",
    "zip": 325400,
    "county": "",
    "phone": "",
    "type": "",
    "ownership": "",
    "emergency": "",
    "quality": "",
    "LAT": 45.4121002,
    "LON": 22.227349
  },
  "362": {
    "id": 10362,
    "name": "Spitalul Municipla Codlea",
    "address": "",
    "city": "Codlea",
    "state": "",
    "zip": 505100,
    "county": "",
    "phone": "",
    "type": "",
    "ownership": "",
    "emergency": "",
    "quality": "",
    "LAT": 45.7024076,
    "LON": 25.4469717
  },
  "363": {
    "id": 10363,
    "name": "Spitalul Mârzescu",
    "address": "",
    "city": "Brașov",
    "state": "",
    "zip": 500030,
    "county": "",
    "phone": "",
    "type": "",
    "ownership": "",
    "emergency": "",
    "quality": "",
    "LAT": 45.6521855,
    "LON": 25.5965809
  },
  "364": {
    "id": 10364,
    "name": "Spitalul Ocna Mureș",
    "address": "",
    "city": "Ocna Mureș",
    "state": "Alba",
    "zip": 515700,
    "county": "",
    "phone": "",
    "type": "",
    "ownership": "",
    "emergency": "",
    "quality": "",
    "LAT": 46.3794467,
    "LON": 23.8604145
  },
  "365": {
    "id": 10365,
    "name": "Spitalul Orasenesc Covasna",
    "address": "",
    "city": "Covasna",
    "state": "Covasna",
    "zip": 525200,
    "county": "",
    "phone": "",
    "type": "",
    "ownership": "",
    "emergency": "",
    "quality": "",
    "LAT": 45.8439523,
    "LON": 26.1623109
  },
  "366": {
    "id": 10366,
    "name": "Spitalul Orășenesc",
    "address": "nan 35",
    "city": "Târgu Neamț",
    "state": "",
    "zip": 615200,
    "county": "",
    "phone": "",
    "type": "",
    "ownership": "",
    "emergency": "",
    "quality": "",
    "LAT": 47.2071905,
    "LON": 26.3578738
  },
  "371": {
    "id": 10371,
    "name": "Spitalul Orășenesc Balș",
    "address": "",
    "city": "Balș",
    "state": "Olt",
    "zip": 235100,
    "county": "",
    "phone": "",
    "type": "",
    "ownership": "",
    "emergency": "",
    "quality": "",
    "LAT": 44.3476232,
    "LON": 24.1144018
  },
  "372": {
    "id": 10372,
    "name": "Spitalul Orășenesc Cugir",
    "address": "",
    "city": "Cugir",
    "state": "Alba",
    "zip": 515600,
    "county": "",
    "phone": "",
    "type": "",
    "ownership": "",
    "emergency": "",
    "quality": "",
    "LAT": 45.8368809,
    "LON": 23.3625885
  },
  "373": {
    "id": 10373,
    "name": "Spitalul Orășenesc Gura Humorului",
    "address": "",
    "city": "Gura Humorului",
    "state": "Suceava",
    "zip": 725300,
    "county": "",
    "phone": "",
    "type": "",
    "ownership": "",
    "emergency": "Yes",
    "quality": "",
    "LAT": 47.5550911,
    "LON": 25.889265
  },
  "374": {
    "id": 10374,
    "name": "Spitalul Orășenesc Hațeg",
    "address": "",
    "city": "Hațeg",
    "state": "Hunedoara",
    "zip": 335500,
    "county": "",
    "phone": "",
    "type": "",
    "ownership": "",
    "emergency": "",
    "quality": "",
    "LAT": 45.6107031,
    "LON": 22.9505373
  },
  "375": {
    "id": 10375,
    "name": "Spitalul Orășenesc Hârlău",
    "address": "Strada Bogdan Vodă 15",
    "city": "Hârlău",
    "state": "",
    "zip": 705100,
    "county": "",
    "phone": "",
    "type": "",
    "ownership": "",
    "emergency": "",
    "quality": "",
    "LAT": 47.4313636,
    "LON": 26.8966852
  },
  "376": {
    "id": 10376,
    "name": "Spitalul Orășenesc Măcin",
    "address": "Strada Mircea Vodă 34",
    "city": "Măcin",
    "state": "Tulcea",
    "zip": 825300,
    "county": "",
    "phone": "",
    "type": "",
    "ownership": "",
    "emergency": "",
    "quality": "",
    "LAT": 45.2455121,
    "LON": 28.1348757
  },
  "377": {
    "id": 10377,
    "name": "Spitalul Orășenesc Nehoiu",
    "address": "",
    "city": "Nehoiu",
    "state": "Buzău",
    "zip": 125100,
    "county": "",
    "phone": "",
    "type": "",
    "ownership": "",
    "emergency": "",
    "quality": "",
    "LAT": 45.4196155,
    "LON": 26.3003905
  },
  "378": {
    "id": 10378,
    "name": "Spitalul Orășenesc Segarcea",
    "address": "Strada Unirii 50",
    "city": "Segarcea",
    "state": "Dolj",
    "zip": 205400,
    "county": "",
    "phone": "",
    "type": "",
    "ownership": "",
    "emergency": "",
    "quality": "",
    "LAT": 44.0992131,
    "LON": 23.7438444
  },
  "379": {
    "id": 10379,
    "name": "Spitalul Orășenesc Slănic",
    "address": "Aleea Spitalului nan",
    "city": "Slănic",
    "state": "Prahova",
    "zip": 237303,
    "county": "",
    "phone": "",
    "type": "",
    "ownership": "",
    "emergency": "",
    "quality": "",
    "LAT": 45.2408451,
    "LON": 25.9395287
  },
  "380": {
    "id": 10380,
    "name": "Spitalul Orășenesc Vălenii de Munte",
    "address": "",
    "city": "Vălenii de Munte",
    "state": "Prahova",
    "zip": 106400,
    "county": "",
    "phone": "",
    "type": "",
    "ownership": "",
    "emergency": "",
    "quality": "",
    "LAT": 45.1774868,
    "LON": 26.0351795
  },
  "381": {
    "id": 10381,
    "name": "Spitalul Orășenesc Ștei",
    "address": "",
    "city": "Ștei",
    "state": "Bihor",
    "zip": 415600,
    "county": "",
    "phone": "",
    "type": "",
    "ownership": "",
    "emergency": "",
    "quality": "",
    "LAT": 46.5355893,
    "LON": 22.4593181
  },
  "382": {
    "id": 10382,
    "name": "Spitalul Panait Sârbu, Maternitate",
    "address": "",
    "city": "București",
    "state": "",
    "zip": 60941,
    "county": "",
    "phone": "",
    "type": "",
    "ownership": "",
    "emergency": "",
    "quality": "",
    "LAT": 44.449826,
    "LON": 26.0599761
  },
  "383": {
    "id": 10383,
    "name": "Spitalul Pelican",
    "address": "",
    "city": "Oradea",
    "state": "Bihor",
    "zip": 410065,
    "county": "",
    "phone": "",
    "type": "",
    "ownership": "",
    "emergency": "",
    "quality": "",
    "LAT": 47.0762803,
    "LON": 21.9161302
  },
  "384": {
    "id": 10384,
    "name": "Spitalul Polizu",
    "address": "Strada Gheorghe Polizu nan",
    "city": "București",
    "state": "",
    "zip": 11062,
    "county": "",
    "phone": "",
    "type": "",
    "ownership": "",
    "emergency": "",
    "quality": "",
    "LAT": 44.4473175,
    "LON": 26.0807139
  },
  "385": {
    "id": 10385,
    "name": "Spitalul Prof. Dr. Constantin Angelescu",
    "address": "Aleea Căuzași 49",
    "city": "București",
    "state": "",
    "zip": 30171,
    "county": "",
    "phone": "",
    "type": "",
    "ownership": "",
    "emergency": "",
    "quality": "",
    "LAT": 44.4278136,
    "LON": 26.1127791
  },
  "386": {
    "id": 10386,
    "name": "Spitalul Reghin",
    "address": "",
    "city": "Reghin",
    "state": "",
    "zip": 545300,
    "county": "",
    "phone": "",
    "type": "",
    "ownership": "",
    "emergency": "",
    "quality": "",
    "LAT": 46.7820885,
    "LON": 24.6948866
  },
  "387": {
    "id": 10387,
    "name": "Spitalul Sfântul Constantin",
    "address": "",
    "city": "Brașov",
    "state": "",
    "zip": 500030,
    "county": "",
    "phone": "",
    "type": "",
    "ownership": "",
    "emergency": "",
    "quality": "",
    "LAT": 45.6512104,
    "LON": 25.6062565
  },
  "388": {
    "id": 10388,
    "name": "Spitalul Sfântul Sava Buzău",
    "address": "Strada Crizantemelor 5",
    "city": "Buzău",
    "state": "Buzău",
    "zip": 120194,
    "county": "",
    "phone": "0238 712 607",
    "type": "",
    "ownership": "",
    "emergency": "",
    "quality": "",
    "LAT": 45.1492302,
    "LON": 26.8227071
  },
  "389": {
    "id": 10389,
    "name": "Spitalul TBC",
    "address": "",
    "city": "Sighișoara",
    "state": "",
    "zip": 545400,
    "county": "",
    "phone": "",
    "type": "",
    "ownership": "",
    "emergency": "",
    "quality": "",
    "LAT": 46.2231891,
    "LON": 24.794438
  },
  "391": {
    "id": 10391,
    "name": "Spitalul TBC Sf Andrei",
    "address": "",
    "city": "Valea Iașului",
    "state": "",
    "zip": 117795,
    "county": "",
    "phone": "",
    "type": "",
    "ownership": "",
    "emergency": "",
    "quality": "",
    "LAT": 45.186688,
    "LON": 24.6907266
  },
  "392": {
    "id": 10392,
    "name": "Spitalul TBC Titu Maiorescu",
    "address": "",
    "city": "Ghimpați",
    "state": "Giurgiu",
    "zip": 87095,
    "county": "",
    "phone": "",
    "type": "",
    "ownership": "",
    "emergency": "",
    "quality": "",
    "LAT": 44.189827,
    "LON": 25.7840465
  },
  "393": {
    "id": 10393,
    "name": "Spitalul Tractorul",
    "address": "Strada Olteț 2",
    "city": "Brașov",
    "state": "",
    "zip": 500030,
    "county": "",
    "phone": "",
    "type": "",
    "ownership": "",
    "emergency": "",
    "quality": "",
    "LAT": 45.665722,
    "LON": 25.6076391
  },
  "394": {
    "id": 10394,
    "name": "Spitalul Universitar de Urgență Militar Central „Dr. Carol Davila”",
    "address": "Calea Plevnei 134",
    "city": "București",
    "state": "",
    "zip": 60941,
    "county": "",
    "phone": "",
    "type": "",
    "ownership": "",
    "emergency": "Yes",
    "quality": "",
    "LAT": 44.4420564,
    "LON": 26.0718695
  },
  "395": {
    "id": 10395,
    "name": "Spitalul Vechi",
    "address": "",
    "city": "Suceava",
    "state": "Suceava",
    "zip": 720224,
    "county": "",
    "phone": "",
    "type": "",
    "ownership": "",
    "emergency": "",
    "quality": "",
    "LAT": 47.6374988,
    "LON": 26.2420041
  },
  "398": {
    "id": 10398,
    "name": "Spitalul Vișeu",
    "address": "",
    "city": "Vișeul de Sus",
    "state": "",
    "zip": 435700,
    "county": "",
    "phone": "",
    "type": "",
    "ownership": "",
    "emergency": "",
    "quality": "",
    "LAT": 47.7100659,
    "LON": 24.4256596
  },
  "399": {
    "id": 10399,
    "name": "Spitalul clinic de copii \"dr. Victor Gomoiu",
    "address": "",
    "city": "București",
    "state": "",
    "zip": 23571,
    "county": "",
    "phone": "",
    "type": "",
    "ownership": "",
    "emergency": "",
    "quality": "",
    "LAT": 44.4331945,
    "LON": 26.1420128
  },
  "400": {
    "id": 10400,
    "name": "Spitalul clinic de ginecologie Dr. Ioan Aurel Sbârcea - Brașov",
    "address": "Strada George Barițiu 36",
    "city": "Brașov",
    "state": "",
    "zip": 500030,
    "county": "",
    "phone": "",
    "type": "",
    "ownership": "",
    "emergency": "",
    "quality": "",
    "LAT": 45.6405517,
    "LON": 25.5848622
  },
  "401": {
    "id": 10401,
    "name": "Spitalul clinic de urgență pentru copii „Sfânta Maria”",
    "address": "Strada Vasile Lupu 62",
    "city": "Iași",
    "state": "",
    "zip": 700309,
    "county": "",
    "phone": "+40 232 264266",
    "type": "",
    "ownership": "",
    "emergency": "Yes",
    "quality": "",
    "LAT": 47.1598106,
    "LON": 27.606047
  },
  "402": {
    "id": 10402,
    "name": "Spitalul de Boli Cronice și Geriatrie Sfântul Luca",
    "address": "",
    "city": "București",
    "state": "",
    "zip": "",
    "county": "",
    "phone": "",
    "type": "",
    "ownership": "",
    "emergency": "",
    "quality": "",
    "LAT": 44.3838258,
    "LON": 26.1295504
  },
  "403": {
    "id": 10403,
    "name": "Spitalul de Boli Infecțioase",
    "address": "",
    "city": "Bârlad",
    "state": "Vaslui",
    "zip": "",
    "county": "",
    "phone": "",
    "type": "",
    "ownership": "",
    "emergency": "",
    "quality": "",
    "LAT": 46.2357028,
    "LON": 27.6705988
  },
  "408": {
    "id": 10408,
    "name": "Spitalul de Boli Psihice Cronice Borșa",
    "address": "",
    "city": "Borșa",
    "state": "Cluj",
    "zip": 407110,
    "county": "",
    "phone": "",
    "type": "",
    "ownership": "",
    "emergency": "",
    "quality": "",
    "LAT": 46.9328793,
    "LON": 23.6558411
  },
  "409": {
    "id": 10409,
    "name": "Spitalul de Boli infecțioase (copii)",
    "address": "",
    "city": "Sibiu",
    "state": "Sibiu",
    "zip": 550009,
    "county": "",
    "phone": "",
    "type": "",
    "ownership": "",
    "emergency": "",
    "quality": "",
    "LAT": 45.7907001,
    "LON": 24.1396102
  },
  "410": {
    "id": 10410,
    "name": "Spitalul de Bătrâni",
    "address": "",
    "city": "Teaca",
    "state": "",
    "zip": 427345,
    "county": "",
    "phone": "",
    "type": "",
    "ownership": "",
    "emergency": "",
    "quality": "",
    "LAT": 46.911615,
    "LON": 24.5048595
  },
  "411": {
    "id": 10411,
    "name": "Spitalul de Chimilogie",
    "address": "",
    "city": "Muereasca",
    "state": "Vâlcea",
    "zip": 247411,
    "county": "",
    "phone": "",
    "type": "",
    "ownership": "",
    "emergency": "No",
    "quality": "",
    "LAT": 45.2001425,
    "LON": 24.2956288
  },
  "412": {
    "id": 10412,
    "name": "Spitalul de Copii Sfântul Nicolae",
    "address": "",
    "city": "Bârlad",
    "state": "Vaslui",
    "zip": 731126,
    "county": "",
    "phone": "",
    "type": "",
    "ownership": "",
    "emergency": "",
    "quality": "",
    "LAT": 46.2406856,
    "LON": 27.6705296
  },
  "413": {
    "id": 10413,
    "name": "Spitalul de Neurologie și Psihiatrie Carol Davila",
    "address": "FIXME 1-3",
    "city": "Alba Iulia",
    "state": "Alba",
    "zip": 510009,
    "county": "",
    "phone": "",
    "type": "",
    "ownership": "",
    "emergency": "",
    "quality": "",
    "LAT": 46.0694495,
    "LON": 23.5693592
  },
  "414": {
    "id": 10414,
    "name": "Spitalul de Neuropsihiatrie",
    "address": "",
    "city": "Ștei",
    "state": "Bihor",
    "zip": 415600,
    "county": "",
    "phone": "",
    "type": "",
    "ownership": "",
    "emergency": "",
    "quality": "",
    "LAT": 46.5480368,
    "LON": 22.4652181
  },
  "415": {
    "id": 10415,
    "name": "Spitalul de Neuropsihiatrie Săpoca",
    "address": "",
    "city": "Săpoca",
    "state": "Buzău",
    "zip": 127540,
    "county": "",
    "phone": "",
    "type": "",
    "ownership": "",
    "emergency": "",
    "quality": "",
    "LAT": 45.2379591,
    "LON": 26.7455858
  },
  "416": {
    "id": 10416,
    "name": "Spitalul de Obstetrică și Ginecologie",
    "address": "Bulevardul Independenței 296",
    "city": "Brăila",
    "state": "Brăila",
    "zip": 810108,
    "county": "",
    "phone": "",
    "type": "",
    "ownership": "",
    "emergency": "",
    "quality": "",
    "LAT": 45.280282,
    "LON": 27.9727262
  },
  "418": {
    "id": 10418,
    "name": "Spitalul de Ortopedie MedLife",
    "address": "Bulevardul Ferdinand I 98-100",
    "city": "București",
    "state": "",
    "zip": 23571,
    "county": "",
    "phone": "",
    "type": "",
    "ownership": "",
    "emergency": "",
    "quality": "",
    "LAT": 44.4429344,
    "LON": 26.1279705
  },
  "419": {
    "id": 10419,
    "name": "Spitalul de Pediatrie \"Luther",
    "address": "",
    "city": "Sibiu",
    "state": "Sibiu",
    "zip": 550009,
    "county": "",
    "phone": "",
    "type": "",
    "ownership": "",
    "emergency": "",
    "quality": "",
    "LAT": 45.7930512,
    "LON": 24.1474232
  },
  "420": {
    "id": 10420,
    "name": "Spitalul de Pediatrie Pitești",
    "address": "Bulevardul Eroilor 1",
    "city": "Pitești",
    "state": "",
    "zip": 110416,
    "county": "",
    "phone": "",
    "type": "",
    "ownership": "",
    "emergency": "Yes",
    "quality": "",
    "LAT": 44.8503574,
    "LON": 24.865557
  },
  "421": {
    "id": 10421,
    "name": "Spitalul de Pneumoftiziologie",
    "address": "Strada Trandafirilor 24",
    "city": "Botoșani",
    "state": "",
    "zip": 710357,
    "county": "",
    "phone": "0231-584083",
    "type": "",
    "ownership": "",
    "emergency": "Yes",
    "quality": "",
    "LAT": 47.7351407,
    "LON": 26.6639864
  },
  "424": {
    "id": 10424,
    "name": "Spitalul de Pneumoftiziologie Galați, TBC",
    "address": "Strada Științei 117",
    "city": "Galați",
    "state": "",
    "zip": 800170,
    "county": "",
    "phone": "",
    "type": "",
    "ownership": "",
    "emergency": "",
    "quality": "",
    "LAT": 45.4564206,
    "LON": 28.0436175
  },
  "425": {
    "id": 10425,
    "name": "Spitalul de Pneumoftiziologie Marius Nasta",
    "address": "",
    "city": "București",
    "state": "",
    "zip": 51521,
    "county": "",
    "phone": "",
    "type": "",
    "ownership": "",
    "emergency": "",
    "quality": "",
    "LAT": 44.4066722,
    "LON": 26.0932848
  },
  "426": {
    "id": 10426,
    "name": "Spitalul de Pneumoftiziologie Sfântul Ștefan",
    "address": "Strada Dinu Vintilă 1",
    "city": "București",
    "state": "",
    "zip": 23571,
    "county": "",
    "phone": "",
    "type": "",
    "ownership": "",
    "emergency": "",
    "quality": "",
    "LAT": 44.4538434,
    "LON": 26.1052969
  },
  "427": {
    "id": 10427,
    "name": "Spitalul de Psihiatrie",
    "address": "Strada I.C. Brătianu 116",
    "city": "Botoșani",
    "state": "",
    "zip": 710357,
    "county": "",
    "phone": "",
    "type": "",
    "ownership": "",
    "emergency": "Yes",
    "quality": "",
    "LAT": 47.7329011,
    "LON": 26.6903534
  },
  "430": {
    "id": 10430,
    "name": "Spitalul de Psihiatrie \"Dr. Gheorghe Preda",
    "address": "",
    "city": "Sibiu",
    "state": "Sibiu",
    "zip": 550009,
    "county": "",
    "phone": "",
    "type": "",
    "ownership": "",
    "emergency": "",
    "quality": "",
    "LAT": 45.8086656,
    "LON": 24.1548904
  },
  "431": {
    "id": 10431,
    "name": "Spitalul de Psihiatrie Cronici Schitu Greci",
    "address": "Strada Satul Nou 2",
    "city": "Schitu",
    "state": "Olt",
    "zip": 237400,
    "county": "",
    "phone": "",
    "type": "",
    "ownership": "",
    "emergency": "",
    "quality": "",
    "LAT": 44.3195055,
    "LON": 24.5454771
  },
  "432": {
    "id": 10432,
    "name": "Spitalul de Psihiatrie Palazu Mare",
    "address": "Strada Santinelei 27-29",
    "city": "Constanța",
    "state": "",
    "zip": 900002,
    "county": "",
    "phone": "",
    "type": "",
    "ownership": "",
    "emergency": "",
    "quality": "",
    "LAT": 44.2338519,
    "LON": 28.5987839
  },
  "433": {
    "id": 10433,
    "name": "Spitalul de Psihiatrie Poiana Mare",
    "address": "Strada Gării 40",
    "city": "Poiana Mare",
    "state": "Dolj",
    "zip": 207470,
    "county": "",
    "phone": "0251/23.52.99",
    "type": "",
    "ownership": "",
    "emergency": "Yes",
    "quality": "",
    "LAT": 43.9324865,
    "LON": 23.0670924
  },
  "434": {
    "id": 10434,
    "name": "Spitalul de Psihiatrie Sapoca",
    "address": "",
    "city": "Măgura",
    "state": "Buzău",
    "zip": 127320,
    "county": "",
    "phone": "",
    "type": "",
    "ownership": "",
    "emergency": "",
    "quality": "",
    "LAT": 45.2622106,
    "LON": 26.5543271
  },
  "435": {
    "id": 10435,
    "name": "Spitalul de Psihiatrie Sânpetru",
    "address": "DJ103 nan",
    "city": "Sânpetru",
    "state": "",
    "zip": 507190,
    "county": "",
    "phone": "",
    "type": "",
    "ownership": "",
    "emergency": "",
    "quality": "",
    "LAT": 45.7291003,
    "LON": 25.6280328
  },
  "436": {
    "id": 10436,
    "name": "Spitalul de Recuperare Sfântul Gheorghe",
    "address": "Calea Națională 2",
    "city": "Botoșani",
    "state": "",
    "zip": 710357,
    "county": "",
    "phone": "",
    "type": "",
    "ownership": "",
    "emergency": "",
    "quality": "",
    "LAT": 47.7538363,
    "LON": 26.6364006
  },
  "437": {
    "id": 10437,
    "name": "Spitalul de Urgenta Prof. Dr. Agrippa Ionescu",
    "address": "",
    "city": "București",
    "state": "",
    "zip": 11358,
    "county": "",
    "phone": "",
    "type": "",
    "ownership": "",
    "emergency": "",
    "quality": "",
    "LAT": 44.4588319,
    "LON": 26.0795122
  },
  "438": {
    "id": 10438,
    "name": "Spitalul de Urgență",
    "address": "Strada 1 Decembrie 1918 137 A",
    "city": "Petroșani",
    "state": "Hunedoara",
    "zip": 332019,
    "county": "",
    "phone": "",
    "type": "",
    "ownership": "",
    "emergency": "Yes",
    "quality": "",
    "LAT": 45.4072619,
    "LON": 23.3761181
  },
  "440": {
    "id": 10440,
    "name": "Spitalul de Urgență \"Prof. Dr. Dimitrie Gerota",
    "address": "",
    "city": "București",
    "state": "",
    "zip": 23571,
    "county": "",
    "phone": "",
    "type": "",
    "ownership": "",
    "emergency": "",
    "quality": "",
    "LAT": 44.4411881,
    "LON": 26.123447
  },
  "441": {
    "id": 10441,
    "name": "Spitalul de Urgență Elena Beldiman",
    "address": "",
    "city": "Bârlad",
    "state": "Vaslui",
    "zip": 731128,
    "county": "",
    "phone": "",
    "type": "",
    "ownership": "",
    "emergency": "",
    "quality": "",
    "LAT": 46.2374112,
    "LON": 27.6723089
  },
  "442": {
    "id": 10442,
    "name": "Spitalul de Urgență Floreasca",
    "address": "",
    "city": "București",
    "state": "",
    "zip": "",
    "county": "",
    "phone": "",
    "type": "",
    "ownership": "",
    "emergency": "",
    "quality": "",
    "LAT": 44.4537529,
    "LON": 26.1021733
  },
  "443": {
    "id": 10443,
    "name": "Spitalul de copii",
    "address": "",
    "city": "Gherla",
    "state": "Cluj",
    "zip": 405300,
    "county": "",
    "phone": "",
    "type": "",
    "ownership": "",
    "emergency": "",
    "quality": "",
    "LAT": 47.0283363,
    "LON": 23.9067
  },
  "444": {
    "id": 10444,
    "name": "Spitalul de pneumoftiziologie Călărași",
    "address": "",
    "city": "Călărași",
    "state": "",
    "zip": 910014,
    "county": "",
    "phone": "",
    "type": "",
    "ownership": "",
    "emergency": "",
    "quality": "",
    "LAT": 44.1940451,
    "LON": 27.3517285
  },
  "445": {
    "id": 10445,
    "name": "Spitalul de psihiatrie \"Elisabeta Doamna",
    "address": "Strada Traian 290",
    "city": "Galați",
    "state": "",
    "zip": 800194,
    "county": "",
    "phone": "",
    "type": "",
    "ownership": "",
    "emergency": "",
    "quality": "",
    "LAT": 45.4606879,
    "LON": 28.038236
  },
  "446": {
    "id": 10446,
    "name": "Spitalul de psihiatrie \"Sf. Pantelimon",
    "address": "",
    "city": "Brăila",
    "state": "Brăila",
    "zip": 810238,
    "county": "",
    "phone": "",
    "type": "",
    "ownership": "",
    "emergency": "",
    "quality": "",
    "LAT": 45.2608394,
    "LON": 27.9650158
  },
  "447": {
    "id": 10447,
    "name": "Spitalul de urgente Mavromati",
    "address": "Strada Tudor Vladimirescu 2",
    "city": "Darabani",
    "state": "",
    "zip": 715100,
    "county": "",
    "phone": "",
    "type": "",
    "ownership": "",
    "emergency": "Yes",
    "quality": "",
    "LAT": 48.1840634,
    "LON": 26.5911799
  },
  "448": {
    "id": 10448,
    "name": "Spitalul din Cochirleanca",
    "address": "",
    "city": "Cochirleanca",
    "state": "Buzău",
    "zip": 127190,
    "county": "",
    "phone": "",
    "type": "",
    "ownership": "",
    "emergency": "Yes",
    "quality": "",
    "LAT": 45.210952,
    "LON": 27.0353715
  },
  "449": {
    "id": 10449,
    "name": "Spitalul orășenesc Sinaia",
    "address": "",
    "city": "Sinaia",
    "state": "Prahova",
    "zip": 106100,
    "county": "",
    "phone": "",
    "type": "",
    "ownership": "",
    "emergency": "",
    "quality": "",
    "LAT": 45.3336756,
    "LON": 25.5545989
  },
  "450": {
    "id": 10450,
    "name": "Spitalul pentru ocrotirea mamei și copilului \"Prof. Dr. Alfred Rusescu",
    "address": "",
    "city": "București",
    "state": "",
    "zip": 23571,
    "county": "",
    "phone": "",
    "type": "",
    "ownership": "",
    "emergency": "",
    "quality": "",
    "LAT": 44.4629338,
    "LON": 26.1222944
  },
  "451": {
    "id": 10451,
    "name": "Spitalul Întorsura Buzăului",
    "address": "",
    "city": "Întorsura Buzăului",
    "state": "Covasna",
    "zip": 525300,
    "county": "",
    "phone": "",
    "type": "",
    "ownership": "",
    "emergency": "No",
    "quality": "",
    "LAT": 45.6740624,
    "LON": 26.0392969
  },
  "452": {
    "id": 10452,
    "name": "Spitalul “Dr.Caius Tiberiu Sparchez",
    "address": "Strada Policlinicii 12",
    "city": "Zărnești",
    "state": "",
    "zip": 505800,
    "county": "",
    "phone": "",
    "type": "",
    "ownership": "",
    "emergency": "Yes",
    "quality": "",
    "LAT": 45.5703501,
    "LON": 25.3362916
  },
  "453": {
    "id": 10453,
    "name": "Spitalului Județean de Urgență Bacău",
    "address": "",
    "city": "Bacău",
    "state": "Bacău",
    "zip": 600114,
    "county": "",
    "phone": "",
    "type": "",
    "ownership": "",
    "emergency": "",
    "quality": "",
    "LAT": 46.5556937,
    "LON": 26.9095989
  },
  "454": {
    "id": 10454,
    "name": "Stație Salvare",
    "address": "",
    "city": "Constanța",
    "state": "",
    "zip": 900270,
    "county": "",
    "phone": "",
    "type": "",
    "ownership": "",
    "emergency": "",
    "quality": "",
    "LAT": 44.1725392,
    "LON": 28.6212121
  },
  "455": {
    "id": 10455,
    "name": "Stomatologie",
    "address": "",
    "city": "Petroșani",
    "state": "Hunedoara",
    "zip": 332019,
    "county": "",
    "phone": "",
    "type": "",
    "ownership": "",
    "emergency": "",
    "quality": "",
    "LAT": 45.4081015,
    "LON": 23.3772517
  },
  "456": {
    "id": 10456,
    "name": "Unitatea Primire Urgențe UPU",
    "address": "Strada Clinicilor nan",
    "city": "Cluj-Napoca",
    "state": "Cluj",
    "zip": 400006,
    "county": "",
    "phone": "",
    "type": "",
    "ownership": "",
    "emergency": "Yes",
    "quality": "",
    "LAT": 46.7657361,
    "LON": 23.5831362
  },
  "457": {
    "id": 10457,
    "name": "Zerlendi",
    "address": "",
    "city": "București",
    "state": "",
    "zip": 40591,
    "county": "",
    "phone": "",
    "type": "",
    "ownership": "",
    "emergency": "",
    "quality": "",
    "LAT": 44.4101975,
    "LON": 26.1013732
  },
  "458": {
    "id": 10458,
    "name": "farmacie veterinara",
    "address": "Strada Ceferiștilor 29",
    "city": "Pașcani",
    "state": "",
    "zip": 705200,
    "county": "",
    "phone": "",
    "type": "",
    "ownership": "",
    "emergency": "No",
    "quality": "",
    "LAT": 47.2560976,
    "LON": 26.7208341
  },
  "459": {
    "id": 10459,
    "name": "Cabinet Individual de Psihologie Orlandea Laura",
    "address": "Strada Mirăslău 5",
    "city": "Sibiu",
    "state": "Sibiu",
    "zip": 550009,
    "county": "",
    "phone": "0740 054 004",
    "type": "",
    "ownership": "",
    "emergency": "",
    "quality": "",
    "LAT": 45.7855264,
    "LON": 24.1576515
  },
  "461": {
    "id": 10461,
    "name": "Cabinet Medical Dr. Avgherino Silvia",
    "address": "Strada Principală 46",
    "city": "Traian",
    "state": "Brăila",
    "zip": 817178,
    "county": "",
    "phone": "",
    "type": "",
    "ownership": "",
    "emergency": "",
    "quality": "",
    "LAT": 45.1370176,
    "LON": 27.6461962
  },
  "462": {
    "id": 10462,
    "name": "Cabinet Medical Dr. Stancu Dorina",
    "address": "Strada Martir Constantin Radu 18B",
    "city": "Timișoara",
    "state": "",
    "zip": 300002,
    "county": "",
    "phone": "",
    "type": "",
    "ownership": "",
    "emergency": "",
    "quality": "",
    "LAT": 45.7264556,
    "LON": 21.2677032
  },
  "463": {
    "id": 10463,
    "name": "Cabinet Medical Dr. Stoian",
    "address": "Calea Buziașului 84",
    "city": "Timișoara",
    "state": "",
    "zip": 300002,
    "county": "",
    "phone": "",
    "type": "",
    "ownership": "",
    "emergency": "",
    "quality": "",
    "LAT": 45.7284488,
    "LON": 21.2708417
  },
  "464": {
    "id": 10464,
    "name": "Cabinet Medical Neurologie Doctor Pereanu Marcel",
    "address": "Strada Patrioților 7",
    "city": "Sibiu",
    "state": "Sibiu",
    "zip": 550009,
    "county": "",
    "phone": "+40 269 215050",
    "type": "",
    "ownership": "",
    "emergency": "",
    "quality": "",
    "LAT": 45.8008397,
    "LON": 24.1390502
  },
  "465": {
    "id": 10465,
    "name": "Cabinet Medical Sânpaul (1966)",
    "address": "",
    "city": "Sânpaul",
    "state": "Cluj",
    "zip": 407530,
    "county": "",
    "phone": "",
    "type": "",
    "ownership": "",
    "emergency": "",
    "quality": "",
    "LAT": 46.8752476,
    "LON": 23.4166058
  },
  "466": {
    "id": 10466,
    "name": "Cabinet individual dr. Oae Dora Ioana",
    "address": "",
    "city": "Arefu",
    "state": "",
    "zip": 117040,
    "county": "",
    "phone": "",
    "type": "",
    "ownership": "",
    "emergency": "",
    "quality": "",
    "LAT": 45.3305226,
    "LON": 24.6090215
  },
  "468": {
    "id": 10468,
    "name": "Cabinet medical - dermato-venerologie",
    "address": "",
    "city": "Făgăraș",
    "state": "",
    "zip": 505200,
    "county": "",
    "phone": 40268333825,
    "type": "",
    "ownership": "",
    "emergency": "",
    "quality": "",
    "LAT": 45.8479038,
    "LON": 24.9689772
  },
  "469": {
    "id": 10469,
    "name": "Cabinet medical medicină generală dr. David Maria",
    "address": "Strada Aluniș 38",
    "city": "Timișoara",
    "state": "",
    "zip": 300002,
    "county": "",
    "phone": "",
    "type": "",
    "ownership": "",
    "emergency": "",
    "quality": "",
    "LAT": 45.7233641,
    "LON": 21.2277498
  },
  "470": {
    "id": 10470,
    "name": "Cabinete Medicale",
    "address": "",
    "city": "Murfatlar",
    "state": "",
    "zip": 905100,
    "county": "",
    "phone": "",
    "type": "",
    "ownership": "",
    "emergency": "",
    "quality": "",
    "LAT": 44.1754483,
    "LON": 28.4153475
  },
  "471": {
    "id": 10471,
    "name": "Cabinete medicale individuale",
    "address": "",
    "city": "Iași",
    "state": "",
    "zip": 700321,
    "county": "",
    "phone": "",
    "type": "",
    "ownership": "",
    "emergency": "",
    "quality": "",
    "LAT": 47.1614104,
    "LON": 27.6157733
  },
  "472": {
    "id": 10472,
    "name": "Centrul Medical Cardiomed",
    "address": "",
    "city": "Iași",
    "state": "",
    "zip": 700687,
    "county": "",
    "phone": "",
    "type": "",
    "ownership": "",
    "emergency": "",
    "quality": "",
    "LAT": 47.1359392,
    "LON": 27.5714699
  },
  "473": {
    "id": 10473,
    "name": "Centrul de plasament Iași",
    "address": "",
    "city": "Iași",
    "state": "",
    "zip": 700349,
    "county": "",
    "phone": "",
    "type": "",
    "ownership": "",
    "emergency": "",
    "quality": "",
    "LAT": 47.160078,
    "LON": 27.6117546
  },
  "474": {
    "id": 10474,
    "name": "Centul Medical Sanovil",
    "address": "Strada 1 Decembrie 1918 12",
    "city": "Beclean",
    "state": "",
    "zip": 425100,
    "county": "",
    "phone": "",
    "type": "",
    "ownership": "",
    "emergency": "",
    "quality": "",
    "LAT": 47.1814964,
    "LON": 24.1819892
  },
  "475": {
    "id": 10475,
    "name": "Clinica Pedilife & Sanoptic",
    "address": "",
    "city": "Iași",
    "state": "",
    "zip": 700313,
    "county": "",
    "phone": "",
    "type": "",
    "ownership": "",
    "emergency": "",
    "quality": "",
    "LAT": 47.1591447,
    "LON": 27.6025583
  },
  "476": {
    "id": 10476,
    "name": "Clinică",
    "address": "",
    "city": "Deva",
    "state": "Hunedoara",
    "zip": 330088,
    "county": "",
    "phone": "",
    "type": "",
    "ownership": "",
    "emergency": "",
    "quality": "",
    "LAT": 45.8748211,
    "LON": 22.9111083
  },
  "477": {
    "id": 10477,
    "name": "Complex Hidroterapeutic Baia Sărată",
    "address": "",
    "city": "Deva",
    "state": "Hunedoara",
    "zip": 330088,
    "county": "",
    "phone": "",
    "type": "",
    "ownership": "",
    "emergency": "",
    "quality": "",
    "LAT": 45.8927698,
    "LON": 22.8995401
  },
  "487": {
    "id": 10487,
    "name": "Dispensar Iclod",
    "address": "",
    "city": "Iclod",
    "state": "Cluj",
    "zip": 407335,
    "county": "",
    "phone": "",
    "type": "",
    "ownership": "",
    "emergency": "",
    "quality": "",
    "LAT": 46.9847161,
    "LON": 23.8105293
  },
  "488": {
    "id": 10488,
    "name": "Dispensar Loamneș",
    "address": "",
    "city": "Loamneș",
    "state": "Sibiu",
    "zip": 557124,
    "county": "",
    "phone": "",
    "type": "",
    "ownership": "",
    "emergency": "",
    "quality": "",
    "LAT": 45.9323116,
    "LON": 24.0742223
  },
  "489": {
    "id": 10489,
    "name": "Dispensar Mila 23",
    "address": "",
    "city": "Nufăru",
    "state": "Tulcea",
    "zip": 827171,
    "county": "",
    "phone": "",
    "type": "",
    "ownership": "",
    "emergency": "",
    "quality": "",
    "LAT": 45.2290043,
    "LON": 29.2478511
  },
  "490": {
    "id": 10490,
    "name": "Dispensar Muereasca",
    "address": "",
    "city": "Muereasca",
    "state": "Vâlcea",
    "zip": 247405,
    "county": "",
    "phone": "",
    "type": "",
    "ownership": "",
    "emergency": "",
    "quality": "",
    "LAT": 45.18695,
    "LON": 24.3175237
  },
  "491": {
    "id": 10491,
    "name": "Dispensar Ohaba-Mâtnic",
    "address": "",
    "city": "Copăcele",
    "state": "",
    "zip": 327101,
    "county": "",
    "phone": "",
    "type": "",
    "ownership": "",
    "emergency": "",
    "quality": "",
    "LAT": 45.470284,
    "LON": 22.0776293
  },
  "492": {
    "id": 10492,
    "name": "Dispensar Sânpaul (1963)",
    "address": "",
    "city": "Sânpaul",
    "state": "Cluj",
    "zip": 407530,
    "county": "",
    "phone": "",
    "type": "",
    "ownership": "",
    "emergency": "",
    "quality": "",
    "LAT": 46.8699342,
    "LON": 23.4120394
  },
  "494": {
    "id": 10494,
    "name": "Dispensar clinic uman",
    "address": "",
    "city": "Noșlac",
    "state": "Alba",
    "zip": 517515,
    "county": "",
    "phone": "",
    "type": "",
    "ownership": "",
    "emergency": "",
    "quality": "",
    "LAT": 46.4050244,
    "LON": 23.9330714
  },
  "495": {
    "id": 10495,
    "name": "Dispensar medical",
    "address": "",
    "city": "Cetatea de Baltă",
    "state": "Alba",
    "zip": 517235,
    "county": "",
    "phone": "",
    "type": "",
    "ownership": "",
    "emergency": "",
    "quality": "",
    "LAT": 46.2466545,
    "LON": 24.1718657
  },
  "496": {
    "id": 10496,
    "name": "Dispensar medical Galda de Jos",
    "address": "",
    "city": "Galda de Jos",
    "state": "Alba",
    "zip": 517285,
    "county": "",
    "phone": "",
    "type": "",
    "ownership": "",
    "emergency": "",
    "quality": "",
    "LAT": 46.1787346,
    "LON": 23.6202858
  },
  "497": {
    "id": 10497,
    "name": "Dispensar medical Ighiu",
    "address": "",
    "city": "Ighiu",
    "state": "Alba",
    "zip": 517360,
    "county": "",
    "phone": "",
    "type": "",
    "ownership": "",
    "emergency": "",
    "quality": "",
    "LAT": 46.1445594,
    "LON": 23.517889
  },
  "498": {
    "id": 10498,
    "name": "Dispensarul Chirpăr",
    "address": "",
    "city": "Chirpăr",
    "state": "Sibiu",
    "zip": 557080,
    "county": "",
    "phone": "",
    "type": "",
    "ownership": "",
    "emergency": "",
    "quality": "",
    "LAT": 45.893206,
    "LON": 24.5980397
  },
  "499": {
    "id": 10499,
    "name": "Dispensarul Medical Ardeleni",
    "address": "",
    "city": "București",
    "state": "",
    "zip": 23571,
    "county": "",
    "phone": "",
    "type": "",
    "ownership": "",
    "emergency": "",
    "quality": "",
    "LAT": 44.4455956,
    "LON": 26.1195727
  },
  "500": {
    "id": 10500,
    "name": "Dispensarul Medical Roșia Montană",
    "address": "",
    "city": "Roșia Montană",
    "state": "Alba",
    "zip": 517615,
    "county": "",
    "phone": "",
    "type": "",
    "ownership": "",
    "emergency": "",
    "quality": "",
    "LAT": 46.3056743,
    "LON": 23.1314427
  },
  "501": {
    "id": 10501,
    "name": "Dispnesar",
    "address": "",
    "city": "Boița",
    "state": "Sibiu",
    "zip": 555701,
    "county": "",
    "phone": "",
    "type": "",
    "ownership": "",
    "emergency": "",
    "quality": "",
    "LAT": 45.6339179,
    "LON": 24.2593701
  },
  "502": {
    "id": 10502,
    "name": "Dr. Popescu Alexandru",
    "address": "Strada Ciprian Porumbescu 1",
    "city": "Sibiu",
    "state": "Sibiu",
    "zip": 550009,
    "county": "",
    "phone": "+40 269 232 540",
    "type": "",
    "ownership": "",
    "emergency": "",
    "quality": "",
    "LAT": 45.773862,
    "LON": 24.1376995
  },
  "503": {
    "id": 10503,
    "name": "Hipocrat",
    "address": "",
    "city": "Brașov",
    "state": "",
    "zip": 500030,
    "county": "",
    "phone": "",
    "type": "",
    "ownership": "",
    "emergency": "",
    "quality": "",
    "LAT": 45.652731,
    "LON": 25.5996993
  },
  "504": {
    "id": 10504,
    "name": "Medicotest",
    "address": "Bulevardul Brăilei 136C",
    "city": "Galați",
    "state": "",
    "zip": 800365,
    "county": "",
    "phone": "",
    "type": "",
    "ownership": "",
    "emergency": "",
    "quality": "",
    "LAT": 45.4289714,
    "LON": 28.0283938
  },
  "505": {
    "id": 10505,
    "name": "Medlife",
    "address": "Strada Moldovei 6",
    "city": "Brașov",
    "state": "",
    "zip": 500030,
    "county": "",
    "phone": "",
    "type": "",
    "ownership": "",
    "emergency": "",
    "quality": "",
    "LAT": 45.656949,
    "LON": 25.6073344
  },
  "506": {
    "id": 10506,
    "name": "Mocanu",
    "address": "",
    "city": "Boroaia",
    "state": "Suceava",
    "zip": 727040,
    "county": "",
    "phone": "",
    "type": "",
    "ownership": "",
    "emergency": "",
    "quality": "",
    "LAT": 47.3498869,
    "LON": 26.3359343
  },
  "508": {
    "id": 10508,
    "name": "Policlinica Cantemir",
    "address": "",
    "city": "Iași",
    "state": "",
    "zip": 700233,
    "county": "",
    "phone": "",
    "type": "",
    "ownership": "",
    "emergency": "",
    "quality": "",
    "LAT": 47.1497477,
    "LON": 27.580214
  },
  "509": {
    "id": 10509,
    "name": "Policlinica Cetatea Histria",
    "address": "Strada Cetatea Histria nan",
    "city": "București",
    "state": "",
    "zip": 60941,
    "county": "",
    "phone": "",
    "type": "",
    "ownership": "",
    "emergency": "",
    "quality": "",
    "LAT": 44.4203061,
    "LON": 26.0219328
  },
  "510": {
    "id": 10510,
    "name": "Policlinica DIACONIA",
    "address": "",
    "city": "Brăila",
    "state": "Brăila",
    "zip": 810022,
    "county": "",
    "phone": "",
    "type": "",
    "ownership": "",
    "emergency": "",
    "quality": "",
    "LAT": 45.2724515,
    "LON": 27.9776231
  },
  "511": {
    "id": 10511,
    "name": "Policlinica cu Plată",
    "address": "Strada Teodor Codrescu 5",
    "city": "Iași",
    "state": "",
    "zip": "",
    "county": "",
    "phone": "",
    "type": "",
    "ownership": "",
    "emergency": "",
    "quality": "",
    "LAT": 47.1786442,
    "LON": 27.5707688
  },
  "513": {
    "id": 10513,
    "name": "Polimed Center",
    "address": "Strada Bisericii 7",
    "city": "Odorheiu Secuiesc",
    "state": "Harghita",
    "zip": 535600,
    "county": "",
    "phone": "",
    "type": "",
    "ownership": "",
    "emergency": "",
    "quality": "",
    "LAT": 46.3159806,
    "LON": 25.2853682
  },
  "514": {
    "id": 10514,
    "name": "S.M.U.R.D.",
    "address": "",
    "city": "Iernut",
    "state": "",
    "zip": 545100,
    "county": "",
    "phone": "",
    "type": "",
    "ownership": "",
    "emergency": "ambulance_station",
    "quality": "",
    "LAT": 46.4509385,
    "LON": 24.2322992
  },
  "516": {
    "id": 10516,
    "name": "Salvamont Glăvoi",
    "address": "",
    "city": "Gârda de Sus",
    "state": "Alba",
    "zip": 517310,
    "county": "",
    "phone": "",
    "type": "",
    "ownership": "",
    "emergency": "Mountain & Cave Rescue",
    "quality": "",
    "LAT": 46.5777705,
    "LON": 22.7044829
  },
  "517": {
    "id": 10517,
    "name": "Serviciul de plasament de tip familial",
    "address": "",
    "city": "Râmnicu Vâlcea",
    "state": "Vâlcea",
    "zip": 240632,
    "county": "",
    "phone": "",
    "type": "",
    "ownership": "",
    "emergency": "",
    "quality": "",
    "LAT": 45.1209204,
    "LON": 24.36247
  },
  "518": {
    "id": 10518,
    "name": "salvamar, medic",
    "address": "",
    "city": "Cojocna",
    "state": "Cluj",
    "zip": 407240,
    "county": "",
    "phone": "",
    "type": "",
    "ownership": "",
    "emergency": "",
    "quality": "",
    "LAT": 46.7477349,
    "LON": 23.8412696
  }
}